FactoryName,Addr,lat,lng,MiddleIndustry,DetailIndustry,Material,ProductName
弼昌鋼管工業有限公司,桃園市大園區沙崙里西濱路一段１２７號１樓,25.1106739,121.2381,金屬製品業,其他金屬加工處理業,冷軋鋼板（管）、鋼板（捲）,鐵管、黑鋼管
瑞太福科技股份有限公司二廠,桃園市蘆竹區海湖里１３鄰海湖１８６之３１號,25.1153412,121.2519,電子零組件業,印刷電路板製造業,,印刷電路板
更安立有限公司,桃園市蘆竹區海湖里１６鄰海湖１８４號１樓,25.1142521,121.25173999999998,其他製造業,其他未分類製造業,,其他未列名雜項製品
展明齒輪股份有限公司二廠,桃園市蘆竹區海湖里濱海路一段２８９號１樓,25.1158352,121.259,機械設備業,金屬切削工具機製造業,,齒輪機械、銑床、車床、磨床等通用機械設備
高泰金屬有限公司,桃園市蘆竹區海湖里濱海路一段８２號１樓,25.1122646,121.25549299999999,金屬製品業,其他金屬加工處理業,廢電纜銅線及廢銅．廢鋁．廢鐵,其他金屬制品（廢電纜銅線材加工）
國森金屬有限公司,桃園市蘆竹區海湖里濱海路一段８２號１樓,25.1122646,121.25549299999999,金屬製品業,其他金屬加工處理業,,其他金屬製品（廢電纜銅線材加工）
香港商艾利丹尼森香港有限公司台灣分公司,桃園市蘆竹區海湖里濱海路一段２８０號１樓,25.1143322,121.259827,紙漿、紙及紙製品業,未分類其他紙製品製造業,其他紙製品,其他紙製品
展明齒輪股份有限公司,桃園市蘆竹區海湖里濱海路一段３６５號,25.116434100000003,121.26064299999999,機械設備業,金屬切削工具機製造業,,齒輪機械、銑床、車床、磨床等
弘洋股份有限公司,桃園市蘆竹區海湖里濱海路一段３６９號,25.1169357,121.260979,家具業,其他非金屬家具製造業,,非金屬家具，金屬家具
遠雄物流事業股份有限公司蘆竹廠,桃園市蘆竹區海湖里濱海路一段２３８號,25.113864899999996,121.26029199999999,金屬製品業,其他金屬容器製造業,,航空貨櫃、貨盤、裝盤、貨運裝具等裝配維護
永秀興業有限公司成功廠,桃園市蘆竹區海湖里海山路二段５２０－６號,25.110981,121.255234,塑膠製品業,其他塑膠製品製造業,塑膠料,塑膠粒
台光染整股份有限公司海湖二廠,桃園市蘆竹區濱海里海湖北路３０９巷１００號,25.1157112,121.261124,紡織業,染整業,,一般布料之染色加工及處理
台光染整股份有限公司海湖廠,桃園市蘆竹區濱海里海湖北路３０９巷１００號,25.1157112,121.261124,紡織業,染整業,,一般布料之染色加工及整理
美加利實業有限公司蘆竹廠,桃園市蘆竹區海湖里１０鄰海山路二段５２０之５號,25.110960000000002,121.25546999999999,紡織業,染整業,,染布、織布
諾鍈興業有限公司,桃園市蘆竹區海湖里海山路二段５２０號１樓,25.1107121,121.25546999999999,金屬製品業,其他金屬加工處理業,,消音箱．隔音門
景陽製瓶工業股份有限公司,桃園市蘆竹區海湖里濱海路一段４３３號,25.1174,121.262543,塑膠製品業,其他塑膠製品製造業,,寶特瓶、點滴瓶
固亞汽車製造股份有限公司蘆竹廠,桃園市蘆竹區海湖里１６鄰海湖１８６－２７號,25.1141167,121.26201599999999,汽車及零件業,車體製造業,,大客車車身打造
台灣防潮科技股份有限公司,桃園市蘆竹區海湖里中圳街２６５號,25.110561399999998,121.25873600000001,電力設備業,家用空調器具製造業,,電子防潮箱
更安立有限公司二廠,桃園市蘆竹區海湖里海湖１８４號,25.114233,121.26226000000001,木竹製品製造業,其他木竹製品製造業,,木竹製品（木削、木塊）
華勝壓光廠有限公司,桃園市蘆竹區海湖里中圳街１９０號,25.1105175,121.2594,紡織業,染整業,,布尺、衣服、鞋、帽、傘、服飾品
優福得科技有限公司,桃園市蘆竹區海湖里中圳街２５５號,25.1104374,121.2593,電腦電子及光學品業,其他電腦週邊設備製造業,,濾心
科頂有限公司桃園廠,桃園市蘆竹區海湖里海山東街１３巷１０號,25.1092758,121.25711100000001,塑膠製品業,其他塑膠製品製造業,,塑膠製品、ＨＯ－ＰＥ可撓管、ＰＥ黃色捲繞管
桃園紙廠股份有限公司桃園工廠,桃園市蘆竹區濱海里海湖北路３０９巷８９號,25.1131783,121.2624,紙漿、紙及紙製品業,紙張製造業,廢紙,單面牛皮紙板、芯紙
鍾鼎機械工程有限公司,桃園市蘆竹區濱海里中圳街１８６號,25.110162699999997,121.259689,機械設備業,化工機械設備製造業,,鍋爐、壓力容器製造
興毅鍋爐有限公司蘆竹廠,桃園市蘆竹區濱海里中圳街１８６號,25.110162699999997,121.259689,金屬製品業,鍋爐、金屬貯槽及壓力容器製造業,,鍋爐
國業砂石企業有限公司,桃園市大園區海口里建國路１４８號,25.1099854,121.25006100000002,非金屬礦物製品業,石材製品製造業,,砂石
昭伸企業股份有限公司,桃園市蘆竹區海湖里１７鄰海山中街２８９號,25.1137161,121.27161399999999,機械設備業,未分類其他專用機械設備製造業,,專用機械設備
鈺華營造有限公司,桃園市蘆竹區海湖里１７鄰海山中街２８７號,25.1136646,121.27153,機械設備業,未分類其他專用機械設備製造業,,專用機械設備
萬信鋁業有限公司,桃園市蘆竹區海湖里海山中街２８６號,25.11334,121.271492,金屬製品業,金屬建築組件製造業,,鋁門窗、帷幕牆
台灣鑄鋁股份有限公司蘆竹廠,桃園市蘆竹區海湖里海山中街２８８號１樓,25.11307,121.271759,基本金屬業,鋁鑄造業,,加工組裝
萬信鋁業有限公司蘆竹廠,桃園市蘆竹區海湖里海山中街２８８號１樓,25.11307,121.271759,金屬製品業,金屬建築組件製造業,,鋁門窗
木崧企業有限公司,桃園市蘆竹區海湖里１５鄰濱海路一段４８７巷３號１樓,25.1177979,121.26424399999999,木竹製品製造業,合板及組合木材製造業,,木棧板及木箱
冠維企業股份有限公司蘆竹廠,桃園市蘆竹區海湖里海湖北路２８７、２８９號１樓,25.11285,121.2663,食品及飼品業,未分類其他食品製造業,,調合麥片、麥粉、沖泡飲料粉、沖泡咖啡包
昶昕實業股份有限公司,桃園市蘆竹區海湖里海湖北路２９５號,25.11309,121.26593799999999,化學製品業,未分類其他化學製品製造業,,特用化學品
國泰樹脂工業股份有限公司蘆竹廠,桃園市蘆竹區海湖里海山中街９１號,25.1100826,121.265694,化學材料業,塑膠原料製造業,,丙烯酸酯樹脂、醇酸樹脂、矽胺基樹脂、環氧樹脂
毅達拉鍊有限公司,桃園市大園區埔心里２２鄰埔心９６號１樓,25.0969849,121.19501499999998,其他製造業,拉鍊及鈕扣製造業,,其他製品、拉鍊頭、拉鍊
煜總企業有限公司,桃園市大園區埔心里１９鄰埔心８８之１號１樓,25.096202899999998,121.195641,塑膠製品業,其他塑膠製品製造業,,果汁瓶、化粧瓶
百穗工業有限公司桃園廠,桃園市大園區沙崙里１２鄰中央路２６５之１號,25.0977,121.22375500000001,塑膠製品業,其他塑膠製品製造業,,塑膠製品
銓昱電機工程有限公司,桃園市大園區竹圍里成功街３７號１樓,25.1014843,121.23944099999999,機械設備業,其他通用機械設備製造業,,各種機械零件
亞哥建材工業股份有限公司,桃園市大園區竹圍里１１鄰海方厝３－１號,25.09976,121.238518,金屬製品業,金屬建築組件製造業,,其他金屬、建築組件
瑋霖有限公司桃園廠,桃園市大園區竹圍里海方厝３２之２號,25.0994949,121.240128,紡織業,染整業,鐵板、鋼線、樹脂、染料、助劑,布匹染
國際置地股份有限公司,桃園市大園區竹圍里海方厝３２之２號１樓,25.0994949,121.240128,紡織業,其他紡織品製造業,紗,織布業
竹林化學科技股份有限公司,桃園市大園區竹圍里２鄰竹圍街５之２號１樓,25.1031418,121.244225,化學製品業,塗料、染料及顏料製造業,,塗料
永儲股份有限公司桃園廠二廠,桃園市大園區海口里田寮５之２０號,25.1074181,121.24710800000001,電子零組件業,未分類其他電子零組件製造業,,倉儲
良機實業股份有限公司桃園廠,桃園市蘆竹區海湖里海山路二段２９１號,25.10639,121.25715600000001,非金屬礦物製品業,玻璃纖維製造業,,玻璃纖維製品、塑膠容器
廣明實業股份有限公司,桃園市蘆竹區海湖里海山路二段２１１號,25.1040764,121.25886499999999,化學材料業,化學原材料製造業,,化學材料
美和紙布股份有限公司,桃園市蘆竹區海湖里海山路二段１４９號,25.10299,121.259026,紡織業,不織布業,,高效率空氣過濾不織布
鼎榮濾材科技有限公司桃園廠,桃園市蘆竹區海湖里海山路二段１４９之２號,25.1028728,121.259026,其他製造業,其他未分類製造業,,濾布、過濾材料
台灣耐力股份有限公司蘆竹廠,桃園市蘆竹區海湖里２鄰海山中街７號,25.106237399999998,121.258873,機械設備業,輸送機械設備製造業,,輸送設備
鵝牌興業有限公司桃園廠,桃園市蘆竹區海山路二段３９７號,25.1080914,121.25560800000001,金屬製品業,金屬建築組件製造業,,鋁門窗
鵝牌實業股份有限公司,桃園市蘆竹區海湖里海山路二段３９９號１樓,25.1082516,121.25549299999999,金屬製品業,未分類其他金屬製品製造業,,防盜氣密窗
高丞實業股份有限公司,桃園市蘆竹區海湖里海山東街４５號,25.1079044,121.25694299999999,紡織業,染整業,,印染整理
遠通氣密窗有限公司蘆竹廠,桃園市蘆竹區海湖里海山西路１之１號,25.108421300000003,121.254967,金屬製品業,金屬建築組件製造業,,金屬建築結構及組件
仲申砂心有限公司蘆竹廠,桃園市蘆竹區海湖里海山東街１５號,25.108060000000002,121.257278,非金屬礦物製品業,未分類其他非金屬礦物製品製造業,,砂心、小五金零件
麗嬰房股份有限公司桃園二廠,桃園市蘆竹區海湖里海山中街８號,25.105934100000002,121.260277,紡織業,紡織製成品製造業,,嬰童衣著類及服飾品
華膳空廚股份有限公司桃園廠,桃園市蘆竹區海湖里海山路二段１５６巷２２號,25.103994399999998,121.26094099999999,食品及飼品業,未分類其他食品製造業,,中餐（餐盒），西點
惠國電子有限公司二廠,桃園市蘆竹區海湖里海山中街１９號,25.1068954,121.259781,電腦電子及光學品業,其他電腦週邊設備製造業,,電腦週邊設備及零組件
立善志環保工程有限公司,桃園市蘆竹區海湖里海山東街１３巷２號,25.1088657,121.257248,非製造業,非製造業,,廢資源回收物
義鎧科技股份有限公司桃園二廠,桃園市蘆竹區海湖里海山中街５０號,25.106893499999998,121.260551,化學材料業,化學原材料製造業,,化學材料
翊昌股份有限公司蘆竹廠,桃園市蘆竹區海湖里海山東街４１號１樓、２樓、３樓,25.1082745,121.259171,機械設備業,其他通用機械設備製造業,,通用機械加工
偉斯企業股份有限公司,桃園市蘆竹區海湖里海山中街５１之１號２樓,25.1071911,121.26037600000001,化學製品業,未分類其他化學製品製造業,,黏結劑
漢第實業股份有限公司蘆竹廠,桃園市蘆竹區海湖里海山中街５１號１樓,25.1071911,121.26037600000001,其他運輸工具零件業,自行車零件製造業,,塑膠製品，自行車及其零件
日馳企業股份有限公司蘆竹廠,桃園市蘆竹區海湖里海山中街５１號２樓、３樓、４樓、５樓、６樓、７樓、Ｂ１,25.1071911,121.26037600000001,其他運輸工具零件業,自行車零件製造業,,齒盤、前後變速器、變速把手
偉赫股份有限公司桃園廠,桃園市蘆竹區海湖里海山中街５１－１號（１樓、３樓）,25.1071911,121.26037600000001,金屬製品業,其他金屬加工處理業,,銦金屬加工
瞻航國際物流股份有限公司,桃園市大園區竹圍里航翔路５號３樓之４,25.0968323,121.254875,電子零組件業,半導體封裝及測試業,,電子零組件加工（ＩＣ）
海盜船科技股份有限公司,桃園市大園區竹圍里航翔路５號５樓之１、之２、之３、之４、之５、之６、之７、之８、之９、之１０,25.0968323,121.254875,電子零組件業,未分類其他電子零組件製造業,,電子零組件
裕隆行國際運通股份有限公司自由貿易港分公司,桃園市大園區竹圍里航翔路５號７樓之３,25.0968323,121.254875,電腦電子及光學品業,視聽電子產品製造業,,數位音樂播放器（ＭＰ３）、數位相機、監視器材
永昌工業社,桃園市蘆竹區海湖里海湖東路２３巷９號,25.1014729,121.261948,紡織業,針織布業,,針織布
環球水泥股份有限公司海湖石膏板廠,桃園市蘆竹區海湖里海山中街１８號,25.1068363,121.261581,非金屬礦物製品業,未分類其他非金屬礦物製品製造業,,石膏板
永儲股份有限公司桃園廠三廠,桃園市大園區海口里國際路三段９３２號,25.108923,121.249352,電子零組件業,未分類其他電子零組件製造業,,倉儲
明基材料股份有限公司海湖廠,桃園市蘆竹區海湖里中圳街１７巷１９弄１０號,25.1021557,121.26296200000002,電子零組件業,其他光電材料及元件製造業,,雕刻輪
威勝捲門企業有限公司,桃園市蘆竹區海湖里中圳街１７巷１７號,25.1028881,121.263054,機械設備業,其他金屬加工用機械設備製造業,,自動捲門專用零件
鑫舜股份有限公司蘆竹廠,桃園市蘆竹區海湖里海山中街３２號,25.107601199999998,121.26178700000001,紡織業,染整業,,紗製造加工（印染整理）
智晟實業股份有限公司桃園廠,桃園市蘆竹區海湖里中圳街１７８號,25.108915300000003,121.26063500000001,紡織業,染整業,,布類染整，整理，樹脂加工
坤福電線電纜有限公司,桃園市蘆竹區海湖里中圳街１７巷１９弄１１號,25.1023083,121.26323700000002,電力設備業,電線及電纜製造業,,電線、電纜
正鑫工業有限公司,桃園市蘆竹區海湖里中圳街１７巷１８號,25.1034546,121.26331299999998,金屬製品業,未分類其他金屬製品製造業,,汽機車零件．機械零件．模具．五金等
創翌興業有限公司,桃園市蘆竹區海湖里中圳街１７巷１９弄７號,25.10264,121.263329,金屬製品業,其他金屬加工處理業,,矽鋼片
台灣朋和股份有限公司,桃園市蘆竹區海湖里中圳街１８０號,25.1092339,121.26037600000001,塑膠製品業,塑膠膜袋製造業,,ＯＥＭ空白中膠膜１８０ｍｍ、ＯＥＭ空白下膠膜９０ｍｍ、２０１８起司火腿蛋７０Ｍ、２０１８紐奧良風味鮮蔬烤雞７５Ｍ
台灣佑能工具股份有限公司,桃園市蘆竹區濱海里１４鄰中圳街１８０號,25.1092339,121.26037600000001,機械設備業,未分類其他專用機械設備製造業,,ＰＣＢ鑽頭
永潤食品股份有限公司蘆竹廠,桃園市蘆竹區海湖里海山中街７１號,25.1078758,121.261772,食品及飼品業,未分類其他食品製造業,,餐盒食品，飯糰，手捲，壽司，糕點
東利瀝青股份有限公司,桃園市蘆竹區海湖里中圳街１２０之１號,25.106884,121.262474,非金屬礦物製品業,未分類其他非金屬礦物製品製造業,,瀝青、混凝土
金怡合企業股份有限公司桃園廠,桃園市蘆竹區海湖里中圳街１７巷１６號,25.103525199999996,121.263428,機械設備業,輸送機械設備製造業,,空橋設備、輸送帶設備
冠信模具股份有限公司,桃園市蘆竹區海湖里中圳街１７巷１５號,25.103132199999997,121.2635,金屬製品業,金屬模具製造業,,金屬手工具及模具，其他金屬製品，金屬加工用機械設備，其他專用機械設備，通用機械設備
權暐企業股份有限公司,桃園市蘆竹區海湖里海山中街２６號,25.1061077,121.26299999999999,汽車及零件業,汽車零件製造業,,其他金屬製品、其他機械、模具製造、汽車及其零件（鐵板沖壓成
智晟實業股份有限公司二廠,桃園市蘆竹區海湖里中圳街１８２號,25.10983,121.25988000000001,紡織業,染整業,,布類染整，整理，樹脂加工
三友塑膠泡棉有限公司,桃園市蘆竹區海湖里中圳街１７巷１３號,25.1032,121.263626,塑膠製品業,塑膠外殼及配件製造業,,塑膠製品、塑膠泡棉
富聯企業有限公司,桃園市蘆竹區海湖里海山東街４８５號,25.1037674,121.26813500000002,塑膠製品業,其他塑膠製品製造業,,塑膠容器
金佳興針織有限公司,桃園市蘆竹區坑口里７鄰後壁厝９４－６號,25.102067899999998,121.27001200000001,紡織業,針織布業,,胚布
耕亞企業有限公司,桃園市蘆竹區海湖里海湖東路２３９巷７號,25.1041527,121.26834099999999,金屬製品業,金屬表面處理業,鋁,鋁板
融忻精密實業有限公司,桃園市蘆竹區海湖里海湖東路３１５號１樓,25.104566600000002,121.270187,汽車及零件業,汽車零件製造業,,汽車零件
台灣默瑞建材股份有限公司,桃園市蘆竹區坑口里７鄰後壁厝９４－７號,25.101863899999998,121.269608,非金屬礦物製品業,水泥及混凝土製品製造業,,空心磚．混凝土（地）磚
和彩有限公司,桃園市蘆竹區坑口里海湖東路２９２巷４１號,25.10323,121.271133,紡織業,人造纖維梭織布業,,梭織布、水織布
正昌創新股份有限公司,桃園市蘆竹區坑口里海湖東路２９２巷４１號３樓,25.10323,121.271133,紡織業,人造纖維梭織布業,,紡織品買賣、製造
燦通企業股份有限公司,桃園市蘆竹區海湖里海湖東路２１２號,25.1020927,121.26837900000001,金屬製品業,金屬建築組件製造業,,防火鋼板門、金屬門窗
燦通企業股份有限公司二廠,桃園市蘆竹區海湖里海湖東路２１２號,25.1020927,121.26837900000001,金屬製品業,金屬建築組件製造業,,防火門
宇邦企業有限公司,桃園市蘆竹區海湖里海湖東路２３９巷９號,25.1043415,121.26818100000001,機械設備業,其他通用機械設備製造業,,機械製造
余東電機工業股份有限公司蘆竹廠,桃園市蘆竹區坑口里７鄰後壁厝９４之３號,25.1017933,121.27030900000001,電力設備業,其他電力設備及配備製造業,,電力機械器材、高低壓變壓器、電抗器、穩壓器
融忻精密實業有限公司二廠,桃園市蘆竹區海湖里海湖東路３１５之１號,25.10485,121.270187,汽車及零件業,汽車零件製造業,,汽車零件
銳煬油壓機械有限公司,桃園市蘆竹區坑口里７鄰後壁厝９４之５號,25.101587300000002,121.270233,機械設備業,其他金屬加工用機械設備製造業,,金屬加工用機械、專用生產機械、通用機械設備、其他機械
豐煬油壓機械有限公司,桃園市蘆竹區坑口里７鄰後壁厝９４之５號,25.101587300000002,121.270233,機械設備業,未分類其他專用機械設備製造業,,金屬加工用機械、專用生產機械、通用機械設備、其他機械
融忻企業社,桃園市蘆竹區海湖里海湖東路３４９之１及３１５之２號,25.1050758,121.270187,紙漿、紙及紙製品業,瓦楞紙板及紙容器製造業,,紙容器（餐盒）
鑫利工業有限公司,桃園市蘆竹區海湖里海湖東路２１０巷６號,25.1014843,121.26812,金屬製品業,其他金屬加工處理業,,傳動軸
帥斯家飾企業有限公司蘆竹廠,桃園市蘆竹區海湖里海湖東路２３９巷２１號,25.104936600000002,121.267693,家具業,木製家具製造業,,家具
豪紳纖維科技股份有限公司蘆竹廠,桃園市蘆竹區海湖里海湖東路２１０巷１２號,25.10151,121.266869,紡織業,紡織製成品製造業,纖維原料、紗、布,針織成衣、服飾品、其他紡織製品、測試儀器醫療布
泰鑽實業有限公司,桃園市蘆竹區海湖里海山東街４２１號,25.105047199999998,121.26671599999999,石油及煤製品業,石油及煤製品製造業,,乳化瀝青
新中宏橡膠科技股份有限公司,桃園市蘆竹區海湖里１鄰中圳街１８巷２０號,25.1048679,121.26649499999999,橡膠製品業,其他橡膠製品製造業,,其他橡膠製品（丁基再生膠）
亮德有限公司,桃園市蘆竹區坑口里後壁厝８８之１３號,25.1005611,121.27125500000001,家具業,其他非金屬家具製造業,,板材加工（非金屬家具）
優渥實木傢俱股份有限公司,桃園市蘆竹區坑口里後壁厝８８之１３號,25.1005611,121.27125500000001,家具業,木製家具製造業,,傢俱
台灣歐德傢俱股份有限公司蘆竹廠,桃園市蘆竹區坑口里後壁厝８８之１３號,25.1005611,121.27125500000001,家具業,其他非金屬家具製造業,,非金屬家具，金屬家具
騰德有限公司,桃園市蘆竹區坑口里後壁厝８８之１３號,25.1005611,121.27125500000001,家具業,木製家具製造業,,非金屬傢俱
勝楓興業有限公司,桃園市蘆竹區海湖里中圳街１８巷１８號,25.1047573,121.2663,金屬製品業,其他金屬加工處理業,,金屬加工處理
旭隆實業股份有限公司,桃園市蘆竹區海湖里海山東街４２１巷２５號,25.105764399999998,121.266975,汽車及零件業,汽車零件製造業,,汽車保桿
大洋塑膠工業股份有限公司桃園三廠,桃園市蘆竹區海湖里２１鄰海湖東路３７５號及海湖東路２３９巷６６號,25.106481600000002,121.26813500000002,化學材料業,塑膠原料製造業,,塑膠粒
振雁機械工程股份有限公司蘆竹廠,桃園市蘆竹區７鄰後壁厝８８之９號,25.1005478,121.271774,機械設備業,其他通用機械設備製造業,,通用機械設備、鍋爐等
原緯興業股份有限公司蘆竹廠,桃園市蘆竹區海湖里海山東街４１９號,25.105620000000002,121.266624,機械設備業,其他通用機械設備製造業,,機械零件
竹瑞企業社,桃園市蘆竹區坑口里７鄰後壁厝８８－１９號１樓,25.1003513,121.27163700000001,金屬製品業,未分類其他金屬製品製造業,,滾輪．傳動軸．花紋輪．油壓缸
建新理化廠股份有限公司蘆竹廠,桃園市蘆竹區海湖里海湖５１之１４號,25.1061344,121.26716599999999,紡織業,其他紡織品製造業,,植毛布（胚布底，不織布底），植毛紙
信翼企業有限公司蘆竹廠,桃園市蘆竹區海湖里海湖東路１７３巷１９號,25.1016884,121.26602199999999,金屬製品業,其他金屬加工處理業,鍍材、鋼材、鐵材,鍍鋅鋼捲
浤鎰股份有限公司,桃園市蘆竹區海湖里中圳街１８巷１２號,25.1044788,121.26581599999999,化學材料業,化學原材料製造業,,硫酸鋁
群寶科技股份有限公司海湖廠,桃園市蘆竹區海湖里海山東街３９８號,25.1053238,121.26608999999999,化學製品業,未分類其他化學製品製造業,,其他化學製藥
上特力股份有限公司蘆竹廠,桃園市蘆竹區海湖里中圳街１０號,25.1032047,121.26531999999999,金屬製品業,螺絲、螺帽及鉚釘製造業,,螺絲、螺帽
大洋塑膠工業股份有限公司桃園廠,桃園市蘆竹區海湖里２１鄰海湖東路３７５號,25.106475800000002,121.27186599999999,化學材料業,塑膠原料製造業,,塑膠粉、塑膠粒
大洋塑膠工業股份有限公司桃園二廠,桃園市蘆竹區海湖里２１鄰海湖東路３７５號,25.106475800000002,121.27186599999999,化學材料業,塑膠原料製造業,,水性ＰＵ樹脂
紀泰電線電纜股份有限公司,桃園市蘆竹區坑口里７鄰後壁厝８８之１５、之１６號,25.10122,121.273048,電力設備業,電線及電纜製造業,銅、ＰＶＣ料,電線、電纜製造
惠國電子有限公司,桃園市蘆竹區海湖里海山中街１３巷１６號,25.099453,121.270073,電腦電子及光學品業,其他電腦週邊設備製造業,,電腦週邊設備及零組件
義芳化學工業股份有限公司桃園廠,桃園市蘆竹區海湖里海湖東路３７７號,25.1065121,121.27193500000001,化學材料業,化學原材料製造業,,ＮＡＯＨ、ＨＣＬ、Ｈ２、ＣＬ２、ＫＯＨ、Ｋ２ＣＯ３、化學藥品
谷川林國際有限公司,桃園市蘆竹區坑口里後壁厝８８之１８號１樓,25.10013,121.27204099999999,家具業,木製家具製造業,,木製櫃
谷綠林股份有限公司蘆竹廠,桃園市蘆竹區坑口里後壁厝８８之１８號２樓,25.10013,121.27204099999999,家具業,木製家具製造業,,木製櫃
鑫威汽車工業股份有限公司,桃園市蘆竹區海湖里海湖東路１５１號,25.1016216,121.265518,汽車及零件業,車體製造業,,大客車車身打造、車輛配件維修
將溢機械工程有限公司蘆竹廠,桃園市蘆竹區坑口里７鄰後壁厝８８之１０號,25.1000061,121.271965,金屬製品業,鍋爐、金屬貯槽及壓力容器製造業,,金屬容器、鍋爐、機械設備
金昇昌工業股份有限公司,桃園市蘆竹區海湖里中圳街９號,25.1026974,121.26511399999998,基本金屬業,銅材軋延、擠型及伸線業,,銅線、銅條、銅錠
義鎧科技股份有限公司桃園廠,桃園市蘆竹區海湖里２１鄰海湖東路３７９號,25.106720000000003,121.271851,化學材料業,化學原材料製造業,,化學材料
濟緯實業股份有限公司,桃園市蘆竹區海湖里中圳街１６號,25.103603399999997,121.26483200000001,化學材料業,化學原材料製造業,,化工原料（ＮＡＯＵ、ＨＬ、ＫＯＨ）
協和興機械股份有限公司,桃園市蘆竹區海湖里中圳街１８巷９號,25.1046314,121.265045,金屬製品業,其他金屬加工處理業,,鋼板組裝、機架焊接
富正機械有限公司,桃園市蘆竹區海湖里中圳街１８巷９號１樓,25.1046314,121.265045,機械設備業,其他通用機械設備製造業,,鋼板組裝、機架焊接
郡政科技有限公司,桃園市蘆竹區海湖里海山東街３９３號,25.1059914,121.265656,基本金屬業,銅材軋延、擠型及伸線業,,銅條
泰運針織有限公司,桃園市蘆竹區海湖里中圳街１８巷５號１樓,25.1042538,121.26473200000001,紡織業,其他紡織品製造業,,針織布、織布
五福氣體有限公司,桃園市蘆竹區坑口里１０鄰後壁厝９５之３號,25.1006527,121.26554099999998,化學材料業,化學原材料製造業,,乙炔
億來製網股份有限公司,桃園市蘆竹區海湖里海山東街４１３號,25.1062641,121.2658,機械設備業,其他通用機械設備製造業,,鋼網
連甸股份有限公司桃園廠,桃園市蘆竹區坑口里後壁厝９５之２號,25.1002235,121.26570900000002,塑膠製品業,其他塑膠製品製造業,,園藝灑水器
鎮邦企業有限公司,桃園市蘆竹區海湖里中圳街１８巷１號,25.104129999999998,121.264473,金屬製品業,金屬模具製造業,,鋼材加工、模具、機械零件、金屬加工用、機械、專用生產機械
安泰紙器股份有限公司蘆竹廠,桃園市蘆竹區海湖里中圳街１７巷１號,25.103578600000002,121.26423600000001,紙漿、紙及紙製品業,瓦楞紙板及紙容器製造業,瓦楞紙板、平板,紙容器
豐溢機械有限公司蘆竹廠,桃園市蘆竹區海湖里中圳街１８巷７弄２號,25.1051846,121.264626,機械設備業,其他通用機械設備製造業,切削刀具、滑道油,機械零件加工
銓閎有限公司蘆竹廠,桃園市蘆竹區坑口里後壁厝８８之７號,25.09937,121.272552,家具業,其他非金屬家具製造業,,１０７年無生產
立貝鈦科技股份有限公司,桃園市蘆竹區海湖里中圳街１９號,25.1038952,121.264168,機械設備業,其他金屬加工用機械設備製造業,,金屬加工用機械處工
順鈦實業有限公司蘆竹廠,桃園市蘆竹區海湖里中圳街２１號,25.1038952,121.264168,金屬製品業,金屬鍛造業,,汽機車零件，六角螺帽，特殊鍛品
鈺昇五金有限公司,桃園市蘆竹區海湖里海山東街４１１號,25.10666,121.26548000000001,機械設備業,其他通用機械設備製造業,,廢鐵、機械設備底座零件
鈺欣五金有限公司蘆竹廠,桃園市蘆竹區海湖里海山東街４１１號,25.10666,121.26548000000001,基本金屬業,未分類其他基本金屬製造業,,廢五金
安勛有限公司,桃園市蘆竹區坑口里南山北路二段２１９巷１號,25.100668,121.274124,其他製造業,玩具及遊戲機製造業,,益智玩具製造組裝
泰鎰鑄造工業股份有限公司海湖廠,桃園市蘆竹區海湖里中圳街１８巷７弄８號,25.1053352,121.26442,機械設備業,紡織、成衣及皮革生產用機械設備製造業,,紡織機械零件及其它機械鑄件之鑄造
冠順科技有限公司,桃園市蘆竹區坑口里三德街１２８號,25.0983658,121.270729,金屬製品業,其他金屬加工處理業,,金屬加工處理
邦帝科技實業有限公司,桃園市蘆竹區坑口里後壁厝８８之８號,25.099041,121.27249099999999,化學材料業,化學原材料製造業,,二氧化碳
翔冠企業有限公司蘆竹廠,桃園市蘆竹區海湖里中圳街３０號,25.104715300000002,121.264046,機械設備業,其他金屬加工用機械設備製造業,,擠型機配件加工
協誠工業股份有限公司,桃園市蘆竹區坑子口段海湖小段６４之２２、６４之４５７、６４之４５８、６４之２３８５地號,25.105958899999997,121.264496,非金屬礦物製品業,未分類其他非金屬礦物製品製造業,,瀝青，混凝土
陞佳科技股份有限公司,桃園市蘆竹區海湖里中圳街１７巷８號,25.1036873,121.2637,化學材料業,塑膠原料製造業,,未列名塑膠製品１８４１０４３聚酯粉末、１８４１０４６尼龍粉末
利龍工業有限公司,桃園市蘆竹區海湖里中圳街１８巷７弄３３號,25.1051483,121.264046,基本金屬業,鋼鐵鑄造業,,鋼鐵、銑品
欣昌塑膠股份有限公司,桃園市蘆竹區海湖里２０鄰海湖北路３６號,25.1080513,121.272247,塑膠製品業,其他塑膠製品製造業,,工業用保利龍
文來金屬工業股份有限公司桃園廠,桃園市蘆竹區坑口里南山北路二段２９０號（含２９２號）,25.1023216,121.2753,金屬製品業,其他金屬加工處理業,,矽鋼片、進出口買賣裁剪
振益油漆工程有限公司,桃園市蘆竹區坑口里南山北路二段２０６號,25.1005859,121.274658,化學製品業,塗料、染料及顏料製造業,,其他機能塗料
德富金屬工業股份有限公司,桃園市蘆竹區坑口里７鄰後壁厝８８之５號,25.0984325,121.2724,金屬製品業,未分類其他金屬製品製造業,,金屬結構及建築組件、其他金屬製品、通用機械設備、其他機械、電
五長有限公司,桃園市蘆竹區坑口里南山北路二段２０２號１樓,25.100441,121.27471200000001,機械設備業,未分類其他專用機械設備製造業,,空氣桶
常基股份有限公司,桃園市蘆竹區坑口里後壁厝８８之６號,25.0984325,121.272552,金屬製品業,金屬結構製造業,,鋼筋續接器、金屬結構及建築組件
建中工程股份有限公司桃園二廠,桃園市蘆竹區海湖里海湖北路４６號,25.1088238,121.271355,非金屬礦物製品業,未分類其他非金屬礦物製品製造業,,瀝青混擬土道路工程鋪設
大正瀝青拌合廠股份有限公司,桃園市蘆竹區海湖里海山東街３２０巷５１號,25.10589,121.26378600000001,非金屬礦物製品業,未分類其他非金屬礦物製品製造業,,其他非金屬礦物製品、瀝青混凝土
欣裕塑膠工業有限公司蘆竹廠,桃園市蘆竹區坑口里三德街５６之１號１樓,25.0974979,121.26985900000001,塑膠製品業,塑膠膜袋製造業,,塑膠製品
鴻來企業股份有限公司,桃園市蘆竹區坑口里１０鄰三德街５６號,25.0974979,121.26985900000001,塑膠製品業,其他塑膠製品製造業,,泡棉、架橋塑膠製成品
崇碩塑膠有限公司,桃園市蘆竹區坑口里三德街１５巷１４弄３８號,25.09827,121.26541100000001,塑膠製品業,其他塑膠製品製造業,回收物料,回收物料批發
金利多企業有限公司,桃園市蘆竹區坑口里三德街５４巷１號,25.0969849,121.26916499999999,紡織業,人造纖維梭織布業,,布－計量單位應用Ｙ
啟琳化工有限公司蘆竹廠,桃園市蘆竹區坑口里三德街５４巷３號,25.0968552,121.26921100000001,化學製品業,未分類其他化學製品製造業,,油漆用稀釋劑
以盛企業有限公司,桃園市蘆竹區坑口里三德街１５巷１４弄３０號,25.0978985,121.265594,塑膠製品業,其他塑膠製品製造業,,塑膠粒
亞中實業股份有限公司蘆竹廠,桃園市蘆竹區坑口里三德街４７號,25.0970879,121.267448,非金屬礦物製品業,研磨材料製造業,,金屬表面研磨劑
亞祿股份有限公司海湖廠,桃園市蘆竹區坑口里三德街４７號,25.0970879,121.267448,塑膠製品業,其他塑膠製品製造業,,塑膠製品
昌德紙業有限公司,桃園市蘆竹區坑口里三德街４８號,25.096902800000002,121.26799999999999,紡織業,染整業,,紙印花加工
馨成股份有限公司蘆竹廠,桃園市蘆竹區坑口里海山路一段３９４巷５５號,25.098743399999996,121.264328,機械設備業,輸送機械設備製造業,,電梯主機油壓缸生產製造維修
貿阜塑料企業有限公司,桃園市蘆竹區坑口里三德街１５巷１４弄２３號,25.0979729,121.26518999999999,塑膠製品業,其他塑膠製品製造業,,塑膠粒
璋鑫機械工業有限公司蘆竹廠,桃園市蘆竹區坑口里海山路一段３９４巷５６號,25.098505,121.26441200000001,機械設備業,輸送機械設備製造業,,昇降機、鐵架
芊岡機械有限公司,桃園市蘆竹區坑口里三德街１５巷１４弄１２號,25.097379999999998,121.266052,金屬製品業,未分類其他金屬製品製造業,,金屬製品
佑能科技有限公司,桃園市蘆竹區坑口里２１鄰三德街１５巷１４弄２１號Ｂ１,25.0977688,121.26528200000001,基本金屬業,未分類其他基本金屬製造業,,廢鋼鐵及廢五金虖理
紅帥工業股份有限公司蘆竹廠,桃園市蘆竹區坑口里三德街５４巷５號,25.096485100000002,121.269379,電力設備業,電線及電纜製造業,,裸銅線、鍍錫銅線
協磁股份有限公司,桃園市蘆竹區坑口里三德街１５巷１４弄１０號,25.0969849,121.2662,機械設備業,泵、壓縮機、活栓及活閥製造業,,泵浦、過濾機
順寶企業股份有限公司金青廠,桃園市蘆竹區坑口里三德街５４巷８號,25.0962734,121.268707,其他製造業,其他未分類製造業,,ｈｅｐａ．ｕｌｐａ．ｆｆｕ
亞利企業有限公司蘆竹廠,桃園市蘆竹區坑口里三德街４２之２號,25.0965385,121.267067,紡織業,針織布業,,織布
永馨實業股份有限公司桃園廠,桃園市蘆竹區坑口里大有街２９巷６號,25.0964622,121.27170600000001,紡織業,染整業,,化學纖維布匹印花加工
柏承科技股份有限公司蘆竹二廠,桃園市蘆竹區坑口里大有街２９巷８號,25.0967,121.27259099999999,電子零組件業,印刷電路板製造業,,印刷電路板
耿鼎企業股份有限公司二廠,桃園市蘆竹區坑口里３鄰大坑街３２號,25.10783,121.27568799999999,汽車及零件業,汽車零件製造業,,鋼模、汽車零件、五金零件
添進裕機械股份有限公司,桃園市蘆竹區坑口里三德街４２號,25.096393600000003,121.267067,機械設備業,其他通用機械設備製造業,,印刷機、瓦楞機
祥好塑膠股份有限公司蘆竹廠,桃園市蘆竹區坑口里三德街１５巷１號,25.0972157,121.26507600000001,塑膠製品業,其他塑膠製品製造業,,清潔劑瓶、漂白水瓶、塑膠成型模具、機器
億大機械股份有限公司,桃園市蘆竹區坑口里大有街２９巷４號,25.096262,121.271606,機械設備業,機械傳動設備製造業,,齒輪減速機
華潔洗滌股份有限公司桃園廠,桃園市蘆竹區坑口里１１鄰三德街５４巷７號,25.0959721,121.269516,紡織業,紡織製成品製造業,,布巾品洗滌
三川機械有限公司,桃園市蘆竹區坑口里大有街２９巷７號,25.0960846,121.271378,機械設備業,其他通用機械設備製造業,,彎管加工
柏承科技股份有限公司蘆竹廠,桃園市蘆竹區坑口里大有街３３號,25.09636,121.27256799999999,電子零組件業,印刷電路板製造業,,印刷電路板
堯鑫鋼鐵有限公司,桃園市蘆竹區坑口里三德街４０號,25.09617,121.26683,金屬製品業,金屬熱處理業,,熱軋鋼捲
大証紡織股份有限公司,桃園市蘆竹區坑口里三德街５４巷１０號,25.0957813,121.26896699999999,紡織業,染整業,,盤頭紗
矽卡有限公司蘆竹廠,桃園市蘆竹區坑口里大有街９巷１０、１２號,25.095747,121.27049299999999,其他製造業,其他未分類製造業,,隔熱紙、ＰＥＴ膠帶
鉅豐鐵箱有限公司蘆竹廠,桃園市蘆竹區坑口里大有街２９巷５號,25.095903399999997,121.271507,金屬製品業,鍋爐、金屬貯槽及壓力容器製造業,,金屬貯槽及運輸容器
三義化學工業股份有限公司桃園海湖廠,桃園市蘆竹區濱海里海山中街８５號,25.1092262,121.264191,化學材料業,化學原材料製造業,,環氧氯丙烷
上興鐵工廠有限公司蘆竹廠,桃園市蘆竹區坑口里大有街２９巷２號,25.096038800000002,121.27213300000001,機械設備業,紡織、成衣及皮革生產用機械設備製造業,,紡織機械
德弘貿易股份有限公司蘆竹廠,桃園市蘆竹區坑口里大有街３６號２樓,25.0962448,121.272888,其他製造業,其他未分類製造業,,日式醬油分裝、乾冰
泰舜實業股份有限公司蘆竹廠,桃園市蘆竹區坑口里大有街３６號３樓,25.0962448,121.272888,成衣及服飾品業,成衣製造業,,梭織成衣、針織成衣
良穩國際股份有限公司蘆竹廠,桃園市蘆竹區海湖里海山中街８３號,25.108881,121.26361100000001,非金屬礦物製品業,未分類其他非金屬礦物製品製造業,,砂石
相興機械廠有限公司,桃園市蘆竹區坑口里大有街２９號,25.0957165,121.271423,機械設備業,紡織、成衣及皮革生產用機械設備製造業,,紡織機械
三福氣體股份有限公司蘆竹廠,桃園市蘆竹區海湖里海山中街３８號,25.108097100000002,121.262749,化學製品業,未分類其他化學製品製造業,,氫氣
辰婕塑膠有限公司,桃園市蘆竹區坑口里大有街２５號,25.095499,121.271111,塑膠製品業,其他塑膠製品製造業,,塑膠料
榮祥工業股份有限公司桃園廠,桃園市蘆竹區坑口里大有街２６號,25.095813800000002,121.27265200000001,化學材料業,化學原材料製造業,,ＴＫ玻璃Ａ、ＴＫ玻璃Ｂ、ＴＫ玻璃Ｃ、矽酸膠－Ａ
順昱有限公司蘆竹廠,桃園市蘆竹區坑口里大有街９巷２號,25.095253,121.26947,紡織業,不織布業,,各種紗類併經加工
耿鼎企業股份有限公司三廠,桃園市蘆竹區坑口里大坑街２８號,25.10773,121.27796200000002,汽車及零件業,汽車零件製造業,,車身沖壓模具、車身沖壓件
耿鼎企業股份有限公司四廠,桃園市蘆竹區坑口里大坑街２４號,25.10761,121.277206,汽車及零件業,汽車零件製造業,,車身沖壓件、鋼模
譽象企業有限公司,桃園市大園區三石里１鄰三塊石４之１２號,25.090688699999998,121.158859,金屬製品業,未分類其他金屬製品製造業,,視訊盒外殼
和成興業有限公司大江廠,桃園市大園區五權里１１鄰３５號,25.085321399999998,121.169449,電力設備業,發電、輸電及配電機械製造業,,變壓器、電抗器、穩壓器
金冠豪電機企業有限公司,桃園市大園區五權里１１鄰３５號,25.085321399999998,121.169449,電力設備業,發電、輸電及配電機械製造業,,配電變壓器
明進機電有限公司,桃園市大園區五權里１１鄰３５號,25.085321399999998,121.169449,電力設備業,發電、輸電及配電機械製造業,,電路工程
元鼎鑫電機企業有限公司大江廠,桃園市大園區五權里中興路二段３７１巷１２６號,25.0823669,121.16944099999999,電力設備業,發電、輸電及配電機械製造業,,配電、變壓器、電抗器、穩壓器
新和國際有限公司,桃園市大園區大海里６鄰１８之１６號１樓,25.089315399999997,121.184227,紙漿、紙及紙製品業,家庭及衛生用紙製造業,面紙,面紙
黑偉機械有限公司,桃園市大園區後厝里３鄰９號１樓,25.090429999999998,121.18519599999999,機械設備業,其他通用機械設備製造業,,鼓風機
史密特龍沙發有限公司,桃園市大園區後厝里２鄰後厝２７之２號,25.0862331,121.183273,家具業,其他非金屬家具製造業,,沙發，床墊
多崴力有限公司,桃園市大園區圳頭里８鄰古亭１２號,25.0874615,121.198021,機械設備業,輸送機械設備製造業,,通用機械設備、堆高機
鑫將金屬工業股份有限公司,桃園市大園區圳頭里濱海路二段１９８號,25.0890274,121.199249,金屬製品業,金屬熱處理業,,金屬加工、熱處理
尚茂電子材料股份有限公司,桃園市大園區圳頭里濱海路二段２０８號,25.0890274,121.199249,電子零組件業,印刷電路板製造業,,銅箔基板、黏合膠片
源聲紙器企業有限公司,桃園市大園區圳頭里濱海路二段７０２號,25.0890274,121.199249,紙漿、紙及紙製品業,瓦楞紙板及紙容器製造業,,紙箱
傳說有間股份有限公司,桃園市大園區圳頭里１０鄰古亭路２６６號,25.0927715,121.197319,化學材料業,化學原材料製造業,,二乙二醇
銘頡企業有限公司,桃園市大園區埔心里２０鄰埔心８７之３號,25.0864258,121.196327,塑膠製品業,其他塑膠製品製造業,,ＰＥ瓶、ＰＥＴ瓶
翔展企業社,桃園市大園區後厝里２鄰後厝２１之２３號,25.08606,121.19532,汽車及零件業,汽車零件製造業,,汽缸床加工
徐田企業股份有限公司,桃園市大園區圳頭里濱海路三段３、５號,25.0856476,121.19594599999999,非金屬礦物製品業,石材製品製造業,原石級配,砂石
中國軸承展業股份有限公司,桃園市大園區後厝里２鄰後厝２５之９號１樓,25.086277,121.199974,機械設備業,機械傳動設備製造業,,動立傳動裝置及零件、軸承、齒輪及動力傳動裝置加工
弘英實業有限公司大園一廠,桃園市大園區後厝里２鄰２５之６號,25.086277,121.199974,塑膠製品業,其他塑膠製品製造業,,塑膠製品
比力倉儲設備股份有限公司,桃園市大園區圳頭里７鄰圳頭路８３號,25.0848866,121.198074,機械設備業,輸送機械設備製造業,,堆高機
比力倉儲設備股份有限公司二廠,桃園市大園區圳頭里圳股頭４７之４號,25.0845222,121.197395,機械設備業,輸送機械設備製造業,,堆高機
振勝工業有限公司,桃園市大園區圳頭里７鄰圳股頭４９號,25.084301,121.19783799999999,機械設備業,未分類其他專用機械設備製造業,,折床
粘莊企業有限公司二廠,桃園市大園區圳頭里濱海路二段２６巷７９號,25.093135800000002,121.203392,塑膠製品業,塑膠皮、板及管材製造業,,高密度ＰＥ袋．ＰＥ膜
冠發實業有限公司,桃園市大園區田心里１３鄰照鏡４４號１樓,25.08999,121.21080800000001,木竹製品製造業,合板及組合木材製造業,,合板製造／木質地板製造
連昌興有限公司,桃園市大園區後厝里２鄰後厝２５－１２號,25.0928783,121.2075,紡織業,染整業,,針織布染色整理
太惠和汽車事業股份有限公司,桃園市大園區後厝里埔頂２２號,25.0843468,121.214523,汽車及零件業,汽車零件製造業,,汽車及其零件
日源紙業股份有限公司,桃園市大園區圳頭里濱海路二段１５１號,25.0949955,121.2043,紙漿、紙及紙製品業,家庭及衛生用紙製造業,,紙、擦手紙
叡麟企業有限公司桃園廠,桃園市大園區後厝里國際路二段５１８號,25.0863266,121.224457,汽車及零件業,汽車零件製造業,,汽車及其零件
明門實業股份有限公司大園廠,桃園市大園區後厝里８鄰國際路二段５１６號,25.0861473,121.224129,其他製造業,玩具及遊戲機製造業,,嬰兒車、手推車、汽車椅、吊椅、學步車
巨羚包裝研發股份有限公司,桃園市大園區沙崙里國際路二段７７３號,25.0910873,121.229851,塑膠製品業,其他塑膠製品製造業,,塑膠製品
金旻瑞實業有限公司,桃園市大園區後厝里１４鄰坡堵４４之１１號,25.0854053,121.221855,機械設備業,其他通用機械設備製造業,,機械及五金零件
金旻瑞實業有限公司,桃園市大園區後厝里國際路二段４２５號,25.0852413,121.22193899999999,機械設備業,其他通用機械設備製造業,,機械及五金零件
金旻瑞實業有限公司二廠,桃園市大園區後厝里１４鄰坡堵５０之１號１樓,25.08571,121.219017,機械設備業,其他通用機械設備製造業,,機械及五金零件
宇星鋼鐵有限公司,桃園市大園區沙崙里１６鄰坡仔頭７之５號,25.093851100000002,121.2326,金屬製品業,其他金屬加工處理業,,無縫不銹鋼管
元鼎鑫電機企業有限公司,桃園市大園區竹圍里１８鄰海方厝２５之３號１樓,25.09478,121.234581,電力設備業,發電、輸電及配電機械製造業,,電力機械器材、電機類電子類產品（變壓器）
和成興業有限公司,桃園市大園區竹圍里１８鄰海方厝２５之２號,25.0948086,121.234581,電力設備業,發電、輸電及配電機械製造業,,被動電子元件、電力機械器材、電機類、電子類產品（變壓器）
哥倫遊艇股份有限公司,桃園市大園區沙崙里１鄰港口路１之２號,25.095470000000002,121.234734,其他運輸工具零件業,船舶及浮動設施製造業,,船舶
鋐鎰國際有限公司,桃園市大園區菓林里復興街１８號１樓,25.086992300000002,121.255173,基本金屬業,未分類其他基本金屬製造業,,錫棒，純錫球
德賢屠宰場有限公司,桃園市大園區田心里３０鄰華興路一段２７１巷１８８號,25.0919743,121.25177,食品及飼品業,肉類其他加工及保藏業,,鴨
長榮空廚股份有限公司長榮廠,桃園市大園區埔心里航勤北路３號,25.08885,121.250679,食品及飼品業,未分類其他食品製造業,,餐盒食品
振禹企業有限公司大園廠,桃園市大園區竹圍里航翔路５號９樓之６,25.0936222,121.25486000000001,紡織業,玻璃纖維梭織布業,,耐火材料、其他玻璃纖維編織物
亞旭電腦股份有限公司桃園廠,桃園市大園區竹圍里航翔路７號３樓之１、３樓之２、３樓之３、３樓之４、３樓之５、３樓之６、３樓之７、３樓之８、４樓之１、４樓之２、４樓之３、４樓之４、４樓之５、４樓之６、４樓之７、４樓之８、４樓之９、４樓之１０,25.0936222,121.25486000000001,電腦電子及光學品業,其他通訊傳播設備製造業,,寬頻網路產品
綠寧科技有限公司桃園廠,桃園市大園區竹圍里航翔路７之２號（１樓）７之９號（１樓）及７之１０號１樓,25.093626,121.25486799999999,電子零組件業,未分類其他電子零組件製造業,,氧化銦錫靶材（加工收入）
飛達科視覺設備股份有限公司,桃園市大園區竹圍里航翔路５號６樓之６、６樓之７,25.093626,121.25486799999999,電腦電子及光學品業,其他電腦週邊設備製造業,,表面瑕疵檢查設備
群聯電子股份有限公司桃園廠,桃園市大園區竹圍里航翔路５號８樓之９,25.093626,121.25486799999999,電腦電子及光學品業,其他電腦週邊設備製造業,,隨身碟、記憶卡、嵌入式記憶體成品及控制晶片
鴻佰科技股份有限公司桃園廠區,桃園市大園區竹圍里航翔路７號６樓之１～之６、之９、之１０、８樓之１～之１０、９樓之１～之１０、１０樓之１～之１０,25.093626,121.25486799999999,電腦電子及光學品業,電腦製造業,,伺服器
悅琪影音股份有限公司大園廠,桃園市大園區竹圍里航翔路７號５樓之３、５樓之６,25.093626,121.25486799999999,電腦電子及光學品業,視聽電子產品製造業,,揚聲器、擴大器、無線傳輸
海盜船科技股份有限公司桃園二廠,桃園市大園區竹圍里航翔路５號９樓之１、２、４、５、７、８、９、１０,25.093626,121.25486799999999,電子零組件業,未分類其他電子零組件製造業,,電子零組件
中華航空股份有限公司發動機工廠,桃園市大園區埔心里１６鄰航勤南路６號,25.0910835,121.249733,機械維修及安裝業,產業用機械設備維修及安裝業,,航機發動機修護
中華航空股份有限公司第二飛機修護棚廠,桃園市大園區埔心里１６鄰航勤南路１５號,25.0872669,121.248962,機械維修及安裝業,產業用機械設備維修及安裝業,,飛機修護、塑膠製品
中華航空股份有限公司地裝工場,桃園市大園區埔心里１６鄰航勤南路１５號,25.0872669,121.248962,機械維修及安裝業,產業用機械設備維修及安裝業,,飛機修護
中華航空股份有限公司組裝廠,桃園市大園區埔心里航勤南路１５號,25.0872669,121.248962,機械維修及安裝業,產業用機械設備維修及安裝業,,航空組裝
復興空廚股份有限公司,桃園市大園區竹圍里三民路一段５３８號、５６８號１、２樓,25.095411300000002,121.249245,食品及飼品業,未分類其他食品製造業,,機上餐點、即時餐盒、西點食品、麵包糕點、其他食品
永純化學工業股份有限公司,桃園市蘆竹區坑口里海山路６８１號,25.091886499999998,121.26973000000001,化學材料業,塑膠原料製造業,,化學製品、不飽和樹脂、酸醇樹脂、聚胺脂膠料、粉碎料
政鋒企業股份有限公司,桃園市蘆竹區坑口里坑菓路６６１巷８號,25.0910835,121.267059,電子零組件業,印刷電路板製造業,,ＰＣＢ鉆孔加工
陽興造機股份有限公司桃園廠,桃園市蘆竹區坑口里山菓路７６號,25.08925,121.27228500000001,機械設備業,輸送機械設備製造業,,輸送機設備
永純化學工業股份有限公司永固成品廠,桃園市蘆竹區坑口里１７鄰海山路一段６號,25.0926113,121.269531,化學材料業,塑膠原料製造業,,化學製品
百晨科技有限公司海山廠,桃園市蘆竹區坑口里海山路６２８之２號,25.0918827,121.27195,化學製品業,未分類其他化學製品製造業,,尿素
瑞隆鑄造工業股份有限公司,桃園市蘆竹區坑口里圳岸街３５５號,25.0866241,121.268974,基本金屬業,鋼鐵鑄造業,,各機械銑件鑄造
彩力染整股份有限公司,桃園市蘆竹區坑口里海山路６３６號,25.0926857,121.2712,紡織業,染整業,,印染整理
偉允閥業股份有限公司海山廠,桃園市蘆竹區坑口里海山路６３８號,25.0926857,121.2712,金屬製品業,未分類其他金屬製品製造業,,金屬容器
旺昱欣業股份有限公司,桃園市蘆竹區坑口里海山路５９８、６００號,25.091596600000003,121.272842,基本金屬業,銅材軋延、擠型及伸線業,,磷青銅板
勛得有限公司,桃園市蘆竹區坑口里圳岸街３３３號,25.093328500000002,121.270164,金屬製品業,金屬建築組件製造業,,金屬結構及建築組件加工及焊接、專用生產機械、建築及礦業機械
永德塑膠企業有限公司蘆竹廠,桃園市蘆竹區坑口里海山路一段２巷９號,25.093328500000002,121.270164,塑膠製品業,其他塑膠製品製造業,,塑膠製品
宜陞國際股份有限公司,桃園市蘆竹區坑口里１５鄰坑菓路５００號,25.087888699999997,121.2658,紡織業,染整業,,各種布料加工
木川工業股份有限公司,桃園市蘆竹區坑口里大有街８號,25.093515399999998,121.26851699999999,電力設備業,發電、輸電及配電機械製造業,,馬達、抽水機、壓力桶
欣總興業有限公司蘆竹廠,桃園市蘆竹區坑口里大有街１０號,25.0940285,121.269325,機械設備業,未分類其他專用機械設備製造業,鐵板、鋼板、煞車器,分條機
台硝股份有限公司桃園廠,桃園市蘆竹區坑口里３鄰大坑街２５號,25.0873547,121.26556399999998,化學材料業,人造纖維製造業,,工業用硝化纖維、電子工業用酸鹼化學品
盛英股份有限公司桃園廠,桃園市蘆竹區坑口里油管路二段２５１巷２號,25.0892372,121.27424599999999,電力設備業,發電、輸電及配電機械製造業,,模鑄乾式變壓器、絕緣配件、匯流排、空氣清淨機
宏昌精密工業股份有限公司,桃園市蘆竹區坑口里大有街３號,25.0940647,121.26834099999999,基本金屬業,鋼鐵鑄造業,鋼材,鋼鐵、銅、抗炸機堡（雙波浪鋼板）
上大鋁業股份有限公司,桃園市蘆竹區坑口里大有街３號,25.0940647,121.26834099999999,金屬製品業,未分類其他金屬製品製造業,,建築用鋁擠型材、工業用鋁擠型材、鋁材加工、鋁
韋安興業股份有限公司,桃園市蘆竹區坑口里大有街１２號１樓,25.0942116,121.26966100000001,汽車及零件業,汽車零件製造業,,汽車及其零件、機車及其零件
韋安興業股份有限公司二廠,桃園市蘆竹區坑口里大有街１２號２樓,25.0942116,121.26966100000001,汽車及零件業,汽車零件製造業,,汽車及其零件、機車及其零件
通然順工業有限公司桃園廠,桃園市蘆竹區坑口里油管路二段２５１巷３號,25.089424100000002,121.27455900000001,機械設備業,其他通用機械設備製造業,,各種機械及五金零件
金佳興實業股份有限公司,桃園市蘆竹區坑口里圳岸街３７７號,25.0942287,121.27096599999999,基本金屬業,銅材軋延、擠型及伸線業,,銅（條，管，棒，板）
金佳興實業股份有限公司蘆竹廠,桃園市蘆竹區坑口里圳岸街３７７號１樓,25.0942287,121.27096599999999,基本金屬業,銅材軋延、擠型及伸線業,,銅棒
鴻輝精機廠有限公司桃園廠,桃園市蘆竹區坑口里１７鄰大有街１６號,25.0944271,121.269974,金屬製品業,未分類其他金屬製品製造業,,電機配件、配電器材、輸電用鐵、鋁、銅配件
勝豐塑膠實業有限公司蘆竹廠,桃園市蘆竹區坑口里後壁厝９５之５號,25.094085699999997,121.2723,塑膠製品業,其他塑膠製品製造業,,塑膠製品
勝豐塑膠實業有限公司二廠,桃園市蘆竹區坑口里後壁厝９５之５號,25.094085699999997,121.2723,塑膠製品業,其他塑膠製品製造業,,塑膠製品
頂順機械股份有限公司蘆竹廠,桃園市蘆竹區坑口里海山路４５９號１、２樓,25.0898781,121.27516200000001,機械設備業,事務機械設備製造業,,通用機械設備、裝配組合、機械零件
創盛工業股份有限公司蘆竹廠,桃園市蘆竹區坑口里海山路４５９號３、４樓,25.0898781,121.27516200000001,機械設備業,事務機械設備製造業,,通用機械設備裝配組合、機械零件
崧傑塑膠工業股份有限公司,桃園市蘆竹區坑口里大有街１５號,25.0949268,121.26968400000001,塑膠製品業,其他塑膠製品製造業,,塑膠容器、其他塑膠家庭用品
弘達發機械股份有限公司,桃園市蘆竹區坑口里大有街９巷７號,25.0947723,121.26801299999998,機械設備業,未分類其他專用機械設備製造業,,機械及其另件、模具
美加美整理股份有限公司,桃園市蘆竹區坑口里大有街１７號,25.0949345,121.27011100000001,紡織業,染整業,,針織布染色整理加工［刷梳剪搖及磨毛定型］
國碳科技股份有限公司,桃園市蘆竹區坑口里油管路二段２５０號,25.089487100000003,121.2753,非金屬礦物製品業,未分類其他非金屬礦物製品製造業,,防火阻燃劑、截火材、防煙條、抑煙劑
常青興業有限公司,桃園市蘆竹區坑口里大有街２４號,25.0950737,121.272034,機械設備業,未分類其他專用機械設備製造業,,分條機、捲管機、加工零件
明泉冷凍廠,桃園市蘆竹區坑口里海山路一段１９８號,25.094568300000002,121.2654,食品及飼品業,水產加工及保藏業,,水產代工
興航實業股份有限公司桃園廠,桃園市蘆竹區坑口里１２鄰海山路４４６號,25.0899,121.276375,其他運輸工具零件業,船舶及浮動設施製造業,,遊艇及遊艇用五金
台耀化學股份有限公司蘆竹廠,桃園市蘆竹區坑口里和平街３６、３６－１號,25.0918941,121.276825,藥品及醫用化學品業,原料藥製造業,化學材料,紫外線吸收劑
台耀化學股份有限公司蘆竹二廠,桃園市蘆竹區坑口里和平街３６．３６之１,25.0918941,121.277046,藥品及醫用化學品業,原料藥製造業,化學材料,藥品及醫用化學製品
群晟鋁業有限公司,桃園市蘆竹區坑口里三德街１３號２樓,25.095991100000003,121.26546499999999,金屬製品業,金屬建築組件製造業,,鋁門窗
銘豐工業社東昇廠,桃園市蘆竹區坑口里２１鄰三德街１３號１樓,25.095991100000003,121.26546499999999,汽車及零件業,汽車零件製造業,,傳動軸
益睿科技股份有限公司蘆竹廠,桃園市蘆竹區山腳里南山北路一段７２號,25.08889,121.285683,金屬製品業,其他金屬加工處理業,,塑膠射出、鋅件壓鑄
雅勝冷凍食品股份有限公司北區聯合電動屠宰場,桃園市蘆竹區山腳里７鄰泉州路３號,25.091701500000003,121.28753700000001,食品及飼品業,肉類其他加工及保藏業,,豬肉
雅興電子有限公司,桃園市蘆竹區山腳里９鄰海山路１９１巷７弄８號１樓,25.086475399999998,121.281906,電腦電子及光學品業,視聽電子產品製造業,,音響零件、電子零件
南岩半導體股份有限公司蘆竹廠,桃園市蘆竹區山腳里海山路８９號,25.0856915,121.28449199999999,電子零組件業,半導體封裝及測試業,,塑膠元件封裝、陶瓷元件封裝、模組封裝、晶圓測試
鏹豐企業股份有限公司,桃園市蘆竹區山腳里海山路１６５號,25.085829999999998,121.282623,汽車及零件業,汽車零件製造業,,葉子板，引擎蓋，車門，後葉子板
上昇企業社,桃園市蘆竹區山腳里山腳街１７號,25.0836639,121.287,塑膠製品業,其他塑膠製品製造業,,不織布、耐熱材、塑膠皮
南洋染整股份有限公司第三廠,桃園市蘆竹區山腳里南山路三段２３３號,25.0832329,121.285393,紡織業,染整業,,棉合成纖維紡織品漂染布、棉合成纖維、混紡
欣興電子股份有限公司蘆竹廠,桃園市蘆竹區坑口里９鄰後壁厝６６之６號、南山北路二段１號,25.09455,121.278549,電子零組件業,印刷電路板製造業,,各型印刷電路板
宏宇金屬建材股份有限公司,桃園市蘆竹區山腳里１６鄰橋頭街１０６號,25.0825348,121.28280600000001,金屬製品業,金屬表面處理業,,烤漆代工、鋁料陽極處理
立勝事業有限公司,桃園市蘆竹區山腳里橋頭街１６０號１樓,25.0820065,121.2819,金屬製品業,其他金屬容器製造業,,金屬加工
九寶機械有限公司,桃園市蘆竹區山腳里橋頭街１６０號１樓,25.0820065,121.2819,金屬製品業,其他金屬容器製造業,,金屬加工
逸風實業股份有限公司,桃園市蘆竹區山腳里山富街１２５號,25.088972100000003,121.297127,紡織業,針織布業,,針織布、紡織布、棉紗布、人造纖維布
超尊科技股份有限公司,桃園市蘆竹區外社里山林路二段３６１號１樓,25.0836563,121.30264299999999,機械設備業,未分類其他專用機械設備製造業,,專用生產機械、其他機械（廢氣處理設備）
威尼斯藥廠有限公司,桃園市蘆竹區外社里草仔崎路８８號,25.0821915,121.311646,藥品及醫用化學品業,西藥製造業,,藥品
大勤化成股份有限公司觀音廠,桃園市觀音區樹林里工業二路２８號,25.0688,121.12345900000001,化學製品業,未分類其他化學製品製造業,,稀釋劑硝化棉漿塗料
日旭化學工業股份有限公司,桃園市觀音區樹林里１５鄰工業二路１２號,25.0686073,121.122147,化學材料業,肥料及氮化合物製造業,,微量元素、複合肥料
新品資源科技股份有限公司觀音廠,桃園市觀音區保障里５鄰草漯３３－１５號,25.0734463,121.14956699999999,非金屬礦物製品業,未分類其他非金屬礦物製品製造業,,碎石加工
泰興黃豆食品有限公司,桃園市大園區北港里田中秧１５之２２號,25.0721664,121.155281,食品及飼品業,蔬果加工及保藏業,,豆乾、豆腐
濟陽實業有限公司,桃園市大園區北港里北港路３６８號１樓,25.072470000000003,121.158707,塑膠製品業,其他塑膠製品製造業,,塑膠製品ＦＲＰ內襯
慧瑜塑膠工業股份有限公司,桃園市大園區北港里潮音路二段１８１號,25.0769062,121.172844,塑膠製品業,其他塑膠製品製造業,,塑膠電子零件
大園汽電共生股份有限公司,桃園市大園區北港里潮音北路２７６號,25.0782,121.174095,其他製造業,其他未分類製造業,,蒸汽及電力
邦凱有限公司,桃園市大園區北港里１１鄰潮音北路４８８號１樓,25.08148,121.17242399999999,塑膠製品業,其他塑膠製品製造業,,塑膠製品（外殼零件）
雷賽克實業股份有限公司大園廠,桃園市大園區北港里大工路４７號,25.0761337,121.175018,化學材料業,化學原材料製造業,,硫酸銅１８１０４５０、鹼性蝕刻液（１９９０３９０）、剝錫鉛液
馥凱國際實業有限公司,桃園市大園區北港里工五路１１號,25.073211699999998,121.174416,紙漿、紙及紙製品業,家庭及衛生用紙製造業,,衛生紙、面紙、其他家庭用紙
泰和興實業股份有限公司桃園廠,桃園市大園區北港里工五路９號,25.0726223,121.17414099999999,金屬製品業,未分類其他金屬製品製造業,,塑膠製品、鋼管、接頭
菁華工業股份有限公司大園廠,桃園市大園區內海里民權路１１號,25.0760326,121.182426,紡織業,染整業,,染整
國聯矽業化學股份有限公司,桃園市大園區內海里民權路１２號,25.0760326,121.182426,橡膠製品業,其他橡膠製品製造業,,橡膠製品
達豐氣體工業股份有限公司,桃園市大園區內海里潮音北路７６號,25.0762463,121.183052,化學材料業,化學原材料製造業,,氣體
承徽機械有限公司,桃園市大園區內海里潮音北路８０號１樓,25.0762463,121.183052,金屬製品業,鍋爐、金屬貯槽及壓力容器製造業,,通用機械設備
承楊工程有限公司,桃園市大園區內海里潮音北路８０號２樓,25.0762463,121.183052,機械設備業,未分類其他專用機械設備製造業,,機械設備
新杰科技股份有限公司,桃園市大園區內海里民權路９號,25.0762463,121.183052,機械設備業,電子及半導體生產用機械設備製造業,,ＳＭＡ（Ｂ）６ＲＯＷ ＭＡＴＲＩＸ（６Ｘ１８）、ＴＯ－２２０ ＴＲＩＭ ＳＹＳＴＥＭ＆ＤＩＥ、藍寶石雷射印碼機、壓模機、量測機
新群科技股份有限公司,桃園市大園區內海里民權路９號３樓,25.0762463,121.183052,機械設備業,未分類其他專用機械設備製造業,,雷射刻印機、晶圓鍵合機、工具顯微鏡、晶圓量測機、自動配膠機
台文畜產有限公司,桃園市大園區內海里下厝路１８７號１樓,25.07718,121.179123,食品及飼品業,屠宰業,,雞肉
宏塑工業股份有限公司大園廠,桃園市大園區內海里１３鄰民權路７之１號,25.076995800000002,121.183678,塑膠製品業,其他塑膠製品製造業,,資訊、通訊用零配件
福盈科技化學股份有限公司大園廠,桃園市大園區內海里民權路７、１０號、桃園市大園區內海里潮音北路８８號,25.0773087,121.183678,化學製品業,清潔用品及化粧品製造業,,化學品及助劑
國聯矽業化學股份有限公司食品廠,桃園市大園區內海里１３鄰民權路１２號,25.076710000000002,121.18415800000001,食品及飼品業,未分類其他食品製造業,,其他食品
虹冠實業股份有限公司,桃園市大園區內海里中山北路２７７之１號,25.0767879,121.18443300000001,紡織業,染整業,,布料染色及整理
元運塑膠機械股份有限公司大園廠,桃園市大園區內海里中山北路２７７號,25.07695,121.18443300000001,機械設備業,橡膠及塑膠加工用機械設備製造業,,其他機械、其他金屬製品
欣興電子股份有限公司大園廠,桃園市大園區內海里民權路５號,25.077665300000003,121.18418899999999,電子零組件業,印刷電路板製造業,,各類型印刷電路板
虹冠實業股份有限公司二廠,桃園市大園區內海里中山北路３０８號,25.0773735,121.18491399999999,紡織業,染整業,,布料染色及整理
華通電腦股份有限公司大園廠,桃園市大園區內海里中山北路２７５號,25.076162300000004,121.18515,電子零組件業,印刷電路板製造業,,印刷電路板
稹東工業有限公司,桃園市大園區內海里中山北路３０２號,25.0771275,121.18523400000001,金屬製品業,金屬表面處理業,,金屬表面處理及熱處理
正峰化學製藥股份有限公司大園廠,桃園市大園區北港里工四路１９號,25.072488800000002,121.1794,藥品及醫用化學品業,原料藥製造業,,菲尼普拉明、鹽酸假麻黃、美非那米克酸、二氯非那酸鈉
清英實業有限公司大園廠,桃園市大園區內海里民權路８之１號,25.077602399999996,121.18521899999999,化學製品業,未分類其他化學製品製造業,,化學藥劑
皓城工業股份有限公司大園廠,桃園市大園區內海里１３鄰中山北路２８２號,25.07709,121.185448,金屬製品業,金屬表面處理業,,金屬電鍍加工、汽車零件
巨品表面工程股份有限公司大園廠,桃園市大園區內海里民權路８號,25.078014399999997,121.18521899999999,金屬製品業,金屬表面處理業,,汽車零件表面處理
大恭化學工業股份有限公司大園廠,桃園市大園區北港里大工路１３２號,25.0747375,121.17662800000001,化學製品業,塗料、染料及顏料製造業,,調製顏料、有機顏料
台鵬化學有限公司大園廠,桃園市大園區內海里中山北路２７８號,25.0768871,121.18570700000001,金屬製品業,金屬表面處理業,,金屬表面處理及熱處理
永峯科技股份有限公司二廠,桃園市大園區北港里工四路１７號,25.072288500000003,121.179047,化學材料業,化學原材料製造業,,基本化學材料－硫酸銅
縺騏股份有限公司大園廠,桃園市大園區內海里中山北路２８０巷１號,25.077508899999998,121.18563799999998,電子零組件業,未分類其他電子零組件製造業,,電子零件加工、飾品零件加工
立隆欣實業有限公司,桃園市大園區內海里濱海路三段４４７號,25.0801716,121.1832,電子零組件業,被動電子元件製造業,,電容器
東凱工業有限公司,桃園市大園區內海里中山北路２７６號,25.07679,121.18586699999999,非金屬礦物製品業,其他玻璃及其製品製造業,,強化玻璃
強盛染整股份有限公司,桃園市大園區北港里大工路１２６號,25.07294,121.177704,紡織業,染整業,染料、助劑、樹脂、胚布,各種纖維製品之漂、染及整理加工及成品布買賣業務
黛莉股份有限公司,桃園市大園區北港里大工路１２６號１、２、３樓,25.07294,121.177704,紡織業,針織布業,,內衣布疋
新光紡織股份有限公司大園廠,桃園市大園區北港里大工路１２６號１樓,25.07294,121.177704,紡織業,染整業,,長纖布後整理加工
永源金屬科技股份有限公司民權廠,桃園市大園區內海里民權路３號２、３、４樓,25.07874,121.18518799999998,基本金屬業,銅材軋延、擠型及伸線業,,其他銅（含銅合金）材
全巨工業股份有限公司大園廠,桃園市大園區北港里工四路１５號,25.072229999999998,121.1786,化學製品業,未分類其他化學製品製造業,,防水膠
永源科技材料股份有限公司,桃園市大園區內海里民權路３號１樓及夾層,25.078741100000002,121.18519599999999,化學製品業,塗料、染料及顏料製造業,,塗料
磊東精密機械有限公司大園廠,桃園市大園區內海里中山北路２７４號,25.0766716,121.186043,機械設備業,其他金屬加工用機械設備製造業,,機械零件、五金零件、ＣＮＣ龍門銑床加工、鋁板精密加工
震都實業有限公司大園廠,桃園市大園區內海里１３鄰民權路６之３號,25.078126899999997,121.185608,紡織業,染整業,,纖維染整
儒鴻企業股份有限公司大園廠,桃園市大園區北港里大工路１３４號,25.0760345,121.17598000000001,紡織業,染整業,,印染整理
巨竹企業股份有限公司,桃園市大園區北港里潮音北路２５１、２６３號,25.077579999999998,121.17611699999999,紡織業,染整業,,布疋染整加工
百仕宏有限公司,桃園市大園區內海里民權路６之１號,25.07838,121.185608,電子零組件業,印刷電路板製造業,,印刷電路板
明興超音波機器股份有限公司大園廠,桃園市大園區內海里中山北路２７２號,25.0765419,121.1862,機械設備業,其他通用機械設備製造業,,其它專用生產機械及零件、一超音波機器
三府實業有限公司,桃園市大園區內海里１３鄰民權路６號,25.078516,121.185608,金屬製品業,金屬表面處理業,,導軌、滑軌、滾輪
和進工業股份有限公司,桃園市大園區內海里中山北路２８０巷２號,25.07723,121.18616499999999,金屬製品業,螺絲、螺帽及鉚釘製造業,,螺絲、螺帽、汽車零件
又全有限公司,桃園市大園區內海里中山北路２８０巷７號,25.0778313,121.186012,金屬製品業,金屬表面處理業,,金屬表面處理
順倉股份有限公司,桃園市大園區北港里大工路１３６號,25.0769,121.1758,化學製品業,未分類其他化學製品製造業,,混合廢溶劑、溶劑成品
明僑實業有限公司,桃園市大園區北港里工四路１３號,25.0720444,121.178307,金屬製品業,未分類其他金屬製品製造業,,金屬銅架、金屬鐵架、塑膠粒、液鹼溶劑
北台灣麥酒有限公司桃園大園廠,桃園市大園區內海里１３鄰中山北路２７０號,25.0764313,121.186371,飲料業,啤酒製造業,,啤酒
巨竹企業股份有限公司四廠,桃園市大園區北港里大工路１３８之１號１樓,25.0772457,121.175774,紡織業,染整業,,驗布、包裝
巨竹企業股份有限公司第二廠,桃園市大園區北港里大工路１３８之１號２、３、４、５樓,25.0772457,121.175774,紡織業,染整業,,布疋染整、加工
杰美企業有限公司,桃園市大園區北港里大工路３５號,25.074308399999996,121.17601,紡織業,紡織製成品製造業,,床單
台灣羅門哈斯電子材料股份有限公司,桃園市大園區內海里中山北路２８０巷６號,25.0776348,121.186295,化學製品業,未分類其他化學製品製造業,,其他電子工業用化學處理劑
豐鼎工業有限公司,桃園市大園區內海里民權路１號,25.07919,121.185562,機械設備業,其他通用機械設備製造業,,熱交換器
月星化工股份有限公司,桃園市大園區內海里中山北路２６６號,25.0761814,121.186623,化學製品業,清潔用品及化粧品製造業,,螫合物分散劑皂洗劑分散均染劑柔軟劑陰離子面活性劑
暉文企業有限公司,桃園市大園區北港里工六路７號,25.0739746,121.175964,機械設備業,紡織、成衣及皮革生產用機械設備製造業,,紡織零件
三和工業股份有限公司大園廠,桃園市大園區內海里中山北路２６８巷１號１樓,25.076829999999998,121.186623,汽車及零件業,汽車零件製造業,,汽缸床墊片、進／排氣墊片、汽門室、油底殼
達步施企業股份有限公司,桃園市大園區北港里大工路４１號,25.075471899999997,121.175453,成衣及服飾品業,成衣製造業,,服飾品
佳貿鋼鐵科技有限公司大園廠,桃園市大園區內海里民權路２之３號,25.078683899999998,121.186012,金屬製品業,金屬表面處理業,,電鍍金屬件
旭鴻染整有限公司,桃園市大園區北港里大工路３７、３９號,25.0748978,121.175537,紡織業,染整業,反應性染料、分散性染料、助劑（樹脂、醏酸）,染布代工
華震精密股份有限公司,桃園市大園區北港里大工路３９號１樓,25.0748978,121.175537,機械設備業,紡織、成衣及皮革生產用機械設備製造業,,染機製造／染整加工
旭鴻染整有限公司二廠,桃園市大園區北港里大工路３９號２樓,25.0748978,121.175537,紡織業,染整業,反應性染料、分散性染料、助劑（樹脂、酯酸）,染布代工
合同精機股份有限公司,桃園市大園區內海里民權路２之２號,25.078737300000004,121.186012,機械設備業,紡織、成衣及皮革生產用機械設備製造業,,染色機
峯華金屬科技股份有限公司,桃園市大園區內海里中山北路２８０巷８號,25.0776978,121.186508,金屬製品業,金屬表面處理業,,電鍍
福竝工業股份有限公司大園廠,桃園市大園區內海里中山北路２６８巷３號,25.0769768,121.18668400000001,金屬製品業,金屬表面處理業,,塑膠製品之電鍍加工
永源化工原料股份有限公司,桃園市大園區內海里中山北路２８０巷１３號,25.0781746,121.186348,基本金屬業,銅材軋延、擠型及伸線業,,其他銅（含銅合金）材
舜盛貿易有限公司,桃園市大園區內海里１３鄰中山北路２６４號,25.0760574,121.18676799999999,化學材料業,化學原材料製造業,,硫酸鎳、鹽化鎳代工
台灣史谷脫紙業股份有限公司大園廠,桃園市大園區內海里中山北路２６２、２７３號,25.0754261,121.18676,紙漿、紙及紙製品業,家庭及衛生用紙製造業,,衛生紙、面紙、其他家庭用紙、其他紙製品
新力美科技股份有限公司大園廠,桃園市大園區北港里大工路３１號,25.0729733,121.176437,化學材料業,塑膠原料製造業,,壓克力樹脂、硬化劑、多官能基單體、電子樹脂
德美玻璃股份有限公司大園廠,桃園市大園區內海里民權路２號,25.078987100000003,121.186012,非金屬礦物製品業,平板玻璃及其製品製造業,平板玻璃,彎曲強化玻璃、膠合玻璃
泰和印染企業股份有限公司,桃園市大園區內海里民生路１２７號,25.0802422,121.185051,印刷及儲存媒體複製業,印刷業,,布匹印花加工
一旨股份有限公司,桃園市大園區北港里工六路５號,25.073904000000002,121.175575,化學材料業,塑膠原料製造業,,壓克力樹脂
八方行食品股份有限公司,桃園市大園區內海里中山北路２６８巷６號,25.076576199999998,121.18703500000001,食品及飼品業,屠宰業,,全雞、骨腿、清腿
安宇企業有限公司大園廠,桃園市大園區內海里中山北路２６８巷７號,25.077177,121.186958,化學製品業,未分類其他化學製品製造業,,皮膜劑、脫脂劑、促進劑
銘豐精密工業有限公司,桃園市大園區內海里中山北路２８０巷１７號,25.078481699999998,121.186523,塑膠製品業,其他塑膠製品製造業,,塑膠製品
正隆股份有限公司大園廠,桃園市大園區北港里大工路１１６號,25.071023899999997,121.17900800000001,紙漿、紙及紙製品業,紙板製造業,,牛皮紙板、瓦楞蕊紙
建鴻工業有限公司大園廠,桃園市大園區內海里中山北路２６８巷９號,25.07731,121.18704199999999,金屬製品業,未分類其他金屬製品製造業,,鋁材料加工及買賣及陽極處理
世于有限公司大園廠,桃園市大園區內海里中山北路２８０巷１２號,25.0780449,121.186844,金屬製品業,金屬熱處理業,,熱處理、表面處理
得崴有限公司,桃園市大園區內海里中山北路２８０巷１９號,25.0785522,121.186653,電子零組件業,印刷電路板製造業,,印刷電路板
台染纖維股份有限公司大園廠,桃園市大園區大園工業區大工路２７、２９號,25.072048199999998,121.176819,紡織業,染整業,,染整
柏隆鋼鐵股份有限公司大園廠,桃園市大園區內海里中山北路２８０巷１４號,25.078229999999998,121.186852,金屬製品業,其他金屬加工處理業,,銅管、鋼管鐵板等加工
明城興股份有限公司,桃園市大園區內海里中山北路２６８巷１１號,25.0774384,121.18718700000001,金屬製品業,未分類其他金屬製品製造業,,銅板加工
百穗工業有限公司,桃園市大園區內海里民生路１２５號１樓,25.07968,121.186073,塑膠製品業,其他塑膠製品製造業,,塑膠製品
欣偉科技股份有限公司大園廠,桃園市大園區北港里工六路３號,25.07387,121.175247,基本金屬業,未分類其他基本金屬製造業,,黃金、貴金屬加工
來順股份有限公司,桃園市大園區內海里中山北路２８０巷１６號,25.0783119,121.18705,化學材料業,化學原材料製造業,,表面處理原料加工
永峯科技股份有限公司,桃園市大園區內海里中山北路２６８巷１５號,25.0776443,121.18736299999999,化學材料業,化學原材料製造業,,基本化學材料─硫酸銅
迦昌國際企業有限公司,桃園市大園區內海里民生路１２３之１０號,25.079061499999998,121.186806,紡織業,其他紡織品製造業,,鞋子、棉被、毛毯、毛巾、內衣衛生衣
正隆股份有限公司大園紙品二廠,桃園市大園區北港里潮音北路２８０號,25.078476000000002,121.17495,印刷及儲存媒體複製業,印刷業,,１．帳單紙捲、２．郵筒、３．西式信封、４．電子紙本發票
吉昌橡膠工業有限公司大園一廠,桃園市大園區北港里潮音北路２４８號,25.078476000000002,121.17495,橡膠製品業,工業用橡膠製品製造業,,污染防治設備、專用生產機械、金屬加工用機械、塑膠製品、橡膠製
吉昌橡膠工業有限公司大園二廠,桃園市大園區北港里潮音北路２４８號１樓,25.078476000000002,121.17495,橡膠製品業,工業用橡膠製品製造業,,污染防治設備，專用生產機械，金屬加工用機械，塑膠製品，橡膠機
吉昌重工股份有限公司大園廠,桃園市大園區北港里潮音北路２４８號２樓,25.078476000000002,121.17495,機械設備業,其他金屬加工用機械設備製造業,,污染防治設備、專用生產機械、金屬加工用機械、橡膠製品
台應企業股份有限公司,桃園市大園區溪海里聖德北路９８６號１樓,25.078476000000002,121.17495,機械設備業,其他通用機械設備製造業,,機械零件加工
全峰工業股份有限公司桃園廠,桃園市大園區北港里工六路６號,25.07333,121.17520900000001,化學製品業,未分類其他化學製品製造業,,抗氧化劑
原琦股份有限公司大園廠,桃園市大園區內海里中山北路２６８巷１７號,25.077773999999998,121.187469,金屬製品業,金屬表面處理業,,金屬電鍍
健策精密工業股份有限公司大園廠,桃園市大園區內海里中山北路２６８巷１３、１９號及民生路１２３之２號、民生路１２３之１５號,25.077773999999998,121.187469,金屬製品業,金屬表面處理業,,散熱片電鍍
昶昕實業股份有限公司大園廠,桃園市大園區北港里大工路２３號,25.070901899999996,121.1778,化學製品業,未分類其他化學製品製造業,,工業廢水回收、化學材料回收製造
台灣電鍍工業股份有限公司桃園廠,桃園市大園區北港里工四路９號,25.07139,121.1769,金屬製品業,金屬表面處理業,硫酸銅檸檬酸,電鍍用化學品、光澤劑、脫脂劑、電鍍加工
順晉實業股份有限公司大園廠,桃園市大園區北港里工六路１號,25.0735645,121.174889,紡織業,染整業,,印染整理
健策精密工業股份有限公司大園三廠,桃園市大園區內海里民生路１２３之６號,25.078594199999998,121.1874,機械設備業,未分類其他專用機械設備製造業,,散熱片電鍍
旺帝企業股份有限公司大園廠,桃園市大園區北港里工五路１２號,25.0729465,121.175148,汽車及零件業,汽車零件製造業,,避震器ＳＮＲＣ、避震器ＯＣＴ、吸音材
裕喬金屬化工股份有限公司桃園廠,桃園市大園區北港里工四路７號,25.071291,121.17662800000001,化學製品業,未分類其他化學製品製造業,,化學製品
永源金屬科技股份有限公司,桃園市大園區內海里中山北路２６８巷１２號,25.07763,121.18786599999999,基本金屬業,銅材軋延、擠型及伸線業,,其他銅（含銅合金）材
產協企業股份有限公司大園廠,桃園市大園區北港里工五路６號,25.07222,121.175545,化學材料業,塑膠原料製造業,,合成樹脂
義裕染整廠股份有限公司,桃園市大園區北港里擴大工業區工四路４號,25.0708427,121.176849,紡織業,人造纖維梭織布業,,特多龍（平織布，斜紋布，帆布）加工
進宏鋁業股份有限公司,桃園市大園區內海里濱海路三段４７８號,25.081685999999998,121.18506599999999,金屬製品業,金屬結構製造業,,金屬結構及建築組件
臺灣永光化學工業股份有限公司第一廠,桃園市大園區內海里中山北路２７１號,25.0744762,121.188194,化學製品業,塗料、染料及顏料製造業,,反散性染料、反應性染料
冠順染整股份有限公司大園廠,桃園市大園區北港里工五路７號,25.0725231,121.1748,紡織業,染整業,,各種布匹漂染整理
翰昇工業股份有限公司,桃園市大園區北港里工五路２號１樓,25.0710583,121.17608600000001,化學製品業,未分類其他化學製品製造業,,柔軟劑、平滑劑、起毛油、起毛劑
禎祥實業股份有限公司,桃園市大園區北港里工五路２號２樓,25.0710583,121.17608600000001,化學製品業,未分類其他化學製品製造業,,柔軟劑、平滑劑、起毛油、增硬劑
鉦力企業股份有限公司大園廠,桃園市大園區內海里濱海路三段３６０號,25.0822659,121.184647,電力設備業,電線及電纜製造業,,裸銅線
尚益染整加工股份有限公司大園廠,桃園市大園區北港里大工路２１號,25.06989,121.177773,紡織業,染整業,,各種布類染色整理
青新展業有限公司,桃園市大園區內海里工五路１號,25.07099,121.175529,化學材料業,化學原材料製造業,化學原材料（聚氯化鋁（液體）、硫酸鋁（液體））,化學原材料（聚氯化鋁（液體）、硫酸鋁（液體））
達紡企業股份有限公司大園廠,桃園市大園區內海里民生路１２３之１號,25.0778732,121.18883500000001,紡織業,人造纖維梭織布業,,尼龍布、特多龍布、彈性紗交織尼龍布、彈性紗交織特多龍布
萬岱車材有限公司一廠,桃園市大園區內海里民生路１２３之９號,25.0789375,121.18884299999999,塑膠製品業,其他塑膠製品製造業,,未分類其他塑膠製品製造
德昌皮革製品股份有限公司,桃園市大園區內海里民生路１２１號,25.0773029,121.18930800000001,皮革毛皮製品業,皮革及毛皮整製業,,黃牛面皮、榔皮、底皮
位速科技股份有限公司,桃園市大園區內海里民生路１２３之１１號,25.07914,121.18884299999999,塑膠製品業,其他塑膠製品製造業,,塑膠表面處理
昶昕實業股份有限公司大園一廠,桃園市大園區北港里大工路１９號,25.068737,121.178719,化學材料業,化學原材料製造業,,氧化銅、硫酸銅、特用化學品
立詠股份有限公司桃園廠,桃園市大園區內海里民生路１２３之１２號,25.0794163,121.18884299999999,金屬製品業,金屬表面處理業,,鐵管加工電鍍
拓志光機電股份有限公司大園廠,桃園市大園區內海里民生路１０６之３號,25.0753555,121.18989599999999,機械設備業,電子及半導體生產用機械設備製造業,ＴＣＺ－ＬＣＭＡＩ生產設備、ＬＣＤＴＶ生產線、牙插、ＩＤ讀取,平面顯示器製程設備、太陽能電池用製程設備
尚志半導體股份有限公司大園廠,桃園市大園區內海里８鄰民生路１０６之３號,25.0753555,121.18989599999999,電子零組件業,分離式元件製造業,半導體零件,半導體零件組
佳豐食品廠,桃園市大園區埔心里１８鄰埔心９２之１７號,25.0764065,121.19551799999999,食品及飼品業,肉類其他加工及保藏業,,肉類處理及其製品
振通皮革有限公司,桃園市大園區內海里民生路１１１之１號,25.0741882,121.19356499999999,皮革毛皮製品業,鞋類製造業,,鞋帶
立明造紙廠股份有限公司,桃園市大園區內海里民生路１０９號,25.073272699999997,121.194313,紙漿、紙及紙製品業,家庭及衛生用紙製造業,,衛生紙、餐巾紙、化妝紙
國紡科技實業股份有限公司,桃園市大園區大園工業區民生路１１３號,25.0749016,121.192429,紡織業,染整業,,印染整理代工
暐晟工業股份有限公司,桃園市大園區內海里１３鄰民生路１０７號,25.072601300000002,121.194969,基本金屬業,銅材軋延、擠型及伸線業,,其它金屬製品
泰翔工業股份有限公司,桃園市大園區內海里民族街１２號,25.07425,121.1922,基本金屬業,鋼鐵鑄造業,,各種鑄鋼件之鑄造加工，各種耐熱，耐蝕
采鑫科技股份有限公司大園廠,桃園市大園區內海里民族路１１號,25.0742455,121.1922,電子零組件業,印刷電路板製造業,化學藥品、油墨、基板、膠片,印刷電路板
吉發染整股份有限公司,桃園市大園區內海里民族路８、８之１、１０號,25.0742455,121.1922,紡織業,染整業,,各種布匹染整漂白
泰禾精密工業股份有限公司,桃園市大園區內海里民族街１２之１號１樓,25.0742455,121.191948,機械設備業,泵、壓縮機、活栓及活閥製造業,,閥類加工
大園預拌混凝土股份有限公司,桃園市大園區圳頭里後館１之１３號,25.080225,121.19448100000001,非金屬礦物製品業,預拌混凝土製造業,,混凝土
台灣上村股份有限公司一廠,桃園市大園區內海里民族街７、７之１、９號,25.0745411,121.191452,化學製品業,未分類其他化學製品製造業,助劑,工業助劑
大同股份有限公司大園廠,桃園市大園區內海里民生路１０２號,25.0720463,121.197227,電力設備業,發電、輸電及配電機械製造業,,電力變壓器
釆鑫科技股份有限公司大園二廠,桃園市大園區內海里民族街１１號,25.07406,121.191391,金屬製品業,未分類其他金屬製品製造業,,金屬裁剪鑽孔
永吉化工股份有限公司,桃園市大園區內海里民族街６號,25.073576,121.19171899999999,化學材料業,化學原材料製造業,,聚氯化鋁、硫酸鋁、液鹼、次氯酸鈉
中誠金屬工業股份有限公司,桃園市大園區內海里民生路１１９之１號、１１９之２號,25.07648,121.19074199999999,基本金屬業,銅材軋延、擠型及伸線業,銅,熱交換器及銅製品
悅得科技股份有限公司,桃園市大園區內海里民生路１１９之１號２樓,25.07648,121.19074199999999,基本金屬業,鋼鐵軋延及擠型業,銅材,銅材軋延、擠型及伸線業
新鋼工業股份有限公司大園廠,桃園市大園區內海里民生路１１９號,25.075872399999998,121.19074199999999,基本金屬業,鋼鐵軋延及擠型業,,各種不銹鋼鋼板，鋼捲，鋼管，鋼條，鋼線
馥凱國際實業有限公司二廠,桃園市大園區內海里民生路９９號,25.071331,121.196106,紙漿、紙及紙製品業,家庭及衛生用紙製造業,,衛生紙、面紙、其他家庭用紙
豊欣紙業有限公司,桃園市大園區內海里民族街４號,25.073358499999998,121.191406,紙漿、紙及紙製品業,家庭及衛生用紙製造業,,擦手紙、衛生紙、面紙、其他家用紙、其他紙製品
興盛鐵工廠股份有限公司,桃園市大園區三石里三塊石７之２號１樓,25.071113600000004,121.195976,機械設備業,化工機械設備製造業,,機械設備
麒勝實業有限公司大園廠,桃園市大園區內海里民族路３號,25.073220000000003,121.190643,紡織業,染整業,尼龍、特多龍,布匹印花染整
大同股份有限公司桃園電線電纜廠,桃園市大園區內海里１３鄰民生路１０６號,25.07791,121.18989599999999,電力設備業,電線及電纜製造業,ＰＥ、ＰＶＣ、凡立水,通信線、電力線、漆包線、裸銅線
綠能科技股份有限公司大園廠,桃園市大園區內海里民生路１０６號、１０６之４號,25.07791,121.18989599999999,電子零組件業,其他光電材料及元件製造業,,光電材料
豊欣紙業有限公司大園廠,桃園市大園區內海里民族街１號,25.0733013,121.190353,紙漿、紙及紙製品業,家庭及衛生用紙製造業,,擦手紙、衛生紙、面紙、其他家用紙、其他紙製品
宏泰電工股份有限公司大園廠,桃園市大園區內海里中山北路２４８、２５０號,25.0718,121.191521,電力設備業,電線及電纜製造業,,電力用電纜、裸銅線、通訊用電纜、銅箔基板
泰暘砂石有限公司,桃園市大園區圳頭里後館一路４２９號,25.0814953,121.192917,非金屬礦物製品業,石材製品製造業,,砂石
惠芳鋼鐵五金有限公司,桃園市大園區內海里中山北路２４４之２號,25.070947600000004,121.1928,金屬製品業,未分類其他金屬製品製造業,鋁、銅其他金屬,其他工業製品
六采有限公司大園廠,桃園市大園區內海里中山北路２６３之３號,25.0719337,121.19126100000001,化學製品業,清潔用品及化粧品製造業,原紙、塑料,衛生紙、清香劑、清潔劑
順旗塑膠股份有限公司大園廠,桃園市大園區內海里中山北路２６３之３號１樓,25.0719337,121.19126100000001,塑膠製品業,其他塑膠製品製造業,,塑膠製品
允大精密科技股份有限公司,桃園市大園區內海里中山北路２６３之２號,25.071792600000002,121.19126100000001,金屬製品業,金屬表面處理業,,金屬表面處理及熱處理、鍍金、鎳、錫
連旺實業有限公司大園廠,桃園市大園區內海里中山北路２４６號,25.0711384,121.192093,紡織業,染整業,,染整加工、整理
介華事業有限公司,桃園市大園區內海里中山北路２４４號,25.070547100000002,121.1928,金屬製品業,其他金屬加工處理業,,鋼材加工（金屬加工處理）
通宏有限公司,桃園市大園區內海里中山北路２６５號,25.0723782,121.19031499999998,金屬製品業,其他金屬加工處理業,,廢鐵、廢銅、廢白鐵加工
寶新開發有限公司大園廠,桃園市大園區內海里中山北路２６３－１號,25.0716419,121.190872,紡織業,染整業,,成品布加工（植絨、反光、蓄光、金銀珠光、ＰＵ、浮雕）
富國水泥釘股份有限公司,桃園市大園區內海里中山北路２４２號,25.0700817,121.193031,金屬製品業,螺絲、螺帽及鉚釘製造業,,其它金屬製品
連大興有限公司,桃園市大園區內海里中山北路２４６、２６３號,25.0709858,121.19126100000001,紡織業,染整業,,各種纖維布疋布染整加工
台灣吉德門國際股份有限公司大園廠,桃園市大園區內海里中山北路２６１號,25.070423100000003,121.19207800000001,化學製品業,未分類其他化學製品製造業,,表面處理劑摻配（電鍍清潔劑）
魏爐化工廠股份有限公司大園廠,桃園市大園區內海里中山北路２６１之１號,25.0703163,121.19207800000001,化學材料業,化學原材料製造業,,化學材料
台灣上村股份有限公司二廠,桃園市大園區內海里中山北路２６７之１號,25.0722427,121.18968999999998,化學製品業,未分類其他化學製品製造業,化學藥劑,化學鎳藥品、化學金藥品、化學銀藥品、化學銅藥品、三氧化鉻
辰灝股份有限公司,桃園市大園區內海里中山北路２５４號,25.0696316,121.193054,非金屬礦物製品業,水泥及混凝土製品製造業,,其他水泥及混凝土製品
綠色黃金工坊,桃園市大園區後厝里中華路５７７巷３號２樓,25.07552,121.210632,化學製品業,清潔用品及化粧品製造業,,洗髮精、沐浴露、潔膚乳
振新通風工程有限公司,桃園市大園區後厝里中華路５７７巷３號２樓,25.07552,121.210632,機械設備業,其他通用機械設備製造業,冷凍空調工程,冷凍空調工程
甲鼎開發工程有限公司,桃園市大園區後厝里中華路５７７巷１號１樓,25.07551,121.21077,金屬製品業,金屬建築組件製造業,鋼材,金屬結構及建築組件
雙鶴企業社,桃園市大園區後厝里５鄰國際路二段６巷１９號,25.079276999999998,121.21111299999998,印刷及儲存媒體複製業,印刷業,,汽車墊片印刷
連旺實業有限公司,桃園市大園區圳頭里５鄰圳頭路５９９號,25.0743141,121.205238,紡織業,染整業,,針織布染色整理
世佳金屬有限公司大園廠,桃園市大園區三石里１鄰三塊石７之７６號,25.073226899999998,121.24606299999999,金屬製品業,金屬建築組件製造業,,其他金屬製品
堃德有限公司,桃園市大園區菓林里福德路６８巷１弄１０號１樓,25.074976,121.257774,紡織業,其他紡織品製造業,,縫綻布
國琳團膳有限公司,桃園市大園區菓林里菓林路２１５號,25.078155499999998,121.257843,食品及飼品業,未分類其他食品製造業,,即食餐食
菓林碾米行,桃園市大園區菓林里三民路二段４９２巷３５、３７號,25.07783,121.25833899999999,食品及飼品業,碾榖業,,白米、糙米
豐隆電子股份有限公司,桃園市大園區三石里三和路２８巷８號,25.0719433,121.25663,電子零組件業,未分類其他電子零組件製造業,,各種電子零件、機械零件、治具、夾具加工
朝隆電機股份有限公司,桃園市大園區三石里三和路２７巷４弄８號１、２樓,25.071992899999998,121.257019,金屬製品業,金屬表面處理業,,金屬表面處理及熱處理、其他電子零組件、其他電力器材、汽車及其
擎大企業有限公司,桃園市大園區三石里三和路２８巷５－１號１樓,25.0718288,121.256622,金屬製品業,未分類其他金屬製品製造業,,維修
佑迪股份有限公司,桃園市大園區三石里三和路２７巷１０號,25.0718212,121.257225,電子零組件業,未分類其他電子零組件製造業,電線連接器、端子、鐵心,電子電腦連接組件加工
弘翔開發有限公司,桃園市大園區三石里三和路３巷１８號１樓,25.0720253,121.257668,家具業,金屬家具製造業,,其他金屬家具
光寶科技股份有限公司大園廠,桃園市大園區三石里三和路３巷７號,25.071937600000002,121.258026,電力設備業,其他電力設備及配備製造業,,電源變壓器、線圈等、車用充電器、堆高機電池
新端科技股份有限公司,桃園市大園區三石里三和路２８巷２號,25.071477899999998,121.257271,機械設備業,電子及半導體生產用機械設備製造業,,其他專用生產機械及零件
臻鼎科技股份有限公司,桃園市大園區三石里三和路２８巷６號,25.0716648,121.25799599999999,電子零組件業,印刷電路板製造業,,其他金屬製品、視聽電子產品、印刷電路板、其他電子零組件、其他
興和工業股份有限公司,桃園市大園區三石里三和路２８巷１３號,25.070783600000002,121.257393,機械設備業,污染防治設備製造業,玻璃纖維紙、鋁箔、熱熔膠、鋁材,空氣過濾網（ＨＥＰＡＦＩＬＴＥＲ）
歐榮企業股份有限公司,桃園市大園區菓林里三民路二段３３７巷３０弄８號,25.081678399999998,121.258606,機械設備業,紡織、成衣及皮革生產用機械設備製造業,,家庭用縫紉機
全國砂石廠,桃園市蘆竹區內厝里內厝１０８之６號,25.073648499999997,121.26896699999999,非金屬礦物製品業,石材製品製造業,,碎石
兆鋒興科技股份有限公司蘆竹二廠,桃園市蘆竹區長興里４鄰溪州４０之２８號,25.077507,121.27319299999999,電子零組件業,印刷電路板製造業,,印刷電路板（鑽孔加工）
樺樹企業有限公司桃園廠,桃園市蘆竹區山腳里１６鄰橋頭街１６６號,25.0713234,121.26876100000001,紡織業,針織布業,,其他針織布
品盈紡織股份有限公司,桃園市蘆竹區蘆竹里蘆竹街２０９號,25.0713615,121.26779199999999,紡織業,紡織製成品製造業,,亞克力，羊毛混紡筒紗
州霖股份有限公司,桃園市蘆竹區山腳里１５鄰橋頭街１９６號,25.071126899999996,121.268593,紡織業,染整業,,各種纖維、紡織品、布面表面特殊處理
聯賀欣工業股份有限公司,桃園市蘆竹區山腳里山腳１１７之３號,25.0710182,121.268677,塑膠製品業,塑膠皮、板及管材製造業,,瑜珈墊、各類止滑類用品
明新針織科技有限公司,桃園市蘆竹區山腳里南山北路一段１００巷１０號,25.070924800000004,121.26878400000001,紡織業,針織布業,,針織布
上綸針織股份有限公司二廠,桃園市蘆竹區山腳里南山北路一段１００巷８號２樓,25.070924800000004,121.26878400000001,紡織業,針織布業,,針織布
瑞山水泥製品廠股份有限公司,桃園市蘆竹區內厝里內厝８７號,25.0715885,121.272446,非金屬礦物製品業,水泥及混凝土製品製造業,,非金屬礦物製品（水泥管、水溝蓋等水泥製品）
采盛實業有限公司桃園廠,桃園市蘆竹區長興里２鄰溪洲５６之４號附１３,25.07048,121.2696,塑膠製品業,其他塑膠製品製造業,,塑膠製品
璉合興機械有限公司,桃園市蘆竹區長興里２鄰５４之１號,25.069912,121.27184299999999,機械設備業,未分類其他專用機械設備製造業,,印刷輪加工
新舒車企業股份有限公司,桃園市蘆竹區內厝里１４鄰長興路三段２７５號１樓,25.070034,121.274551,汽車及零件業,汽車零件製造業,,大客車冷氣零件
舒車冷氣設備股份有限公司,桃園市蘆竹區內厝里１４鄰長興路三段２７５號２樓,25.070034,121.274551,汽車及零件業,汽車零件製造業,,大客車冷氣零件
南宏塑膠鋼模有限公司,桃園市蘆竹區內厝里長興路三段２７３號,25.07009,121.274651,塑膠製品業,其他塑膠製品製造業,,其他強化塑膠製品
政伯機械有限公司,桃園市蘆竹區內厝里長興路三段２７９號,25.069826100000004,121.27433799999999,機械設備業,機械傳動設備製造業,,動力傳動裝置零件
馬爾斯國際有限公司,桃園市蘆竹區內厝里長興路三段２４７號,25.0706444,121.27552800000001,食品及飼品業,未分類其他食品製造業,,奶精
富揚企業有限公司桃園二廠,桃園市蘆竹區內厝里長興路三段２６７號１樓,25.0702629,121.275085,金屬製品業,其他金屬加工處理業,,廢銅．廢五金
宜泰國際股份有限公司,桃園市蘆竹區內厝里長興路三段２６３號２樓,25.070322,121.27516899999999,電力設備業,其他電力設備及配備製造業,,電線及配線器材、電磁開關組裝
盛陽精機工業股份有限公司蘆竹廠,桃園市蘆竹區長興里長興路四段７１巷６３弄１０號１樓,25.068716000000002,121.2723,金屬製品業,未分類其他金屬製品製造業,,機械零件
鼎豐鑫有限公司,桃園市蘆竹區內厝里長興路三段２２７號１樓,25.071136499999998,121.276253,金屬製品業,金屬模具製造業,,金屬手工具及模具
國欣昌企業有限公司,桃園市蘆竹區內厝里長興路三段２２７號２樓,25.071136499999998,121.276253,金屬製品業,金屬刀具及手工具製造業,,刀片
錦宏車體有限公司蘆竹廠,桃園市蘆竹區長興里長興路四段２９號,25.06868,121.27260600000001,汽車及零件業,車體製造業,,汽車車身製造
長茂鎰有限公司,桃園市蘆竹區長興里３鄰長興路四段３１號,25.0685234,121.272324,金屬製品業,金屬表面處理業,,金屬表面加工
怡王生物科技有限公司,桃園市蘆竹區山鼻里南山路三段１７巷１號,25.0767479,121.283821,食品及飼品業,未分類其他食品製造業,,蜂產品及週邊日用品、保健食品
引春物流倉儲股份有限公司,桃園市蘆竹區山鼻里南山路三段１７巷９號,25.076765100000003,121.283447,機械設備業,紡織、成衣及皮革生產用機械設備製造業,,專用生產機械
瑋隆國際有限公司,桃園市蘆竹區山鼻里南山路三段１７巷２－５號１樓,25.07716,121.284462,電子零組件業,印刷電路板組件製造業,,模具治具，設計
基雅國際股份有限公司,桃園市蘆竹區山鼻里南山路三段１７巷２－５號１樓,25.07716,121.284462,機械設備業,其他通用機械設備製造業,,Ｐ．Ｃ．Ｂ測試加工
立菖國際有限公司,桃園市蘆竹區山鼻里南山路三段１７巷２－５號２樓,25.07716,121.284462,成衣及服飾品業,成衣製造業,,各式成衣制服製造
奕鋐工程行,桃園市蘆竹區山鼻里南山路三段１７巷２弄２號,25.07705,121.2849,金屬製品業,金屬建築組件製造業,,鐵門
大毅科技股份有限公司南山廠,桃園市蘆竹區山鼻里南山路三段１７巷４號,25.077375399999998,121.28408799999998,電子零組件業,被動電子元件製造業,,晶片電阻、晶片排阻、電阻網絡、晶片保險絲
吉安機械股份有限公司,桃園市蘆竹區山鼻里南山路三段１７巷２弄１６號,25.0773735,121.28492,機械設備業,機械傳動設備製造業,,齒輪加工
廣鑫工業股份有限公司蘆竹廠,桃園市蘆竹區山鼻里南山路三段１７巷１０之２號,25.0770035,121.28305800000001,電子零組件業,未分類其他電子零組件製造業,,電子元件及零件（工業用電腦主機外殼）
裝甲鋼帶工業有限公司蘆竹廠,桃園市蘆竹區山鼻里南山路三段１７巷１０號１樓,25.0771484,121.28305800000001,金屬製品業,金屬刀具及手工具製造業,,刀具
裝甲刀具有限公司蘆竹廠,桃園市蘆竹區山鼻里南山路三段１７巷１０號２樓,25.0771484,121.28305800000001,金屬製品業,金屬刀具及手工具製造業,,刀具
華碩電腦股份有限公司蘆竹廠,桃園市蘆竹區山鼻里南山路三段１７巷１０號,25.0771484,121.28305800000001,電腦電子及光學品業,電腦製造業,,個人電腦主機板、電腦介面卡、終端機（纜線數據機）
元利盛精密機械股份有限公司桃園廠,桃園市蘆竹區山鼻里南山路三段１７巷１１號１樓,25.076355,121.28261599999999,機械設備業,電子及半導體生產用機械設備製造業,,ＣＣＭ組裝機
祥祿工程有限公司,桃園市蘆竹區山鼻里南山路三段１７巷２弄２０號,25.077548999999998,121.284943,金屬製品業,金屬建築組件製造業,,金屬結構及建築組件
榛鎂生物科技有限公司,桃園市蘆竹區山鼻里南山路三段６５號１．２樓,25.0774574,121.285233,化學製品業,清潔用品及化粧品製造業,,化粧品
立錡科技電子有限公司,桃園市蘆竹區山鼻里南山路三段１７巷２弄２４號１、３、４樓,25.07767,121.28495,電子零組件業,印刷電路板製造業,,印刷電路板
立錡科技電子有限公司機械廠,桃園市蘆竹區山鼻里南山路三段１７巷２弄２４號２樓,25.07767,121.28495,電子零組件業,印刷電路板製造業,,印刷電路板
偉盛銑業有限公司,桃園市蘆竹區山鼻里南山路三段６９號１樓,25.07755,121.28523999999999,機械設備業,其他通用機械設備製造業,,機械零件
穩晟科技有限公司一廠,桃園市蘆竹區山鼻里南山路三段１７巷２弄２６號１樓,25.077766399999998,121.284943,電子零組件業,印刷電路板製造業,,鉆孔代工
嘉士精密機電有限公司,桃園市蘆竹區山鼻里南山路三段７３號,25.0776367,121.285255,機械設備業,電子及半導體生產用機械設備製造業,,清洗機、半導體製程設備及零組件
馥德生有限公司,桃園市蘆竹區山鼻里南山路三段７５號（１、２樓）,25.077679999999997,121.285255,食品及飼品業,未分類其他食品製造業,,蜂蜜
景力企業有限公司,桃園市蘆竹區山鼻里南山路三段１７巷２弄１９號,25.0779018,121.2847,金屬製品業,鍋爐、金屬貯槽及壓力容器製造業,,金屬貯槽及運輸容器
陸德科技股份有限公司,桃園市蘆竹區山鼻里南山路三段１７巷２９號,25.0747948,121.282928,電子零組件業,未分類其他電子零組件製造業,,ＣＮＣ代工
震通機械有限公司,桃園市蘆竹區山鼻里南山路三段１７巷２弄２１號,25.077987699999998,121.284782,機械設備業,其他金屬加工用機械設備製造業,,桌上沖床製造
寰陞科技股份有限公司,桃園市蘆竹區山鼻里南山路三段１７巷２７號,25.07486,121.28281399999999,機械設備業,其他通用機械設備製造業,,ＣＮＣ代工
誠正鋼鐵有限公司,桃園市蘆竹區山鼻里南山路三段１７巷１５號,25.07541,121.28236399999999,金屬製品業,金屬結構製造業,,金屬建築結構
聯達實業股份有限公司,桃園市蘆竹區山鼻里南山路三段１７巷１８號,25.074966399999997,121.282661,紡織業,染整業,,纖維樹脂定型加工、紡織業
六欣金屬有限公司,桃園市蘆竹區山鼻里南山路三段１７巷３３號,25.07457,121.28312700000001,機械設備業,其他金屬加工用機械設備製造業,,軸心
群鹿企業股份有限公司,桃園市蘆竹區山鼻里南山路三段４、６號,25.077453600000002,121.28594199999999,紡織業,人造纖維紡紗業,,特多龍棉紗，混紡紗，天然棉紗，棉混紡紗
台灣光起股份有限公司蘆竹廠,桃園市蘆竹區內厝里南山路三段１７巷３６號、３６號２樓、３６號３樓,25.074264499999998,121.28310400000001,機械設備業,其他通用機械設備製造業,,清潔機、版面清潔機、版面除塵設備、光量子密度測量器、偏蕊測定器
寰鋒實業有限公司,桃園市蘆竹區南山路三段１７巷３８號１樓,25.074192,121.28312700000001,機械維修及安裝業,產業用機械設備維修及安裝業,,廢棄處理設備、水處理設備、空污處理設備
源程科技股份有限公司,桃園市蘆竹區內厝里南山路三段１７巷４２號１樓,25.0740623,121.28323400000001,機械維修及安裝業,產業用機械設備維修及安裝業,,輸配電設備
福泉木業工業股份有限公司,桃園市蘆竹區山鼻里５鄰南山路二段５２１號,25.07392,121.285141,家具業,木製家具製造業,,木製家俱製品
春尚企業有限公司,桃園市蘆竹區內厝里南山路二段３５７巷６０號,25.0739727,121.28288300000001,機械設備業,泵、壓縮機、活栓及活閥製造業,,球閥－逆止閥－球型閥－閘閥－過濾器－桶底閥－蝶閥－閘刀閥－安全閥－減壓閥－特殊閥．．．等製造
嘉鈺機械有限公司蘆竹廠,桃園市蘆竹區山鼻里南山路二段５１９號２樓,25.07374,121.28518700000001,機械設備業,輸送機械設備製造業,,金屬加工用機械、專用生產機械、通用機械停車設備、洗窗機設備
天勤針織有限公司,桃園市蘆竹區山鼻里南山路三段１７巷３５號,25.07376,121.282982,紡織業,針織布業,,針織布加工
鴻泰鐵工廠,桃園市蘆竹區山鼻里長興路三段１４號,25.073474899999997,121.28440900000001,機械設備業,其他通用機械設備製造業,,通用機械設備
台灣不二工機股份有限公司桃園工廠,桃園市蘆竹區內厝里長興路三段２０號,25.073352800000002,121.283615,汽車及零件業,汽車零件製造業,,貯液乾燥器、溫度式膨脹閥
榮騏紙器股份有限公司,桃園市蘆竹區山鼻里長興路三段６號,25.0733414,121.284805,紙漿、紙及紙製品業,紙板製造業,,紙板
台灣耐力股份有限公司桃園廠,桃園市蘆竹區內厝里長興路三段９號,25.0730247,121.28337900000001,機械設備業,輸送機械設備製造業,,輸送及搬運工具設備
長榮航勤股份有限公司蘆竹廠,桃園市蘆竹區內厝里長興路三段３、５號,25.07289,121.28400400000001,紡織業,染整業,,１．機上毛毯。２．空服員及機長制服。３．機上布品。４．連身工作服
聯致科技股份有限公司蘆竹廠,桃園市蘆竹區山鼻里南山路二段４９８之２號,25.072944600000003,121.28578200000001,電子零組件業,印刷電路板製造業,,銅箔基板、玻璃纖維黏合片、複合材料、ＰＣＢ壓合代工
欣興電子股份有限公司南山廠,桃園市蘆竹區山鼻里南山路二段４９８號,25.072944600000003,121.28578200000001,電子零組件業,印刷電路板製造業,,各型印刷電路板
昶運電子股份有限公司,桃園市蘆竹區內厝里南山路二段３５７巷４０號,25.0726089,121.28353899999999,電子零組件業,印刷電路板製造業,,乾膜線路代工
溫晟塑膠工業股份有限公司二廠,桃園市蘆竹區內厝里長興路三段２５號,25.0727425,121.28286000000001,塑膠製品業,塑膠膜袋製造業,,塑膠袋塑膠袋（如：高低密度塑膠袋、抗靜電袋、背心袋、腰洞袋、夾鏈袋…等）、ＯＰＰ封口膠帶、棉紗手套、塑膠杯、餐巾紙、ＰＥ膜…等塑膠產品
鴻利國際針織有限公司蘆竹二廠,桃園市蘆竹區內厝里南山路二段４８７號,25.07255,121.285156,紡織業,針織布業,,紗加工
崧茂工業有限公司,桃園市蘆竹區內厝里長興路三段３３號,25.0729752,121.28211200000001,金屬製品業,未分類其他金屬製品製造業,,金屬製品
福泰壓光有限公司,桃園市蘆竹區內厝里長興路三段３７號,25.0729923,121.282028,紡織業,染整業,,壓光布疋
美上美企業股份有限公司,桃園市蘆竹區內厝里南山路二段３５７巷３６弄１５號,25.072370000000003,121.28429399999999,塑膠製品業,其他塑膠製品製造業,,塑膠粒
聯迎興企業有限公司桃園廠,桃園市蘆竹區內厝里南山路二段３５７巷３６弄１３號,25.0723553,121.284218,化學製品業,未分類其他化學製品製造業,,紡織染整助劑
晉德螺絲企業股份有限公司,桃園市蘆竹區內厝里１１鄰長興路三段４３號,25.0729313,121.28199,金屬製品業,螺絲、螺帽及鉚釘製造業,,止付螺絲、特殊螺絲
重沅實業股份有限公司,桃園市蘆竹區內厝里南山路二段３５７巷３６弄１１號,25.072334299999998,121.28416399999999,機械設備業,其他通用機械設備製造業,,通用機械設備
明恩興業有限公司,桃園市蘆竹區內厝里南山路二段３５７巷３６弄９號１樓,25.072322800000002,121.2841,印刷及儲存媒體複製業,印刷業,,塑膠印刷
冠旗電子有限公司,桃園市蘆竹區內厝里南山路二段３５７巷３８之３號１樓,25.0723572,121.28358500000002,電力設備業,照明器具製造業,,ＬＥＤ緊急照明燈、ＬＥＤ出口標示燈、避難方向指示燈
如鋒企業有限公司,桃園市蘆竹區內厝里南山路二段３５７巷３６弄７號,25.0723076,121.284042,汽車及零件業,汽車零件製造業,,汽車零件、電子零組件、其他金屬製品
弘展雷射有限公司,桃園市蘆竹區內厝里南山路二段４７０巷１７號,25.072979,121.28663600000002,金屬製品業,其他金屬加工處理業,,其他金屬製品、其他機械
煒群工業股份有限公司,桃園市蘆竹區內厝里長興路三段３９號１樓,25.0729923,121.28169299999999,機械設備業,其他通用機械設備製造業,,其他金屬製品，金屬加工用機械
鵬澤企業股份有限公司,桃園市蘆竹區內厝里長興路三段３９號２樓,25.0729923,121.28169299999999,機械設備業,動力手工具製造業,,棘輪板手、氣鑽、氣動鋸、砂布機
佳駿針織股份有限公司蘆竹廠,桃園市蘆竹區內厝里長興路三段４５號及４７號２、３、４樓,25.0729237,121.281792,紡織業,針織布業,,針織布（胚布）－代工繳
通展塑膠工業股份有限公司,桃園市蘆竹區內厝里南山路二段３５７巷３８之１號,25.07224,121.28358500000002,塑膠製品業,塑膠膜袋製造業,,一般塑膠袋
欣興電子股份有限公司蘆竹二廠,桃園市蘆竹區山鼻里南山路二段４７０巷２１號,25.073597,121.287636,電子零組件業,印刷電路板製造業,,各型印刷電路板
珉磊工業股份有限公司,桃園市蘆竹區內厝里南山路二段３５７巷３８號１樓,25.0721664,121.28358500000002,基本金屬業,鋼鐵鑄造業,,金屬製品
興和針織股份有限公司,桃園市蘆竹區內厝里長興路三段４７號１樓,25.0728245,121.281517,紡織業,針織布業,,織布（胚布）－代工繳
蔚揚實業股份有限公司蘆竹二廠,桃園市蘆竹區內厝里南山路二段３５７巷３４號,25.0719223,121.28392,塑膠製品業,其他塑膠製品製造業,,管接頭、漏水頭、噴水系統等塑膠產品
龍鐵機械工業股份有限公司,桃園市蘆竹區山鼻里南山路二段４７０巷２３號,25.0739975,121.288307,機械設備業,事務機械設備製造業,,機械五金另件、鼓風機
永太興科技股份有限公司桃園廠,桃園市蘆竹區山鼻里３鄰南山路二段４７０巷１３１號,25.0735035,121.28801000000001,基本金屬業,鋁材軋延、擠型及伸線業,,鋁擠型、電腦用散熱片、ＬＥＤ、門窗安裝工程業
巨旦科技股份有限公司,桃園市蘆竹區山鼻里３鄰南山路二段４７０巷１３１號,25.0735035,121.28801000000001,電腦電子及光學品業,其他電腦週邊設備製造業,,門窗安裝工程業
昶瑞電子材料股份有限公司二廠,桃園市蘆竹區山鼻里長興路二段１９７號,25.07272,121.287392,電子零組件業,未分類其他電子零組件製造業,玻璃纖維布,絕緣材料
麗煌工業股份有限公司,桃園市蘆竹區山鼻里南山路二段４７０巷６弄１號,25.072261800000003,121.28669,金屬製品業,金屬表面處理業,,金屬製品、機械零件、燈具
嘉弘玻璃股份有限公司蘆竹廠,桃園市蘆竹區山鼻里長興路二段２００號,25.07306,121.287872,非金屬礦物製品業,平板玻璃及其製品製造業,,玻璃
坤益汽車有限公司,桃園市蘆竹區內厝里長興路三段５９號,25.0724716,121.281136,汽車及零件業,汽車零件製造業,,汽車零件，五金
大毅科技股份有限公司,桃園市蘆竹區山鼻里南山路二段４７０巷２６號,25.0740089,121.28883400000001,電子零組件業,被動電子元件製造業,,晶片電阻、晶片排阻、電阻網路、晶片保險絲
大毅科技股份有限公司長興廠,桃園市蘆竹區山鼻里南山路二段４７０巷２６號（１、２、３、５、６樓）,25.074,121.28883400000001,電子零組件業,被動電子元件製造業,,晶片電阻
展新感測原件有限公司,桃園市蘆竹區山鼻里南山路二段４７０巷２６號４樓,25.074,121.28883400000001,金屬製品業,其他金屬加工處理業,,代工
瑋銓工業有限公司,桃園市蘆竹區內厝里１０鄰內溪路３２號,25.0715046,121.28353100000001,金屬製品業,金屬建築組件製造業,,鋁包板、鋁板帷幕
呈嘉針織有限公司,桃園市蘆竹區山鼻里長興路二段１５４、１５６號,25.072778699999997,121.287865,紡織業,針織布業,,織布
朝茂製冰倉儲包裝股份有限公司,桃園市蘆竹區內厝里內溪路４０巷６６號,25.071792600000002,121.28215,食品及飼品業,未分類其他食品製造業,,食用冰塊
川允工程有限公司,桃園市蘆竹區內厝里南山路二段４３５號１樓,25.07145,121.28521,機械設備業,其他通用機械設備製造業,,未分類其他通用機械設備製造
九贏針織企業有限公司,桃園市蘆竹區內厝里長興路三段１２５號,25.072822600000002,121.28036499999999,紡織業,針織布業,,針織布
俋品企業有限公司,桃園市蘆竹區內厝里長興路三段１２５號,25.072822600000002,121.28036499999999,紡織業,針織布業,,紡織織布
煒翔企業股份有限公司蘆竹廠,桃園市蘆竹區內厝里南山路二段４７０巷２弄１１號,25.072029999999998,121.28703300000001,紡織業,針織布業,,其他圓編針織布
能率倉儲設備股份有限公司桃園廠,桃園市蘆竹區內厝里長興路三段１２１號,25.072670000000002,121.28033400000001,家具業,金屬家具製造業,,固定架、移動櫃、貨架、物料架
嶼丞科技股份有限公司,桃園市蘆竹區內厝里內溪路３０－５號,25.0711956,121.284019,機械設備業,其他通用機械設備製造業,,ＧＡＭＩＮＧ、ＰＡＲＴＳ
佳麗果物股份有限公司,桃園市蘆竹區內厝里長興路三段１３１號,25.072877899999998,121.280045,食品及飼品業,蔬果加工及保藏業,,果乾、鮮果
崴楨實業有限公司,桃園市蘆竹區山鼻里長興路二段１５２號,25.072446799999998,121.287979,電子零組件業,印刷電路板製造業,乾膜,印刷電路板
得詮工業股份有限公司,桃園市蘆竹區內厝里長興路三段１３３號,25.072858800000002,121.27986899999999,汽車及零件業,汽車零件製造業,,汽車模具
鼎佶企業有限公司蘆竹廠,桃園市蘆竹區南山路二段４７０巷２４弄７號１樓,25.0735588,121.289162,金屬製品業,未分類其他金屬製品製造業,,金屬製品加工
穩錠實業有限公司蘆竹廠,桃園市蘆竹區山鼻里南山路二段４７０巷２４弄７號２樓,25.0735588,121.289162,金屬製品業,未分類其他金屬製品製造業,,金屬製品加工
迎廣科技股份有限公司長興廠,桃園市蘆竹區山鼻里長興路二段１９３號,25.072013899999998,121.287682,電腦電子及光學品業,其他電腦週邊設備製造業,,電腦機殼
科宙企業有限公司蘆竹廠,桃園市蘆竹區山鼻里長興路二段１９３號２樓,25.072013899999998,121.287682,電腦電子及光學品業,其他電腦週邊設備製造業,,電腦外殼組裝
征冠企業有限公司蘆竹廠,桃園市蘆竹區山鼻里長興路二段１９３號２樓,25.072013899999998,121.287682,電腦電子及光學品業,其他電腦週邊設備製造業,,電腦外殼組裝
吉銳電熱有限公司,桃園市蘆竹區內厝里南山路二段３９４巷６１弄６號１樓,25.071666699999998,121.287231,機械設備業,其他通用機械設備製造業,,電熱管、各式電熱產品、烤箱設計、加熱器設計製作
震億實業社,桃園市蘆竹區內厝里內溪路３－１號,25.070875199999996,121.28472099999999,金屬製品業,金屬表面處理業,鎢絲,真空鍍膜
萬均科技股份有限公司桃園廠,桃園市蘆竹區內厝里南山路二段３９４巷６１弄２號,25.0716152,121.28726200000001,電力設備業,其他電力設備及配備製造業,,防爆燈具、防爆箱、防爆開關、防爆插頭插座等各式防爆電氣設備
關東機械有限公司蘆竹廠,桃園市蘆竹區內厝里內溪路５號,25.0708141,121.284691,機械設備業,其他通用機械設備製造業,,機械零件
詮弘有限公司,桃園市蘆竹區山鼻里長興路二段１４６號１樓,25.0721321,121.28816200000001,金屬製品業,金屬刀具及手工具製造業,機械五金、鐵板材料,金屬手工具及模具
立毅興業股份有限公司,桃園市蘆竹區內厝里長興路三段１３５號,25.072670000000002,121.279633,金屬製品業,其他金屬加工處理業,,ｈ型鋼鍍鎂鋁鋅
奕慶防災工業股份有限公司,桃園市蘆竹區內厝里長興路三段１３７號,25.0726967,121.279472,機械設備業,其他通用機械設備製造業,,消防設備
更竣企業有限公司,桃園市蘆竹區南山路二段３９４巷６３號１樓,25.071460000000002,121.28744499999999,機械設備業,食品、飲料及菸草製作用機械設備製造業,,廚房調理器具、食品加工機器、金屬家具及裝設品、鍋爐及原動機
泓晴科技股份有限公司,桃園市蘆竹區內厝里南山路二段３９４巷６１弄１號及３號,25.07135,121.287292,電子零組件業,印刷電路板製造業,,印刷電路板
聖龍紡織股份有限公司,桃園市蘆竹區山鼻里長興路二段１０４號,25.0718689,121.288284,紡織業,其他紡織品製造業,,各種紗支布疋
泓緯針織股份有限公司,桃園市蘆竹區內厝里南山路二段３９４巷５３號,25.071003,121.286842,紡織業,針織布業,,織布電腦提花針織布
喆丰股份有限公司,桃園市蘆竹區內厝里長興路三段１３７巷４２號,25.07181,121.280174,塑膠製品業,其他塑膠製品製造業,,塑膠成型射出製品
協明工業股份有限公司二廠,桃園市蘆竹區內厝里南山路二段３９４巷４７號,25.070888500000002,121.2866,金屬製品業,未分類其他金屬製品製造業,鐵板、鋼板、鋁板、鋅板,配電箱、控制箱、鐵箱、五金零件、機械零件
美綸針織股份有限公司,桃園市蘆竹區內厝里南山路二段３９４巷３９號,25.070772199999997,121.286278,紡織業,針織布業,,針織布（電腦提花）
恆器製酒有限公司,桃園市蘆竹區山鼻里２鄰內新路１１７巷５３弄２６號,25.072589999999998,121.2892,飲料業,其他酒精飲料製造業,,０９１酒精飲料
歐豐塑膠股份有限公司桃園廠,桃園市蘆竹區內厝里南山路二段３９４巷６之１號,25.0708656,121.286758,塑膠製品業,塑膠外殼及配件製造業,,塑膠製品
華盛興實業股份有限公司,桃園市蘆竹區內厝里長興路三段１３９號,25.0725765,121.27922099999999,紡織業,染整業,,各種布之定型整理加工
復貫股份有限公司,桃園市蘆竹區內厝里內溪路９號,25.0703659,121.283745,電腦電子及光學品業,顯示器及終端機製造業,,彩色監視器
富動科技股份有限公司,桃園市蘆竹區內厝里內溪路９號３樓,25.0703659,121.283745,電腦電子及光學品業,顯示器及終端機製造業,,觸控顯示器暨系統
台灣半導體照明股份有限公司蘆竹廠,桃園市蘆竹區內厝里內溪路９號１樓,25.07036,121.283745,電力設備業,電燈泡及燈管製造業,,ＬＥＤ照明燈泡，ＬＥＤ照明燈條
協志碾米工廠,桃園市蘆竹區內厝里南山路二段３５７巷７號,25.07027,121.284676,食品及飼品業,碾榖業,,白米，米糠
台傑食品有限公司,桃園市蘆竹區內厝里南山路二段３９４巷４之１號,25.0704079,121.28608700000001,食品及飼品業,蔬果加工及保藏業,,其他食品
黃金廣告有限公司,桃園市蘆竹區內厝里南山路二段３８９號,25.070198100000002,121.285225,其他製造業,其他未分類製造業,,廣告招牌
弘詮興業有限公司,桃園市蘆竹區內厝里南山路二段３９４巷２號,25.070337300000002,121.28601100000002,紡織業,針織布業,,針織布
精鎔有限公司,桃園市蘆竹區山鼻里１鄰內新路３９號,25.0706253,121.28694899999999,機械設備業,未分類其他專用機械設備製造業,,機械另件加工
東日發實業股份有限公司,桃園市蘆竹區山鼻里內新路３９號,25.0706253,121.28694899999999,紡織業,針織布業,,針織布
卓越化學股份有限公司,桃園市蘆竹區內厝里南山路二段３９４巷２之１號,25.0702629,121.28601100000002,化學製品業,未分類其他化學製品製造業,,光澤劑、活化劑
富士達數位科技企業有限公司,桃園市蘆竹區內厝里內溪路１５號１樓,25.0700951,121.28286000000001,塑膠製品業,其他塑膠製品製造業,,塑膠製品
記暉有限公司內溪廠,桃園市蘆竹區內厝里內溪路１９巷１號,25.0700245,121.28298999999998,電子零組件業,印刷電路板製造業,,ＰＣ噴錫加工印刷電路板加工
征冠企業有限公司,桃園市蘆竹區內厝里內溪路１７號,25.0700474,121.282776,電腦電子及光學品業,其他電腦週邊設備製造業,,電腦外殼組裝
釆聲企業股份有限公司桃園廠,桃園市蘆竹區山鼻里山鼻子６１之７號,25.074401899999998,121.29086299999999,電腦電子及光學品業,視聽電子產品製造業,,插頭、插座、保險絲音響配件、喇叭零件
華孚科技股份有限公司,桃園市蘆竹區內厝里長興路三段１４９號,25.072248499999997,121.278725,塑膠製品業,其他塑膠製品製造業,,塑膠製品
吉興企業股份有限公司,桃園市蘆竹區山鼻里長興路二段９６號,25.07112,121.2887,其他製造業,其他未分類製造業,,冰塊（非食用）
筠翔實業股份有限公司蘆竹廠,桃園市蘆竹區內厝里長興路三段１５１－１號,25.07219,121.278557,紡織業,染整業,,針織布加工（代工）
東發針織廠,桃園市蘆竹區山鼻里內新路３８號１樓,25.0700874,121.28694899999999,紡織業,針織布業,,針織布
仙暉工業有限公司二廠,桃園市蘆竹區內厝里內新路５３號,25.070322,121.287613,電力設備業,照明器具製造業,沖床、鐵板,避難器具、安全出口門燈、逃生設備
惠台鋼鐵有限公司蘆竹廠,桃園市蘆竹區內厝里內新路３７號,25.0699425,121.286758,金屬製品業,其他金屬加工處理業,,鋼板、鐵板
百益鑫機械股份有限公司,桃園市蘆竹區內厝里南山路二段３５１號,25.0695457,121.2851,機械設備業,其他通用機械設備製造業,,機械零件
瑋鑫科技股份有限公司二廠,桃園市蘆竹區內厝里內新路６１號３樓,25.0703735,121.28788,電子零組件業,印刷電路板製造業,,印刷電路鋁板加工
合興精密金屬壓鑄有限公司,桃園市蘆竹區內厝里內新路６１號,25.0703735,121.28788,金屬製品業,未分類其他金屬製品製造業,鋅合金,電子零件、五金零件
瑋鑫科技股份有限公司,桃園市蘆竹區內厝里內新路６１號１、２樓,25.0703735,121.28788,電子零組件業,印刷電路板製造業,,印刷電路板加工
惠台鋼鐵有限公司蘆竹二廠,桃園市蘆竹區內厝里內新路１９號,25.069665899999997,121.2863,金屬製品業,其他金屬加工處理業,,鋼板、鐵板
香港商瑞健科技股份有限公司台灣分公司南山廠,桃園市蘆竹區內厝里南山路二段３１３之１號２樓,25.06926,121.28437,機械設備業,未分類其他專用機械設備製造業,,金屬加工用機械設備、其他專用機械設備
瑞健股份有限公司南山二廠,桃園市蘆竹區內厝里南山路二段３１３號,25.06926,121.28437,其他製造業,其他醫療器材及用品製造業,,強化塑膠製品注射針筒、醫療氣墊床
瑞健股份有限公司南崁模具廠,桃園市蘆竹區內厝里南山路二段３１３號１樓,25.06926,121.28437,金屬製品業,金屬模具製造業,,模．治具
瑞健股份有限公司南山廠,桃園市蘆竹區內厝里南山路二段３１３－１號,25.06926,121.28437,其他製造業,其他醫療器材及用品製造業,,強化塑膠製品注射針筒、醫療氣墊床
松格冷氣股份有限公司,桃園市蘆竹區山鼻里內新路３４號,25.0701485,121.2881,電力設備業,家用空調器具製造業,,冷氣機製造
千莊針織有限公司,桃園市蘆竹區山鼻里內新路３６號,25.07024,121.28846000000001,紡織業,人造纖維紡紗業,,紗
錦慧精機有限公司,桃園市蘆竹區內厝里長興路三段１５３號,25.07212,121.277809,金屬製品業,未分類其他金屬製品製造業,,軸心主胚
力信化工股份有限公司,桃園市蘆竹區海湖里海湖東路１８７號,25.080387100000003,121.29058799999999,化學製品業,未分類其他化學製品製造業,,接著劑、黃糊、噴糊、塗料
東順針織有限公司,桃園市蘆竹區山鼻里內新路３６之１號,25.0701847,121.28846000000001,紡織業,針織布業,,針織疋布
擎鋒工業股份有限公司蘆竹廠,桃園市蘆竹區內厝里內新路２巷１號,25.069147100000002,121.286484,機械設備業,其他通用機械設備製造業,,機械製品
溫克特爾股份有限公司蘆竹廠,桃園市蘆竹區內厝里內新路２巷１號,25.069147100000002,121.286484,機械設備業,食品、飲料及菸草製作用機械設備製造業,,大型烤爐、烤箱
耀星科技股份有限公司,桃園市蘆竹區內厝里南山路二段３３０號,25.0689335,121.285835,機械設備業,其他通用機械設備製造業,機械五金零件,鋼條
台灣金圓工業股份有限公司蘆竹廠,桃園市蘆竹區內厝里長興路三段２１９巷１１號,25.0707741,121.27851100000001,金屬製品業,未分類其他金屬製品製造業,,ＳＴＥＥＬＢＡＬＬ鋼珠
翔容物流股份有限公司,桃園市蘆竹區內厝里內新路２８號,25.0693684,121.28771200000001,電腦電子及光學品業,其他電腦週邊設備製造業,,倉儲、理貨櫃、通信機械設備、電腦及其週邊設備
宏碁股份有限公司桃園廠,桃園市蘆竹區內厝里內新路２８號,25.0693684,121.28771200000001,電腦電子及光學品業,電腦製造業,,桌上型電腦
耿鼎企業股份有限公司五廠,桃園市蘆竹區內厝里內溪路４８號,25.069229999999997,121.281029,金屬製品業,金屬刀具及手工具製造業,,金屬手工具及模具，金屬加工處理，其他金屬製品
耿鼎企業股份有限公司,桃園市蘆竹區內厝里內溪路４８號,25.069229999999997,121.281029,汽車及零件業,車體製造業,,車身沖壓件、鋼模、汽車零件、五金零件、車床
迅嘉電子股份有限公司一廠,桃園市蘆竹區內厝里南山路二段３０３號（地下１樓、１樓）、３０３號３樓、３０３號４樓、３０３號５樓（６樓）,25.0686226,121.28521,電子零組件業,印刷電路板製造業,,金屬表面處理及熱處理、印刷電路板
立誠光電股份有限公司,桃園市蘆竹區內厝里南山路二段３０３號１、２樓,25.0686226,121.28521,電子零組件業,印刷電路板製造業,,ＩＣ載板
祺源股份有限公司桃園廠,桃園市蘆竹區內厝里內溪路５０之１號,25.069242499999998,121.280418,塑膠製品業,塑膠外殼及配件製造業,塑膠粒子,工程塑膠粒子
新浦樂生化科技股份有限公司,桃園市蘆竹區內厝里內溪路５０號,25.0692635,121.28022800000001,塑膠製品業,其他塑膠製品製造業,,環保餐具、杯、盤、碗、筷等
東明纖維工業股份有限公司蘆竹廠,桃園市蘆竹區內厝里長興路三段２１９巷１３號,25.070533800000003,121.278053,紡織業,染整業,,布定型整理加工
七信工業股份有限公司,桃園市蘆竹區內厝里長興路三段２１９巷９號,25.07078,121.277634,機械設備業,紡織、成衣及皮革生產用機械設備製造業,,染整機械、化工機械
力邦科技股份有限公司,桃園市蘆竹區內厝里長興路三段２１９巷３號,25.071241399999998,121.27719099999999,電子零組件業,未分類其他電子零組件製造業,,印刷電路板
優士威精密股份有限公司蘆竹廠,桃園市蘆竹區內厝里長興路三段２１９巷３號,25.071241399999998,121.27719099999999,電子零組件業,印刷電路板製造業,,印刷電路板
上綸針織股份有限公司,桃園市蘆竹區山腳里南山北路一段１００巷８號１樓,25.0754089,121.30535900000001,紡織業,針織布業,,針織布
同位化學有限公司,桃園市蘆竹區山鼻里內新路１７２號,25.075756100000003,121.316475,化學製品業,未分類其他化學製品製造業,,清潔劑、金屬加工用助劑、振動研磨用助劑
允讚機械有限公司,桃園市蘆竹區坑子里山林路三段７９號,25.0786057,121.316925,機械設備業,未分類其他專用機械設備製造業,,紙加工機械、機械設備、製造修配業
萬青國際有限公司,桃園市蘆竹區外社里山林路二段６８５號,25.0818748,121.309036,機械設備業,其他通用機械設備製造業,,電熱爐生產
南盛電熱科技工程行,桃園市蘆竹區外社里山林路二段６８５號,25.0818748,121.309036,機械設備業,其他通用機械設備製造業,,電熱爐、專用生產機械
清泉電熱處理工業有限公司,桃園市蘆竹區外社里山林路二段６８５號,25.0818748,121.309036,機械設備業,其他金屬加工用機械設備製造業,,熱處理設備
肯特辦公家具股份有限公司林口廠,新北市林口區南勢里７９之２號,25.0759163,121.3479,家具業,金屬家具製造業,,辦公家具
國豐五金工業股份有限公司,新北市林口區南勢里南勢７７之３號,25.07863,121.348228,金屬製品業,未分類其他金屬製品製造業,,鐵蓋、鐵箱、鐵殼
新星茶葉股份有限公司,桃園市蘆竹區坑子里１４鄰八德二路３３０號,25.0695572,121.338829,食品及飼品業,製茶業,,綠茶（粗製及精製）
日群精密工業有限公司二廠,新北市林口區南勢里南勢７２號－６,25.07573,121.355019,汽車及零件業,汽車零件製造業,鋁條,汽車零件
優異識股份有限公司,新北市林口區南勢四街４８號,25.0720348,121.3563,食品及飼品業,動物飼品製造業,,寵物食品
晨達企業股份有限公司,新北市林口區南勢里６鄰南勢３９－２號,25.07114,121.353012,金屬製品業,其他金屬加工處理業,,風管材料
嘉聯益科技股份有限公司桃科廠,桃園市觀音區白玉里１鄰桃科十路８號、８號３樓、８號５樓,25.054807699999998,121.09059099999999,電子零組件業,印刷電路板製造業,,軟性電路板
皇嘉不銹鋼工業有限公司,桃園市觀音區樹林里國建三路７之６號,25.061548199999997,121.10808600000001,基本金屬業,鋼鐵軋延及擠型業,,鋼板、帶、片製造
鉅高股份有限公司國建廠,桃園市觀音區樹林里國建三路７之８號,25.06129,121.10808600000001,其他製造業,體育用品製造業,鐵管，控制器，馬達，電子錶,電動跑步機
志士達交通工業股份有限公司觀音廠,桃園市觀音區樹林里國建三路７之２號,25.0607548,121.10808600000001,汽車及零件業,汽車零件製造業,,汽車及其零件
金再昇股份有限公司,桃園市觀音區樹林里國建三路７之７號,25.0603161,121.10808600000001,基本金屬業,未分類其他基本金屬製造業,,金氰化鉀、氯化金、氯化鈀、硝酸銀、銅粉、金粉、銀氰化鉀
瑞大鴻科技材料股份有限公司觀音廠,桃園市觀音區樹林里國建三路７號,25.059739999999998,121.10808600000001,基本金屬業,未分類其他基本金屬製造業,,純錫．純鉛．工業用硫酸銅
耀鼎資源循環股份有限公司,桃園市觀音區樹林里國建三路７之１號,25.059739999999998,121.10808600000001,化學製品業,未分類其他化學製品製造業,,其他化學製品
聚益化學工業股份有限公司觀音廠,桃園市觀音區樹林里國建三路７－５號,25.059739999999998,121.10808600000001,化學製品業,未分類其他化學製品製造業,,其他雜項化學製品（ＰＵ樹脂，染整及造紙界面活性劑等）
新光合成纖維股份有限公司觀音廠,桃園市觀音區樹林里１５鄰國建三路９號,25.0614128,121.11066399999999,化學材料業,塑膠原料製造業,,聚酯粒、聚酯絲、聚酯棉、工程塑膠
日皓造紙工業股份有限公司觀音廠,桃園市觀音區樹林里１３鄰國建三路５號,25.059166,121.10697900000001,紙漿、紙及紙製品業,紙張製造業,紙漿、澱粉、碳酸鈣、上膠劑,文化用紙
日祥機械工業股份有限公司觀音廠,桃園市觀音區樹林里國建三路５號,25.059166,121.10697900000001,機械設備業,未分類其他專用機械設備製造業,軸承、螺絲、鐵板、墊圈,造紙機器
台灣富德斯股份有限公司,桃園市觀音區樹林里國建三路２號,25.0590649,121.108833,汽車及零件業,汽車零件製造業,,汽車用樹脂製燃油箱
國瑞汽車股份有限公司觀音工廠,桃園市觀音區樹林里國建三路２號,25.0590649,121.108833,汽車及零件業,汽車製造業,,汽車大型巴士，大貨車及小型商用車，客車
雙慶化工股份有限公司,桃園市觀音區樹林里國光路１０號,25.0593719,121.10463,化學材料業,化學原材料製造業,碳酸鈣,氟化鈣（人工螢石）
鐵錠金屬有限公司,桃園市觀音區樹林里國建三路３－１號,25.0585518,121.106407,金屬製品業,其他金屬加工處理業,鋼鐵、其他金屬製品,快削棒鋼、碳鋼盤元、棒鋼、鋼材
佶鼎科技股份有限公司觀音二廠,桃園市觀音區觀音工業區國建三路３號,25.0585518,121.106407,化學材料業,化學原材料製造業,,其他雜項基本化學材料（硫酸銅）
揚堡實業有限公司觀音廠,桃園市觀音區觀音工業區國建三路３號,25.0585518,121.106407,化學材料業,化學原材料製造業,,其他雜項基本化學材料（氫氧化銅）
日楠企業有限公司觀音廠,桃園市觀音區樹林里國光路８號,25.059020999999998,121.10495800000001,化學材料業,塑膠原料製造業,,合成樹脂、紡織助劑、合成乳膠
錦實紡織股份有限公司,桃園市觀音區樹林里國光路６號,25.0586777,121.105278,紡織業,其他紡織品製造業,,色布
錦展實業股份有限公司,桃園市觀音區國光路６號,25.0586777,121.105278,紡織業,染整業,,各種胚布刷毛，剪毛整理加工
錦翔實業股份有限公司,桃園市觀音區國光路６號,25.0586777,121.105278,紡織業,染整業,,色布
遠東先進纖維股份有限公司,桃園市觀音區樹林里工業五路１７號,25.06237,121.112946,化學材料業,人造纖維製造業,,尼龍絲
水美工程企業股份有限公司觀音廠,桃園市觀音區富林里國建三路１之５號,25.0579,121.10484299999999,塑膠製品業,其他塑膠製品製造業,,其他未列名雜項製品
利芃國際股份有限公司觀音廠,桃園市觀音區樹林里國瑞路１６號,25.0593,121.112206,其他製造業,其他未分類製造業,,ＢＯＰＰ膠帶、皺紋紙膠帶
中陸工業股份有限公司觀音廠,桃園市觀音區富林里國建三路１之１號,25.057184200000002,121.10484299999999,非金屬礦物製品業,未分類其他非金屬礦物製品製造業,瀝青混凝土,瀝青工程
三峽瀝青股份有限公司,桃園市觀音區富林里國建三路１之２號,25.057184200000002,121.10484299999999,非金屬礦物製品業,未分類其他非金屬礦物製品製造業,,瀝青混凝土
銘鈺精密工業股份有限公司二廠,桃園市觀音區樹林里１２鄰國瑞路２號,25.0585747,121.11228200000001,金屬製品業,未分類其他金屬製品製造業,,其他鋼鍍或塗面鋼捲片
普森環保科技股份有限公司觀音廠,桃園市觀音區觀音工業區國建二路３之１、３之２號,25.0574665,121.11174799999999,化學材料業,化學原材料製造業,,硫酸銅加工，電子級氧化銅
越峯電子材料股份有限公司,桃園市觀音區樹林里國建二路２號,25.0588875,121.113304,電子零組件業,被動電子元件製造業,,軟性鐵氧磁鐵芯、磁鐵粉
遠東新世紀股份有限公司觀音印染廠,桃園市觀音區樹林里國建二路１號,25.057952899999997,121.113037,紡織業,針織布業,,針織布
台灣海帝斯股份有限公司,桃園市觀音區樹林里工業五路２１號,25.0592537,121.114525,化學製品業,塗料、染料及顏料製造業,,色膠、油墨
山大企業股份有限公司,桃園市觀音區樹林里１１鄰國建二路３號,25.05639,121.11174799999999,紡織業,染整業,,布類染色、印花加工
山靈企業股份有限公司,桃園市觀音區經建五路２號,25.059885,121.11523400000002,金屬製品業,金屬表面處理業,不銹鋼鑄件,鋼球、凡而球塞、功夫球、鋼珠、其他金屬
台灣玻璃工業股份有限公司桃園廠,桃園市觀音區樹林里經建五路１號,25.06055,121.11573,非金屬礦物製品業,平板玻璃及其製品製造業,,玻璃纖維布、玻璃纖維束
昇榮科技股份有限公司二廠,桃園市觀音區樹林里經建四路２之２８號１樓,25.058847399999998,121.11515,金屬製品業,金屬表面處理業,,零件加工、電鍍等
碩柏實業有限公司,桃園市觀音區樹林里經建四路２之２６號２樓,25.05883,121.11515,其他製造業,其他未分類製造業,,黑白膠膜
合機電線電纜股份有限公司二廠,桃園市觀音區樹林里經建五路３２號,25.062501899999997,121.12224599999999,電力設備業,電線及電纜製造業,裸銅線、鋁線、ＸＬＰＥ粒、ＰＶＣ粒,塑膠電線電纜、裸鋁線、通信電線電纜、交連ＰＥ電纜
洋華光電股份有限公司,桃園市觀音區樹林里經建五路３２號５樓,25.062501899999997,121.12224599999999,電子零組件業,其他光電材料及元件製造業,,觸控面板
台灣亨斯邁化學工業股份有限公司,桃園市觀音區樹林里工業三路１９號,25.063161800000003,121.122528,化學材料業,塑膠原料製造業,,聚尿樹脂
臺灣中華化學工業股份有限公司桃園一廠,桃園市觀音區經建五路３０號,25.0624256,121.12136100000001,化學材料業,化學原材料製造業,,濃硫酸、稀硫酸、硫酸鋁、ＰＡＣ、染顏料中間體、顯影液、化纖改質單體
薇薾登股份有限公司觀音廠,桃園市觀音區樹林里經建四路４２號,25.0619221,121.123322,化學製品業,農藥及環境用藥製造業,,環境衛生用藥（殺蟲劑）噴霧劑清潔劑
金匯科技股份有限公司,桃園市觀音區樹林里經建四路４３號,25.062260000000002,121.1238,金屬製品業,金屬表面處理業,,微波通訊、汽車零件、五金零件、電子零件
立合科技有限公司,桃園市觀音區樹林里經建四路４３號,25.062260000000002,121.1238,化學材料業,化學原材料製造業,,磷酸鈉、硫酸亞鐵
優立實業股份有限公司觀音廠,桃園市觀音區經建四路２２號,25.061784699999997,121.123695,化學製品業,塗料、染料及顏料製造業,,溶劑型塗料、其他機能塗料、油墨，溶劑
惠盛實業有限公司,桃園市觀音區樹林里經建四路２６號,25.061874399999997,121.12391699999999,化學材料業,化學原材料製造業,聚氯化鋁、硫酸鋁等,化工原料
台灣日鑛金屬股份有限公司觀音廠,桃園市觀音區觀音工業區經建四路４５號,25.0626774,121.1242,基本金屬業,銅材軋延、擠型及伸線業,,伸銅品（銅線加工）
台北貿易股份有限公司觀音廠,桃園市觀音區樹林里工業三路１３號１樓,25.0610332,121.12361899999999,機械設備業,輸送機械設備製造業,,堆高機
台灣愛知儀錶科技股份有限公司觀音廠,桃園市觀音區樹林里工業三路１３號２樓,25.0610332,121.12361899999999,電腦電子及光學品業,鐘錶製造業,,瓦斯錶維修、加工
臺灣永光化學工業股份有限公司第二廠,桃園市觀音區樹林里工業三路１２號,25.0605068,121.12319199999999,化學製品業,塗料、染料及顏料製造業,,染料
崇信股份有限公司觀音廠,桃園市觀音區經建四路３０號,25.0621185,121.12471799999999,化學製品業,未分類其他化學製品製造業,,矽樹脂、雜項化學製品
立大化工股份有限公司,桃園市觀音區樹林里經建六路１７號,25.0651264,121.120827,化學材料業,塑膠原料製造業,,合成皮革用、塗料用，成型用ＰＵ樹脂
台劦企業股份有限公司,桃園市觀音區樹林里經建四路３２之１號,25.062734600000002,121.12506100000002,家具業,金屬家具製造業,,廚房、浴室置物架
緯虹精密科技有限公司觀音廠,桃園市觀音區樹林里經建三路２９號（１、２樓）,25.0610085,121.12456499999999,金屬製品業,未分類其他金屬製品製造業,,機械零件鑄造
利津實業有限公司,桃園市觀音區經建三路２７號,25.061,121.12456499999999,化學材料業,化學原材料製造業,硝酸、硫酸、氫氧化銅,鹼性蝕銅液、硫酸銅
侑晉科技股份有限公司觀音廠,桃園市觀音區樹林里工業三路１１號,25.06038,121.12397800000001,基本金屬業,未分類其他基本金屬製造業,,混合金屬錠、銅錠、廢鋁、廢鐵、錫
旌弘電線電纜股份有限公司觀音廠,桃園市觀音區樹林里經建四路３４號,25.062808999999998,121.125381,電力設備業,電線及電纜製造業,,裸銅線、紙包絕緣銅線
瑞太福科技股份有限公司觀音廠,桃園市觀音區樹林里經建三路３３號,25.0614967,121.12516000000001,電子零組件業,印刷電路板製造業,,印刷電路板
秉慶科技有限公司觀音廠,桃園市觀音區樹林里經建三路３３號１樓,25.0614967,121.12516000000001,電子零組件業,印刷電路板製造業,,印刷電路板代工
瑞太福科技股份有限公司觀音二廠,桃園市觀音區樹林里經建三路３３號１樓,25.0614967,121.12516000000001,金屬製品業,其他金屬加工處理業,,金屬加工處理
銘緯精密有限公司桃園廠,桃園市觀音區樹林里經建四路２７號,25.0606079,121.119583,機械設備業,其他金屬加工用機械設備製造業,,金屬加工機械零組件
台清股份有限公司觀音廠,桃園市觀音區樹林里經建五路２６號１樓,25.06128,121.119019,化學材料業,化學原材料製造業,,其他雜項基本化學材料
光美鋼鐵廠有限公司,桃園市觀音區樹林里經建五路２６號２樓,25.06128,121.119019,基本金屬業,鋼鐵伸線業,,各種金屬板線之加工
台灣迪愛禧色彩股份有限公司,桃園市觀音區觀音工業區經建六路１５號,25.0643177,121.11918600000001,化學製品業,塗料、染料及顏料製造業,,ＰＥＴ絲用色母、ＰＶＣ用色母、ＰＰ色粒、發泡用色膏
東旭成企業股份有限公司,桃園市觀音區觀音工業區經建三路４６號,25.0606766,121.12471799999999,化學製品業,塗料、染料及顏料製造業,,塗料
廣銘化工股份有限公司,桃園市觀音區經建三路４８號,25.061018,121.125031,化學材料業,化學原材料製造業,,氟鋁酸鈉、氟矽酸鈉、硫酸鈣
辛奇實業股份有限公司觀音廠,桃園市觀音區樹林里經建三路４２號,25.06029,121.12441299999999,非金屬礦物製品業,耐火材料製造業,,耐火材料（不定型）
合機電線電纜股份有限公司觀音廠,桃園市觀音區樹林里經建五路２２、２４號,25.0611687,121.11878200000001,電力設備業,電線及電纜製造業,裸銅線、鋁線、ＸＬＰＥ粒、ＰＶＣ粒,塑膠電線電纜、通信電纜、交連ＰＥ電纜、裸鋁線
台灣適而優股份有限公司,桃園市觀音區樹林里經建五路２４號,25.0611687,121.11878200000001,電力設備業,其他電力設備及配備製造業,導電材料、絕緣材料、噴塗材料,ＣＳＪ（常溫收縮接頭）
吉盈橡膠工業有限公司,桃園市觀音區樹林里經建三路５０號,25.0613079,121.12543500000001,橡膠製品業,其他橡膠製品製造業,,各種橡膠製品
洋華光電股份有限公司二廠,桃園市觀音區樹林里經建四路２３、２５號,25.0603333,121.11938500000001,電子零組件業,其他光電材料及元件製造業,,保護裝置、終端匣、接續匣
安進捲門股份有限公司,桃園市觀音區樹林里經建三路５２號,25.061594,121.125679,金屬製品業,金屬建築組件製造業,,各種捲門、捲窗
金路電子企業股份有限公司,桃園市觀音區觀音工業區工業三路９號,25.0597363,121.124191,電子零組件業,印刷電路板製造業,,電路板、多層印刷電路板
聯華氣體工業股份有限公司觀音一廠,桃園市觀音區樹林里經建四路１０號,25.0599613,121.11928600000002,化學材料業,化學原材料製造業,,Ｈ２（氫氣）、ＣＯ２（二氧化碳）
盛聚塑膠股份有限公司觀音廠,桃園市觀音區樹林里經建二路４５號,25.0604,121.12561799999999,塑膠製品業,其他塑膠製品製造業,塑膠粒,其他未列名塑膠製品
歐美柴油機械股份有限公司觀音廠,桃園市觀音區經建五路２０號,25.060953100000003,121.118118,機械設備業,其他通用機械設備製造業,,原動機加工維修
東鋐國際股份有限公司觀音廠,桃園市觀音區工業三路７號,25.05923,121.124352,金屬製品業,未分類其他金屬製品製造業,金屬材料,鐵、金、銅、其他金屬
華城電機股份有限公司第二廠,桃園市觀音區樹林里經建二路３３號,25.0588264,121.12348200000001,電力設備業,發電、輸電及配電機械製造業,,電力變壓器
芫吉有限公司觀音廠,桃園市觀音區觀音工業區工業四路１６號,25.060613600000003,121.118126,化學製品業,未分類其他化學製品製造業,,其他雜項化學製品
碁富食品股份有限公司觀音廠,桃園市觀音區樹林里經建四路２１號,25.059934600000002,121.118477,食品及飼品業,肉類其他加工及保藏業,豬肉、雞肉、牛肉、麵粉,火腿、烘焙產品
台灣默克股份有限公司觀音廠,桃園市觀音區經建四路３８號,25.063533800000002,121.126648,化學製品業,清潔用品及化粧品製造業,,ＤＥＴＥＲＧＥＮＴ（ＥＸＴＲＡ）
遠東新世紀股份有限公司觀音化學纖維廠,桃園市觀音區樹林里經建六路３號及工業七路２－１號,25.063446,121.11738600000001,化學材料業,塑膠原料製造業,聚酯絲、紙箱、紙管、摩擦片、對笨二甲酸,聚酯加工絲、聚酯粒、聚酯絲
實全實業股份有限公司,桃園市觀音區樹林里經建二路５０號,25.060073899999995,121.12588500000001,化學製品業,未分類其他化學製品製造業,,其他工業助劑
弘煜機械有限公司觀音廠,桃園市觀音區經建二路４９號,25.060073899999995,121.12588500000001,機械設備業,其他通用機械設備製造業,,機械傳動設備製造
德淵企業股份有限公司觀音廠,桃園市觀音區樹林里經建二路４６號,25.05961,121.12545800000001,化學製品業,未分類其他化學製品製造業,乙烯聚酯乙烯、石油樹脂、加熱元件、驅動器,熱熔膠、及其他膠、醫療器材產品
亞東石化股份有限公司,桃園市觀音區樹林里１５鄰經建四路４７號,25.0646839,121.12645,化學材料業,化學原材料製造業,,純對苯二甲酸
巨澤工業有限公司,桃園市觀音區樹林里經建二路５２號,25.060066199999998,121.12608300000001,金屬製品業,未分類其他金屬製品製造業,鐵材、銅鋁,高低壓開關、銅鋁製品、汽、機車零件
有麒實業股份有限公司觀音廠,桃園市觀音區經建二路５８號,25.060066199999998,121.12608300000001,化學製品業,未分類其他化學製品製造業,,其他化學製藥
合機電線電纜股份有限公司觀音五廠,桃園市觀音區樹林里經建五路１８號,25.0607128,121.1176,電力設備業,電線及電纜製造業,裸銅線、鋁線、ＸＬＰＥ粒、ＰＶＣ粒,塑膠電線電纜、通信電纜、交連ＰＥ電線電纜、裸鋁線
台灣巴斯夫股份有限公司觀音Ⅲ廠,桃園市觀音區樹林里經建二路３１號,25.0581226,121.12186399999999,金屬製品業,粉末冶金業,,金屬加工處理、粉末
名億實業股份有限公司觀音廠,桃園市觀音區樹林里１５鄰工業四路１２號,25.0587788,121.119377,紡織業,染整業,,混紡纖維平織布品染整加工、Ｔ／Ｃ平織布
隆億紡織股份有限公司觀音廠,桃園市觀音區樹林里工業四路１２號,25.0587788,121.119377,紡織業,人造纖維梭織布業,,胚布
合機電線電纜股份有限公司三廠,桃園市觀音區樹林里經建五路１６號,25.0606613,121.11739299999999,電力設備業,電線及電纜製造業,裸銅線、鋁線、ＸＬＰＥ粒、ＰＶＣ粒,塑膠電線電纜、裸鋁線、通信電纜、交連ＰＥ電纜
群益膠帶股份有限公司桃園廠,桃園市觀音區樹林里經建四路１７號,25.0598221,121.11792,其他製造業,其他未分類製造業,天然橡膠、離型紙、塑膠膜,粘膠帶、封口膠帶、包裝材料
建伸鐵工廠股份有限公司觀音工廠,桃園市觀音區工業三路１０號,25.0582848,121.124146,機械設備業,輸送機械設備製造業,,油壓托板車、油壓昇降臺車、油壓堆高機、電動昇降臺車、電動堆高機
漢鐘精機股份有限公司觀音廠,桃園市觀音區樹林里工業三路５、５之１號,25.0584259,121.1247,機械設備業,泵、壓縮機、活栓及活閥製造業,,螺旋式冷媒壓縮機
漢鐘真空科技股份有限公司,桃園市觀音區樹林里工業三路５之１號３樓,25.0584259,121.1247,機械設備業,泵、壓縮機、活栓及活閥製造業,,真空泵浦機
極品化學科技股份有限公司,桃園市觀音區經建五路１４號,25.060564000000003,121.11718,化學製品業,塗料、染料及顏料製造業,,反應性染料、酸性染料、染料中間體
公源藥品股份有限公司觀音廠,桃園市觀音區樹林里經建四路１５號,25.0597935,121.117516,藥品及醫用化學品業,西藥製造業,ＣＯＬＩＳＴＩＮ，ＨＡＬＱＵＩＮＯＬ，ＡＭＯＸＩＣＩＬＬＩＮ，ＴＨＩＡＭＰＨＥＮＩＣＯＬ,剋菌２４０－２５ＫＧ，安百靈２００Ｆ－２５ＫＧ，可利定１２０－２５ＫＧ，剋疫能１００－２５ｋｇ
竑澤實業股份有限公司,桃園市觀音區樹林里工業二路２３號,25.06739,121.12406200000001,紡織業,染整業,,純棉印花布、尼龍、ＰＯＬＹ印花布、Ｔ／Ｃ印花布、Ｔ／Ｃ染色布、純棉染色布
甲芝生物科技股份有限公司觀音廠,桃園市觀音區樹林里工業二路１８號,25.066646600000002,121.1255,飲料業,其他酒精飲料製造業,,濃縮果蔬汁、飲料、再製酒
嘉貿光電股份有限公司,桃園市觀音區樹林里工業二路１６號,25.066082,121.1262,金屬製品業,其他金屬加工處理業,,鍍錫銅帶
阿美特股份有限公司,桃園市觀音區樹林里工業二路１６號,25.066082,121.1262,基本金屬業,未分類其他基本金屬製造業,,錫合金
翔協室內裝修股份有限公司,桃園市觀音區樹林里經建一路５５號,25.059438699999998,121.1265,家具業,其他非金屬家具製造業,,非金屬家具及裝設品
雋業企業有限公司,桃園市觀音區樹林里經建一路５７號,25.0596561,121.126717,化學製品業,塗料、染料及顏料製造業,,１．油漆及塗料、有關化學原料（特殊接著劑、快乾稀釋劑、塗料稀釋劑）之製造加工買賣代理經銷業務。２．代理國內外前各項有關廠商產品之投標及報價業務
捷流閥業股份有限公司桃園廠,桃園市觀音區樹林里經建四路２－３６號,25.0591679,121.117828,基本金屬業,鋼鐵鑄造業,,３０４鑄件
杏芳化工股份有限公司觀音廠,桃園市觀音區樹林里工業二路２２號,25.067253100000002,121.12485500000001,化學製品業,未分類其他化學製品製造業,,紡織染整助劑
合一實業股份有限公司觀音廠,桃園市觀音區樹林里工業二路２５號,25.06768,121.123833,化學製品業,清潔用品及化粧品製造業,,清潔劑
信盈文具事業股份有限公司觀音廠,桃園市觀音區草漯里經建二路２８號,25.05734,121.12209299999999,其他製造業,文具製造業,,文書夾、檔案夾、輕便夾、帳夾
台宗企業有限公司,桃園市觀音區樹林里經建五路１２號,25.0605259,121.1167,金屬製品業,金屬表面處理業,,金屬零件電鍍加工
台灣亞旭科技股份有限公司觀音廠,桃園市觀音區樹林里經建一路４９號,25.058885600000004,121.1263,其他製造業,其他未分類製造業,,反光布、反光條、反光標、反光帶
默克先進科技材料股份有限公司桃園廠,桃園市觀音區樹林里經建一路３９、３９之１號,25.0576439,121.124352,電子零組件業,液晶面板及其組件製造業,,液晶顯示器用液晶材料
名晧企業股份有限公司觀音廠,桃園市觀音區觀音工業區工業四路１１號,25.058410000000002,121.11833999999999,塑膠製品業,其他塑膠製品製造業,,黏性膠帶加工
文笙紡織實業股份有限公司,桃園市觀音區樹林里工業二路２７號,25.067968399999998,121.12343600000001,紡織業,染整業,,布疋印花，染整
錦源鑄造工業股份有限公司觀音廠,桃園市觀音區樹林里經建二路２５號,25.05735,121.12051399999999,基本金屬業,鋼鐵鑄造業,,自來水用延性石墨鑄鐵管及鑄鐵另件
富元精密科技股份有限公司,桃園市觀音區樹林里經建一路３３之１號,25.0572987,121.123428,電子零組件業,液晶面板及其組件製造業,,供液晶顯示器使用之被覆氧化銦錫導電玻璃
亞東創新發展股份有限公司觀音廠,桃園市觀音區樹林里工業二路１０號,25.0644321,121.127853,塑膠製品業,其他塑膠製品製造業,,ＰＥＴ碎片
金田實業有限公司觀音廠,桃園市觀音區樹林里１５鄰經建四路１１號,25.059515,121.11701200000002,化學製品業,塗料、染料及顏料製造業,,油墨（印刷用）
龍定旺科技股份有限公司觀音廠,桃園市觀音區樹林里經建四路１１號１樓及１１之１號,25.059515,121.11701200000002,化學材料業,肥料及氮化合物製造業,,高純度氨、硫酸鈉
台灣巴斯夫股份有限公司觀音廠,桃園市觀音區樹林里經建一路３３號,25.0572243,121.123428,化學製品業,農藥及環境用藥製造業,,濃硫醇、過氧化氫
大發旺塑膠企業有限公司,桃園市觀音區樹林里新村路二段１１之６號１樓,25.062166199999997,121.12818899999999,塑膠製品業,塑膠膜袋製造業,,塑膠製品
昇貿科技股份有限公司觀音廠,桃園市觀音區工業二路１２之１號,25.06583,121.127151,金屬製品業,未分類其他金屬製品製造業,純錫、純鉛、純銀、焊錫塊等,焊錫製品（焊錫絲、焊錫棒、錫球、錫膏、錫粉、ＢＧＡ錫球等）
邦凱工業股份有限公司桃園廠,桃園市觀音區樹林里１５鄰工業二路２６號,25.0680065,121.12416100000002,金屬製品業,金屬表面處理業,鋅、鋅鋁合金、鉛、瓦斯,鋼材表面處理
廣禾科技股份有限公司,桃園市觀音區樹林里經建六路２３號,25.067573499999998,121.1252,化學材料業,化學原材料製造業,,工業級硫酸銅
粒昇塑膠企業有限公司觀音廠,桃園市觀音區樹林里新村路二段１１之３號１樓,25.0615978,121.12818899999999,塑膠製品業,塑膠膜袋製造業,,塑膠袋
綠鑫股份有限公司,桃園市觀音區樹林里經建一路４６巷２號,25.0594978,121.12725800000001,化學材料業,化學原材料製造業,,光阻稀釋劑回收液
昀辰企業有限公司,桃園市觀音區經建五路６號,25.060325600000002,121.11631799999999,汽車及零件業,汽車零件製造業,,汽車零件
立松化工股份有限公司,桃園市觀音區經建一路３８號,25.05858,121.126572,化學製品業,未分類其他化學製品製造業,,其他雜項化學製品
新東亞微電子股份有限公司,桃園市觀音區工業一路７號,25.0667286,121.12663300000001,電腦電子及光學品業,資料儲存媒體製造業,,ＩＣ ＣＡＲＤ、其他資料儲存媒體
合江工業廠股份有限公司觀音廠,桃園市觀音區經建三路５號,25.0577755,121.118385,化學材料業,化學原材料製造業,鐵、氯、酸性蝕刻液、酸洗液、鹽酸,氯化鐵、氯化亞鐵、銅
廣億鋼鐵股份有限公司,桃園市觀音區樹林里經建一路４０號,25.058870000000002,121.127068,金屬製品業,其他金屬加工處理業,,鋼鐵管加工、汽機車零件用
協益電子股份有限公司觀音廠,桃園市觀音區觀音工業區經建一路３０號,25.057312,121.12487800000001,電子零組件業,印刷電路板製造業,,塑膠外殼
鐙澤企業有限公司觀音廠,桃園市觀音區樹林里工業一路９號,25.06733,121.12613700000001,木竹製品製造業,製材業,,棧板
合機電線電纜股份有限公司六廠,桃園市觀音區樹林里觀音工業區經建二路２６號,25.0568848,121.12046799999999,電力設備業,電線及電纜製造業,裸銅線，鋁線，ＸＬＰＥ粒，ＰＶＣ粒,塑膠電線電纜，通信電纜，交連ＰＥ電纜，裸鋁線
中化生醫科技股份有限公司,桃園市觀音區樹林里經建三路３號１、３樓,25.0577621,121.11833200000001,化學製品業,清潔用品及化粧品製造業,,皮膚用清潔保養品
洋華光電股份有限公司三廠,桃園市觀音區觀音工業區經建一路３１號,25.056720000000002,121.12276499999999,電子零組件業,其他光電材料及元件製造業,,觸控面板
金宏星企業有限公司,桃園市觀音區樹林里經建一路４６巷２３號,25.0596218,121.12790700000001,金屬製品業,金屬表面處理業,,粉體塗裝金屬表面處理
瀚宇博德股份有限公司觀音廠,桃園市觀音區樹林里工業四路９號,25.0571671,121.11901100000001,電子零組件業,印刷電路板製造業,,印刷電路板、ＰＣＢ多層印刷電路板
亞宙鍛造股份有限公司,桃園市觀音區樹林里經建四路９號,25.0591431,121.116478,機械設備業,其他通用機械設備製造業,,汽機車零件
開元食品工業股份有限公司觀音廠,桃園市觀音區樹林里經建一路２８號,25.056551000000002,121.12319199999999,食品及飼品業,乳品製造業,,人造奶油，果汁
東農企業有限公司,桃園市觀音區樹林里工業二路６號,25.0637131,121.12880700000001,化學製品業,未分類其他化學製品製造業,橡膠助劑,橡膠製品
雅基實業股份有限公司觀音廠,桃園市觀音區樹林里經建一路３４號,25.0578117,121.12635800000001,橡膠製品業,其他橡膠製品製造業,,橡膠製品
安博全球航太科技股份有限公司,桃園市觀音區觀音工業區工業三路１號,25.0573845,121.125832,其他運輸工具零件業,未分類其他運輸工具及其零件製造業,,商用飛機引擎零件（高壓定子）
開元食品工業股份有限公司觀音二廠,桃園市觀音區樹林里經建一路３２號,25.057546600000002,121.12609099999999,食品及飼品業,乳品製造業,,其他食品、乳品、製油、製粉及碾穀、製糖、飲料
台灣氰達工業有限公司,桃園市觀音區樹林里工業一路１１、１１之１號,25.067915,121.12589299999999,化學製品業,未分類其他化學製品製造業,,工程複合材料、水處理劑
佢岳環保科技股份有限公司觀音廠,桃園市觀音區樹林里經建一路４６巷３５號,25.0595188,121.128082,化學材料業,塑膠原料製造業,,塑膠粒
順友貿易股份有限公司觀音廠,桃園市觀音區樹林里工業一路５之１號,25.065939999999998,121.128014,非金屬礦物製品業,耐火材料製造業,,耐火材料
常禾菁研科技股份有限公司,桃園市觀音區樹林里工業一路５號,25.065939999999998,121.128014,塑膠製品業,其他塑膠製品製造業,膠布,導電膠布
萬積科技股份有限公司,桃園市觀音區工業一路３號,25.065347699999997,121.128525,金屬製品業,未分類其他金屬製品製造業,,其他金屬、其他非金屬礦物製品、其他工業製品、其他未列名金屬製
昇廣環保工業有限公司,桃園市觀音區樹林里４鄰經建四路２－１５號,25.05871,121.116386,塑膠製品業,其他塑膠製品製造業,,塑膠製品
俊誠實業有限公司,桃園市觀音區樹林里經建一路４６巷３６號,25.059288000000002,121.12822,電力設備業,電燈泡及燈管製造業,,石英加熱管，石英燈，石英器具
佶鼎科技股份有限公司觀音廠,桃園市觀音區觀音工業區經建四路７之１號,25.0593719,121.115784,化學材料業,化學原材料製造業,,其他雜項基本化學材料（硫酸銅）
先豐通訊股份有限公司觀音廠,桃園市觀音區觀音工業區經建一路１６、２７號,25.05613,121.120842,電子零組件業,印刷電路板製造業,蝕刻廢液、銅箔、銅膜基板、預浸樹脂片、油墨,化學製品製造業、電子零組件製造業
鑽豐科技股份有限公司觀音廠,桃園市觀音區樹林里經建一路２７號,25.05613,121.120842,電子零組件業,印刷電路板製造業,,印刷電路板鑽孔加工、印刷電路板
三福氣體股份有限公司觀音二廠,桃園市觀音區樹林里工業一路１６－１號,25.067543,121.127068,化學材料業,化學原材料製造業,,液氧、液氮、液氬、氣氧、氣氮
瑞大鴻科技材料股份有限公司觀音二廠,桃園市觀音區樹林里工業一路１６號,25.067543,121.127068,化學材料業,化學原材料製造業,,純錫．純鉛．工業用硫酸銅
信綸工業股份有限公司觀音廠,桃園市觀音區樹林里經建四路７號,25.059124,121.115784,機械設備業,泵、壓縮機、活栓及活閥製造業,,泵浦
國合精密股份有限公司桃園廠,桃園市觀音區樹林里工業一路１號,25.064548499999997,121.129173,非金屬礦物製品業,其他陶瓷製品製造業,,精密陶瓷管
光美企業工廠股份有限公司,桃園市觀音區樹林里工業一路１２號,25.06619,121.128441,汽車及零件業,汽車零件製造業,,汽車保險桿及零件加工
立光化工股份有限公司觀音廠,桃園市觀音區樹林里經建四路５號,25.058773000000002,121.115784,化學材料業,化學原材料製造業,,磷酸、磷酸鈉、磷酸銨
佳美化學工業股份有限公司桃園廠,桃園市觀音區樹林里工業一路１０號,25.06508,121.129478,化學材料業,塑膠原料製造業,,酚醛樹脂、聚醯亞胺
佳勝科技股份有限公司觀音廠,桃園市觀音區樹林里工業一路１０之１號,25.06553,121.12948600000001,電子零組件業,印刷電路板製造業,,無膠式軟性銅箔基板
全伊工業股份有限公司,桃園市觀音區樹林里經建四路２之２３號,25.058723399999998,121.11515,化學製品業,未分類其他化學製品製造業,環氧樹脂、水泥、水性樹脂、乳膠,自平泥、防水材、樹脂砂漿、環氧樹脂
力常鋼鐵股份有限公司觀音廠,桃園市觀音區草漯里榮工北路１５號,25.057394,121.12796000000002,基本金屬業,鋼鐵軋延及擠型業,,不銹鋼：管，磨光棒，角鐵
純祥實業股份有限公司觀音廠,桃園市觀音區草漯里榮工北路１３號,25.0578671,121.12849399999999,化學製品業,塗料、染料及顏料製造業,,機能塗料、紙品上光油
大慶廢鐵五金有限公司,桃園市觀音區草漯里榮工北路１３之１號,25.0578175,121.12849399999999,金屬製品業,其他金屬加工處理業,,金屬加工處理
東陽實業廠股份有限公司觀音廠,桃園市觀音區草漯里榮工北路１７號,25.056766500000002,121.1274,汽車及零件業,汽車零件製造業,,汽（機）車零件
日譽興業股份有限公司觀音廠,桃園市觀音區樹林里經建四路１號１樓、２樓,25.058494600000003,121.115021,紡織業,染整業,,色紗
日維興業股份有限公司成衣廠,桃園市觀音區樹林里經建四路１號２樓,25.058494600000003,121.115021,成衣及服飾品業,成衣製造業,,梭織女外衣
台普工業股份有限公司,桃園市觀音區草漯里榮工北路９號,25.058418300000003,121.129051,橡膠製品業,工業用橡膠製品製造業,,傳動橡膠帶、油封、其他工業橡膠
集盛實業股份有限公司觀音廠,桃園市觀音區觀音工業區成功路一段５２２號,25.055044199999998,121.12343600000001,紡織業,人造纖維加工絲業,,尼龍加工、特多龍加工、尼龍粒
阿托科技股份有限公司觀音廠,桃園市觀音區樹林里１４鄰經建二路１１號,25.056139,121.11741599999999,化學製品業,未分類其他化學製品製造業,,其他化學製藥
中國炭素工業股份有限公司,桃園市觀音區樹林里１５鄰經建四路２號,25.0579548,121.11515,化學製品業,未分類其他化學製品製造業,活性炭,活性炭
祐鼎化工股份有限公司,桃園市觀音區樹林里經建四路２之２５及２之２６號,25.0579548,121.11515,塑膠製品業,其他塑膠製品製造業,,ＰＥＴ遮光膠帶（黑白膜／黑黑膜），ＰＥＴ雙面膠帶，ＰＥＴ保護膜
佳值化學股份有限公司觀音廠,桃園市觀音區樹林里經建四路２之３２號,25.0579548,121.11515,化學製品業,未分類其他化學製品製造業,合成橡膠，石油樹脂，有機溶劑,合成樹脂，接著劑
祐鼎化工股份有限公司二廠,桃園市觀音區樹林里經建四路２之２５號２樓及２樓夾層,25.0579548,121.11515,化學材料業,化學原材料製造業,,其他雜項基本化學材料
台光電子材料股份有限公司二廠,桃園市觀音區樹林里經建二路３號,25.0562687,121.11696599999999,電子零組件業,印刷電路板製造業,,銅箔基板、粘合片
東邦塗料工業股份有限公司觀音二廠,桃園市觀音區觀音工業區經建二路９號,25.0561085,121.11721000000001,化學製品業,塗料、染料及顏料製造業,,塗料、染料及顏料、溶劑型塗料
中德開發科技股份有限公司,桃園市觀音區樹林里成功路一段５２０號及５２０－５號１樓,25.0551853,121.125244,塑膠製品業,其他塑膠製品製造業,,其他強化塑膠製品
草漯農產品行,桃園市觀音區草漯里草漯２４９之２２、２４９之２３號,25.06,121.137672,食品及飼品業,蔬果加工及保藏業,,醃漬蔬菜
武雄實業股份有限公司觀音廠,桃園市觀音區草漯里１８鄰草漯２９５號,25.0612621,121.133896,非金屬礦物製品業,預拌混凝土製造業,,預拌混凝土
欣道實業股份有限公司觀音廠,桃園市觀音區草漯里１８鄰草漯２９５號,25.0612621,121.133896,非金屬礦物製品業,未分類其他非金屬礦物製品製造業,,瀝青混凝土、砂石
富農化學工業股份有限公司二廠,桃園市觀音區保障里９鄰草漯５１－１０號,25.0652752,121.13863400000001,化學製品業,農藥及環境用藥製造業,,春春春、農藥
富農化學工業股份有限公司觀音廠,桃園市觀音區保障里９鄰草漯５１－１０號,25.0652752,121.13863400000001,化學製品業,農藥及環境用藥製造業,,春春春、農藥
貢獅實業股份有限公司,桃園市觀音區草漯里１８鄰忠孝路７４５號,25.063777899999998,121.133629,化學材料業,化學原材料製造業,,乙炔
源順塑膠工業股份有限公司,桃園市觀音區草漯里忠孝路５４６號,25.058757800000002,121.136513,塑膠製品業,塑膠皮、板及管材製造業,,高密度聚乙烯管、可撓管
長如工程有限公司,桃園市觀音區保障里９鄰草漯７３之３號,25.0569859,121.13813799999998,金屬製品業,金屬結構製造業,,不鏽鋼架、鋼架浪板、鋼構
一協榮股份有限公司觀音廠,桃園市觀音區草漯里１３鄰成功路一段４０８號,25.0558,121.13575700000001,金屬製品業,金屬彈簧及線製品製造業,,不銹鋼線、不銹鋼網
錦美紙業股份有限公司觀音廠,桃園市觀音區草漯里榮工北路１０、１２號,25.058668100000002,121.1301,紙漿、紙及紙製品業,紙板製造業,,灰紙板．牛皮紙
德彥造紙股份有限公司觀音廠,桃園市觀音區草漯里榮工北路１２號１、２、３、４樓,25.058668100000002,121.1301,紙漿、紙及紙製品業,未分類其他紙製品製造業,,紙、紙容器、其他紙製品
加騏股份有限公司,桃園市觀音區樹林里經建一路４６巷５０號,25.05865,121.130074,金屬製品業,金屬表面處理業,,汽、機車零件、五金烤漆、電著
和星纖維工業股份有限公司觀音廠,桃園市觀音區草漯里榮工北路６號,25.0577164,121.130325,紡織業,染整業,,纖維品，針織品之染整加工
久冠企業有限公司觀音廠,桃園市觀音區草漯里榮工北路４號,25.0574,121.13033300000001,化學材料業,化學原材料製造業,硫酸鋁氫氧化鋁,硫酸鋁、氯化鋁
合峰有限公司觀音廠,桃園市觀音區保障里保障二路３５９巷１６號１樓,25.060213100000002,121.15425900000001,機械設備業,其他金屬加工用機械設備製造業,,車廂骨架
翰元工業股份有限公司觀音廠,桃園市觀音區保障里保障二路３５９巷１６號３樓,25.060213100000002,121.15425900000001,機械設備業,其他通用機械設備製造業,,輕消器骨架．車廂骨架
元盛玻璃纖維有限公司觀音廠,桃園市觀音區保障里保障一路１６０號,25.0672016,121.1534,塑膠製品業,其他塑膠製品製造業,,玻璃及玻璃製品、其他玻璃製品
金豐企業社,桃園市觀音區保障里保障三路２９８巷８號１樓,25.067792899999997,121.15096299999999,非金屬礦物製品業,未分類其他非金屬礦物製品製造業,,粗鑄砂、細鑄砂
東和鋼鐵企業股份有限公司桃園廠,桃園市觀音區保障里８鄰草漯１１６號,25.059551199999998,121.145149,基本金屬業,鋼鐵軋延及擠型業,,鋼筋
伍冠興業有限公司,桃園市觀音區保障里１２鄰保障二路６４５號,25.056055100000002,121.150085,基本金屬業,鋼鐵軋延及擠型業,,建築鋼構組立
技映企業有限公司,桃園市大園區南港里２鄰潮音一路３１９巷８０號,25.0627785,121.164322,機械設備業,輸送機械設備製造業,,通用機械設備、機械設備
惠家香實業有限公司,桃園市大園區南港里大觀路１０８３號,25.0575638,121.1656,食品及飼品業,動植物油脂製造業,,花生油，芝麻油，茶油，辣椒油
大同股份有限公司桃園壹廠,桃園市大園區南港里１４鄰大觀路１１１９巷３８號,25.055151000000002,121.164406,電力設備業,家用空調器具製造業,,冷氣機（箱型冷氣、窗型冷氣、分離式冷氣、除濕機）
良亞化學企業有限公司,桃園市大園區南港里大觀路１２２９巷１弄２１號,25.055952100000003,121.16204099999999,化學材料業,塑膠原料製造業,,環氧樹脂
台灣瑞曼迪斯股份有限公司,桃園市大園區南港里環區西路２６６巷１６號,25.054731399999998,121.16613000000001,塑膠製品業,塑膠外殼及配件製造業,,塑膠回收處理、其他工業用塑膠製品廢棄物貯存清除及有害污泥處理
約泰實業股份有限公司大園廠,桃園市大園區南港里環區西路２６６巷２６號,25.0547,121.16609199999999,化學製品業,未分類其他化學製品製造業,,脫灰劑（ＬＰ）脫脂劑（ＳＴＡＮＤＯＸＳ）酵解劑（ＲＯ）加脂劑
富豐國際食品股份有限公司大園廠,桃園市大園區北港里大觀路５５０號,25.064188,121.17993200000001,食品及飼品業,肉類其他加工及保藏業,,火腿
川武食品股份有限公司,桃園市大園區北港里大觀路５４８號,25.064508399999998,121.18079399999999,食品及飼品業,蔬果加工及保藏業,,豆腐、豆（漿）奶
聖元精密塗佈股份有限公司大園廠,桃園市大園區南港里長發路２１８號,25.0605316,121.1808,塑膠製品業,其他塑膠製品製造業,珠光膜,合成紙
集盛實業股份有限公司大園廠,桃園市大園區北港里大工路１７號,25.065256100000003,121.181023,化學材料業,塑膠原料製造業,,尼龍粒、尼龍原絲
飛力食品企業股份有限公司,桃園市大園區南港里許厝港２９之９號,25.0599861,121.181969,食品及飼品業,肉類其他加工及保藏業,,肉品、香腸
大興吉國際企業有限公司,桃園市大園區北港里１７鄰自立一街４０號,25.06557,121.18118999999999,食品及飼品業,未分類其他食品製造業,,湯圓
新東陽股份有限公司大園廠,桃園市大園區北港里大工路１１號,25.06556,121.18031299999998,食品及飼品業,肉類其他加工及保藏業,,牛肉乾、豬內鬆、臘腸、臘肉、中西式火腿
全億金屬工業股份有限公司,桃園市大園區南港里許厝港２９之１２號,25.059675199999997,121.180527,電腦電子及光學品業,視聽電子產品製造業,,揚聲器之零件
三商行股份有限公司大園廠,桃園市大園區北港里工一路９號,25.065094000000002,121.178009,食品及飼品業,膳食及菜餚製造業,,冷凍牛肉調理包、生麵條、肉品分切
裕豐釀業股份有限公司南崁廠,桃園市大園區田心里大觀路５２２號,25.0656013,121.183517,飲料業,其他酒精飲料製造業,,高粱酒、梅子酒
長宇紙器有限公司,桃園市大園區田心里大觀路５２０號１樓,25.0656128,121.18356299999999,紙漿、紙及紙製品業,瓦楞紙板及紙容器製造業,,瓦楞紙箱（板）
長聲工業股份有限公司,桃園市大園區圳頭里５鄰圳股頭２７－２號,25.0661983,121.18325,機械設備業,未分類其他專用機械設備製造業,,瓦楞紙印刷機臺、印刷機臺週邊組裝零組件
怡和興有限公司,桃園市大園區大觀路３４１號１樓,25.0654984,121.18425,汽車及零件業,汽車零件製造業,,二手中古汽車零件
永興食品廠,桃園市大園區北港里潮音二路１９６巷３５號,25.065115,121.184647,食品及飼品業,麵條及粉條類食品製造業,,麵條、麵線
欣偉科技股份有限公司二廠,桃園市大園區北港里工一路１３號,25.0658321,121.177925,基本金屬業,未分類其他基本金屬製造業,,黃金、貴金屬加工
鼎逸國際貿易有限公司,桃園市大園區田心里大觀路５００巷５０號,25.0661983,121.184044,塑膠製品業,塑膠膜袋製造業,,１．生鮮用塑膠袋２．製袋機設備及零件
瑞輝食品股份有限公司大園廠,桃園市大園區北港里大工路１３號,25.06699,121.17968,食品及飼品業,肉類其他加工及保藏業,,火腿（中式，西式），各式香腸（中式，西式）
美科科技股份有限公司,桃園市大園區北港里工三路４號,25.066945999999998,121.17910800000001,石油及煤製品業,石油及煤製品製造業,,液壓油、注塞油、切削油、防鏽油、放電加工油
欣偉科技股份有限公司三廠,桃園市大園區北港里工三路７號,25.066945999999998,121.17910800000001,基本金屬業,未分類其他基本金屬製造業,,黃金、貴金屬加工
品鋐企業股份有限公司,桃園市大園區田心里４鄰崁腳６之１號,25.065101600000002,121.185425,金屬製品業,金屬表面處理業,,ＥＤＰ電著塗裝加工
瑞軒金屬企業有限公司,桃園市大園區北港里工一路１５號,25.066415799999998,121.177681,金屬製品業,未分類其他金屬製品製造業,,其他未列名金屬製品
貞媞亞國際有限公司大園廠,桃園市大園區田心里３鄰國際路一段７號１樓,25.066167800000002,121.184753,化學製品業,清潔用品及化粧品製造業,,其他清潔製品、髮用化妝保養品
安心食品企業社,桃園市大園區田心里國際路一段７號２樓,25.066167800000002,121.184753,食品及飼品業,肉類其他加工及保藏業,,肉鬆．肉乾製造
昌輝紙業有限公司大園二廠,桃園市大園區田心里國際路一段１３號２樓,25.066257500000003,121.18496699999999,紙漿、紙及紙製品業,瓦楞紙板及紙容器製造業,,紙盒
中鼎化工股份有限公司大園二廠,桃園市大園區南港里１１鄰長發一路１５７號,25.05763,121.181969,化學製品業,未分類其他化學製品製造業,,石化及煉油製程添加劑、鍋爐水、冷卻水、處理劑、其他化學製藥
中鼎化工股份有限公司大園廠,桃園市大園區南港里１１鄰長發一路１７９號,25.05763,121.181969,化學製品業,未分類其他化學製品製造業,,化學銅ＥＣ－２５１Ａ、化學銅ＥＣ－２５１Ｂ、化學銅ＥＣ－２５
晉倫科技股份有限公司二廠,桃園市大園區南港里１１鄰長發路２０１號,25.05763,121.181969,化學材料業,塑膠原料製造業,ＮＹ６６粒、ＮＹ６粒、聚丙烯粒、玻纖,ＮＹ、ＰＰ、ＡＢＳ、ＰＣ／ＡＢＳ塑膠複合材料
晉倫科技股份有限公司,桃園市大園區南港里１１鄰長發路２４８號,25.05763,121.181969,化學材料業,塑膠原料製造業,ＮＹ６６粒、ＮＹ６粒、聚炳烯粒、玻纖,ＮＹ、ＰＰ、ＡＢＳ、ＰＣ／ＡＢＳ塑膠粒
晉倫科技股份有限公司一廠,桃園市大園區南港里１１鄰長發路２５０號,25.05763,121.181969,化學材料業,塑膠原料製造業,ＮＹ６６粒、ＮＹ６粒、聚丙烯粒、玻纖,ＮＹ、ＰＰ、ＡＢＳ、ＰＣ／ＡＢＳ塑膠粒
瑞斌企業有限公司,桃園市大園區南港里１１鄰長發路２９９號,25.05763,121.181969,電子零組件業,印刷電路板製造業,,ＰＣＢ電腦鉆孔
懿宏精密工業股份有限公司大園廠,桃園市大園區南港里１１鄰長發路３１８號,25.05763,121.181969,金屬製品業,未分類其他金屬製品製造業,,汽車零件，機械五金，電子零件，各種特殊螺
寶利徠光學科技股份有限公司大園廠,桃園市大園區南港里１１鄰長發路３２５、３２７號１樓,25.05763,121.181969,其他製造業,眼鏡製造業,,鏡片
依視路寶利徠光學股份有限公司,桃園市大園區南港里１１鄰長發路３２７號２樓,25.05763,121.181969,其他製造業,眼鏡製造業,,鏡片
寶利徠光學科技股份有限公司三廠,桃園市大園區南港里１１鄰長發路４０６號,25.05763,121.181969,其他製造業,眼鏡製造業,,鏡片
盛航橡膠企業有限公司,桃園市大園區南港里許厝港２９之１６號,25.05763,121.181969,橡膠製品業,工業用橡膠製品製造業,,橡膠製品
盛嘉橡膠工業有限公司,桃園市大園區南港里長發一路１６１號,25.05763,121.181969,橡膠製品業,工業用橡膠製品製造業,,橡膠製品、防震橡膠、防塵套、防塵圈
曲記食品有限公司桃園廠,桃園市大園區南港里長發一路１７７號,25.05763,121.181969,食品及飼品業,烘焙炊蒸食品製造業,,豆沙、糕餅
千附實業股份有限公司桃園廠,桃園市大園區南港里長發一路２００號,25.05763,121.181969,金屬製品業,未分類其他金屬製品製造業,,其他金屬製品、鋼鐵
鼎興實業有限公司,桃園市大園區南港里長發一路２３１號,25.05763,121.181969,塑膠製品業,其他塑膠製品製造業,,塑膠製品
騰煒科技股份有限公司大園廠,桃園市大園區南港里長發一路２３７號,25.05763,121.181969,金屬製品業,金屬表面處理業,,基本金屬表面處理
千建工業有限公司,桃園市大園區南港里長發一路２４０號,25.05763,121.181969,金屬製品業,未分類其他金屬製品製造業,,玻璃帷幕牆，不銹鋼特製燈貝、採光罩、旋轉門、電梯包板等工程
昭記實業股份有限公司,桃園市大園區南港里長發路２３３號,25.05763,121.181969,塑膠製品業,其他塑膠製品製造業,,塑膠餐具
協錩工業股份有限公司,桃園市大園區南港里長發路２３８之１號,25.05763,121.181969,金屬製品業,其他金屬加工處理業,,不銹鋼盤元加工
昇錩實業股份有限公司,桃園市大園區南港里長發路２３８號,25.05763,121.181969,金屬製品業,螺絲、螺帽及鉚釘製造業,,鋼鐵螺絲、螺帽、不銹鋼網
良鑫紙器股份有限公司大園廠,桃園市大園區南港里長發路２４６號,25.05763,121.181969,紙漿、紙及紙製品業,瓦楞紙板及紙容器製造業,,各種紙器
皇麟實業有限公司,桃園市大園區南港里長發路３１２、３１０號及長發路３１６號１樓,25.05763,121.181969,汽車及零件業,汽車零件製造業,,機械零件、汽車零件
益綸工業股份有限公司,桃園市大園區南港里長發路３１６號２樓、３樓,25.05763,121.181969,汽車及零件業,汽車零件製造業,石棉板、不銹鋼板、鐵皮板,修理包、墊片
東易興業股份有限公司,桃園市大園區南港里長發路３７６號,25.05763,121.181969,汽車及零件業,汽車零件製造業,,汽車雨刷
臻興實業有限公司一廠,桃園市大園區南港路長發一路１７５號,25.05763,121.181969,塑膠製品業,其他塑膠製品製造業,,塑膠電子零件、汽車零件、製造加工買賣
千附實業股份有限公司大園廠,桃園市大園區南港里長發一路２４５號,25.05763,121.181969,金屬製品業,未分類其他金屬製品製造業,,其他金屬製品、鋼鐵
元碩合成化學工業股份有限公司大園廠,桃園市大園區南港里長發一路２５１號,25.05763,121.181969,化學製品業,塗料、染料及顏料製造業,,螢光增白劑
平宏企業社,桃園市大園區南港里許厝港２９之２０號１樓,25.057389999999998,121.18085500000001,金屬製品業,金屬模具製造業,,金屬製品製造業、機械設備製造業
皇星金屬工業有限公司,桃園市大園區田心里大觀路４２８號,25.065910000000002,121.18573799999999,金屬製品業,未分類其他金屬製品製造業,,五金配件
富榮食品廠有限公司桃園廠,桃園市大園區南港里許厝港２９之２５號,25.057344399999998,121.181969,食品及飼品業,肉類其他加工及保藏業,鮭魚、牛肉、豬肉,火腿、鮭魚
穩泰汽車材料行,桃園市大園區田心里國際路一段２０號,25.0661163,121.18562299999999,汽車及零件業,汽車零件製造業,,汽車零件
景碩實業有限公司,桃園市大園區田心里國際路一段２６號,25.0662117,121.185814,塑膠製品業,其他塑膠製品製造業,,１、防窺片代工裁切２、產品代工包裝
立大消防設備工程有限公司,桃園市大園區南港里長發一路２４２號,25.0568962,121.18078600000001,機械設備業,其他通用機械設備製造業,,消防設備
展煜工業有限公司,桃園市大園區田心里大觀路２８７號,25.0655479,121.18656200000001,其他運輸工具零件業,機車零件製造業,,汽機車零件及家用零件
耀盛鋼鐵有限公司,桃園市大園區田心里國際路一段３２號,25.0663033,121.186,金屬製品業,其他金屬加工處理業,,不銹鋼板加工
舜晟工業股份有限公司,桃園市大園區田心里大觀路２８５號,25.0655365,121.1868,其他運輸工具零件業,機車零件製造業,,汽機車零件，鍋具零件
騰煒科技股份有限公司二廠,桃園市大園區南港里長發一路３１０號,25.0564022,121.18170900000001,金屬製品業,金屬表面處理業,,金屬表面處理
兆喬有限公司,桃園市大園區南港里大觀路５５８巷７２號,25.067585,121.17671200000001,機械維修及安裝業,產業用機械設備維修及安裝業,鋼板、風機、鍍鋅平鐵法蘭、風管材料,集塵系統裝修
牡丹食品有限公司,桃園市大園區田心里大觀路３８４之１號,25.0660839,121.186966,食品及飼品業,未分類其他食品製造業,,蛋餅皮
洺聖科技有限公司,桃園市大園區田心里３鄰大觀路３６２之１號,25.065761600000002,121.187469,化學材料業,化學原材料製造業,,基本化學材料
永鉅股份有限公司,桃園市大園區田心里大觀路３６２之２號,25.065761600000002,121.187469,金屬製品業,金屬表面處理業,,不鏽鋼板加工、真空吸盤
通泰工業社,桃園市大園區田心里大觀路３５６號,25.0657635,121.1876,塑膠製品業,塑膠外殼及配件製造業,,模具，塑膠製品
惠康百貨股份有限公司大園生鮮廠,桃園市大園區田心里４鄰崁腳４之１號,25.0654678,121.18782,食品及飼品業,蔬果加工及保藏業,,肉類處理及其製品，水產處理及其製品
一慶食品廠,桃園市大園區田心里大觀路３５２號,25.0657539,121.18771399999999,食品及飼品業,麵條及粉條類食品製造業,,麵條
漢昇精密工業股份有限公司,桃園市大園區田心里大觀路３６４號,25.066263199999998,121.187469,電子零組件業,未分類其他電子零組件製造業,,手握式滅蚊器
台信興業社,桃園市大園區田心里大觀路２５７號１樓,25.0653954,121.18818700000001,機械設備業,紡織、成衣及皮革生產用機械設備製造業,,染整機械
嵩大企業有限公司,桃園市大園區田心里大觀路２７４巷７號,25.066101100000004,121.187904,化學製品業,未分類其他化學製品製造業,,其他化學製藥
瑞美食品股份有限公司,桃園市大園區田心里大觀路２５５號,25.065282800000002,121.188354,食品及飼品業,肉類其他加工及保藏業,,火腿、香腸、燻肉、燻魚
御復珍食品有限公司大園廠,桃園市大園區田心里３鄰大觀路３３６號１樓,25.0657253,121.18821000000001,食品及飼品業,未分類其他食品製造業,,其他食品
科進技研股份有限公司,桃園市大園區田心里大觀路３２０號,25.065673800000003,121.188644,金屬製品業,金屬模具製造業,,模具、機器零配件
梓佑紡織品整理廠,桃園市大園區田心里大觀路３１６號,25.065620000000003,121.18881999999999,紡織業,染整業,,布疋考克加工
家霖機械工業有限公司,桃園市大園區田心里大觀路２３５號,25.0654182,121.18898,金屬製品業,未分類其他金屬製品製造業,,金屬製品製造
鴻淇工程實業有限公司,桃園市大園區田心里大觀路３１０號１樓,25.0656013,121.188957,機械設備業,其他通用機械設備製造業,,通用機械加工
上美商標工業股份有限公司,桃園市大園區田心里大觀路２３３號,25.065361,121.189163,紡織業,其他紡織品製造業,,其他紡織
詠德電線電纜股份有限公司,桃園市大園區田心里大觀路１４２號,25.065374399999996,121.192879,電腦電子及光學品業,其他通訊傳播設備製造業,,通訊網路連接線
光祥電機行,桃園市大園區田心里大觀路１４６號１樓,25.065382,121.19278700000001,電力設備業,其他電力設備及配備製造業,,馬達修理
義峰機電工業股份有限公司,桃園市大園區田心里新興路２６６號,25.05816,121.196228,機械設備業,其他通用機械設備製造業,,機械加工
新銘鋼鐵有限公司大園廠,桃園市大園區田心里大觀路１７８號,25.065898899999997,121.19218400000001,金屬製品業,其他金屬加工處理業,,鋼條、鋼片（鋼板）、鋼鐵
建錩實業股份有限公司大園廠,桃園市大園區田心里１鄰大觀路１７８號,25.065898899999997,121.19218400000001,基本金屬業,鋼鐵軋延及擠型業,不銹鋼捲,不銹鋼板、不銹鋼捲
飛鵬豆腐店,桃園市大園區大園里中華路８１號,25.067186399999997,121.19883,食品及飼品業,蔬果加工及保藏業,,豆腐、豆漿
豪竑工業股份有限公司,桃園市大園區田心里大觀路２０７巷２７號１樓,25.064863199999998,121.190018,汽車及零件業,車體製造業,汽車零件,汽車及其零件
新永吉碾米廠,桃園市大園區田心里大觀路１０１號,25.0569839,121.194092,食品及飼品業,碾榖業,,糙米、白米
大園鋼鐵事業有限公司,桃園市大園區田心里大觀路２６６號１樓,25.0655918,121.18982700000001,金屬製品業,其他金屬加工處理業,,通用機械設備、鋼板裁剪
聖智榮工程有限公司,桃園市大園區田心里國際路一段２０１號,25.068388,121.19043,金屬製品業,金屬建築組件製造業,,美耐板、防火玻璃、鋼板等
嘉勇工業有限公司,桃園市大園區田心里國際路一段１９９號,25.068372699999998,121.190353,汽車及零件業,汽車零件製造業,,汽車零件
全雙工程有限公司,桃園市大園區田心里國際路一段１９３號,25.0682526,121.190132,金屬製品業,金屬建築組件製造業,,組合房屋．安全圍籬．土木工程．建築工程
嵐山咖啡有限公司桃園廠,桃園市大園區田心里國際路一段１９１之１號,25.0682526,121.190041,食品及飼品業,未分類其他食品製造業,,未烘培生鮮咖啡豆經烘培後的各式咖啡豆
大園電子股份有限公司二廠,桃園市大園區田心里國際路一段１８３號,25.068179999999998,121.18981200000002,電子零組件業,未分類其他電子零組件製造業,,電子零件
鑫鮮美食館,桃園市大園區田心里國際路一段１７７號,25.06811,121.18968999999998,食品及飼品業,膳食及菜餚製造業,,團膳
上揚食品有限公司大園廠,桃園市大園區田心里國際路一段１７５號,25.0680885,121.189651,食品及飼品業,肉類其他加工及保藏業,,肉類加工
冠霖物流有限公司大園廠,桃園市大園區田心里國際路一段１７３號,25.068079,121.189621,食品及飼品業,蔬果加工及保藏業,,蔬果處理及其製品
制承有限公司,桃園市大園區田心里２鄰國際路一段１００號,25.0674362,121.18897199999999,金屬製品業,未分類其他金屬製品製造業,,模具、機械、治具零件加工
上新鮮雞食品有限公司,桃園市大園區田心里國際路一段１７１號,25.06806,121.189552,食品及飼品業,肉類其他加工及保藏業,,禽肉批發
黑雞餐盒食品廠,桃園市大園區田心里國際路一段１６３、１６５號,25.068056100000003,121.189415,食品及飼品業,未分類其他食品製造業,,即食餐食
柏墉企業有限公司大園廠,桃園市大園區田心里國際路一段１６１號,25.0679359,121.189217,機械設備業,流體傳動設備製造業,,空壓管零件
亞典機械工業股份有限公司,桃園市大園區後厝里３鄰後厝８之７號１至２樓,25.068651199999998,121.1899,機械設備業,未分類其他專用機械設備製造業,,機械用的零件、各種滾輪
瑩鈺企業有限公司,桃園市大園區田心里國際路一段１４３號２樓,25.067932100000004,121.18905600000001,機械設備業,其他通用機械設備製造業,,其他通用機械加工
柏隆鋼鐵股份有限公司平安廠,桃園市大園區橫峰里平安路１０號,25.0602779,121.209351,金屬製品業,其他金屬加工處理業,,銅管、鋼管鐵板等加工
台灣科祿格通風設備股份有限公司,桃園市大園區橫峰里２鄰平安路１５７號,25.06345,121.207054,機械設備業,其他通用機械設備製造業,,冷凍空調通風設備（送風機）、送風機零件
正光隆企業社,桃園市大園區橫峰里平安路２５０號,25.0658321,121.20631399999999,機械設備業,其他通用機械設備製造業,,通用機械及其零組件
連發光電科技有限公司,桃園市大園區埔心里中正東路４４４巷２１號,25.0578289,121.21221899999999,電力設備業,照明器具製造業,鋁基板、ＸＴＥＡＷＴ、ＬＥＤＩＮＴＡ,ＬＥＤＬＩＧＨＴＩＮＧ
保證責任台灣省北台肉雞運銷合作社,桃園市大園區三石里三塊石４５之５１號,25.0668354,121.206535,食品及飼品業,屠宰業,,罐頭、冷凍、脫水及醃漬食品、冷藏雞肉、冷凍雞肉
辰頤電子有限公司,桃園市大園區橫峰里中山南路一段７８巷４７弄１８號,25.0564518,121.20877800000001,電子零組件業,未分類其他電子零組件製造業,,其他電子零組件
大成長城企業股份有限公司大園廠,桃園市大園區三石里三塊石４５之５０號,25.067195899999998,121.225311,食品及飼品業,屠宰業,,罐頭、冷凍、脫水及醃漬食品、冷藏雞肉、冷凍雞肉及雞肉醃漬品
長榮航太科技股份有限公司桃園二廠,桃園市大園區埔心里航站北路６００巷８號,25.0674915,121.222839,機械維修及安裝業,產業用機械設備維修及安裝業,鐵材、鋼板,飛機修護，飛機有關零配件裝配及維修
長榮航太科技股份有限公司桃園廠,桃園市大園區埔心里航站南路６號,25.067852,121.22383899999998,機械維修及安裝業,產業用機械設備維修及安裝業,鐵材、鋼板,飛機修護，飛機有關零配件裝配及維修
燁晉實業有限公司,桃園市大園區大海里９鄰大牛稠２８－１７號１．２樓,25.0558624,121.22773000000001,紡織業,其他紡織品製造業,,聚酯纖維帶
銳宸企業有限公司,桃園市大園區大海里大牛稠３３之１２號,25.055425600000003,121.224625,機械設備業,化工機械設備製造業,,加壓脫泡機
龍安風管工程有限公司,桃園市大園區埔心里１５鄰海豐坡４之３號,25.05526,121.223526,金屬製品業,未分類其他金屬製品製造業,,風管、冷氣空調安裝
喜登科技有限公司,桃園市大園區大海里大牛稠３３之１０號,25.0550537,121.224625,機械設備業,未分類其他專用機械設備製造業,,其他專用機械設備
東郅企業股份有限公司大園廠,桃園市大園區大海里大牛稠３３之１０號,25.0550537,121.224625,金屬製品業,其他金屬容器製造業,,鐵箱
捷寶實業有限公司大園廠,桃園市大園區大海里１鄰大牛稠１２－６號,25.064664800000003,121.23951000000001,電子零組件業,未分類其他電子零組件製造業,電子另件、銅粒,電子零組件
泰成機械股份有限公司,桃園市大園區大海里８鄰大牛稠２１之４９號,25.0584736,121.23376499999999,金屬製品業,金屬結構製造業,,金屬建築結構
偉凱實業股份有限公司,桃園市蘆竹區蘆竹里２９２之２號及長興里長興路四段３３２號,25.0635738,121.25399999999999,其他製造業,拉鍊及鈕扣製造業,,尼龍拉鏈，拉鏈布帶，帆布，拉頭
祺煜機電工程有限公司,桃園市蘆竹區蘆竹里７鄰八股路１２７號,25.060213100000002,121.261131,機械設備業,未分類其他專用機械設備製造業,,壓力容器
金易有限公司二廠,桃園市蘆竹區蘆竹里八股路３００號,25.056425100000002,121.255821,紡織業,棉毛梭織布業,ＰＰ袋、白紙、膠帶,各種尼龍布、針織布、特多龍之加工製造包裝之業務
順凱實業股份有限公司,桃園市蘆竹區蘆竹里八股路１２５號,25.06035,121.26132199999999,紡織業,染整業,,針織布（染色整理）
環越精工機械股份有限公司蘆竹廠,桃園市蘆竹區長興里南崁路二段４０２巷２弄１１號,25.062545800000002,121.26926399999999,機械設備業,污染防治設備製造業,,空氣污染防治及偵測檢驗
思柏國際有限公司,桃園市蘆竹區長興里南崁路二段４０２巷２弄１２號,25.0623226,121.269279,金屬製品業,金屬表面處理業,,金屬表面處理劑、其他化學製藥
物移整合機械股份有限公司,桃園市蘆竹區長興里南崁路二段４０２巷２弄７號,25.0624466,121.269058,機械設備業,電子及半導體生產用機械設備製造業,,中心定位機、斜立式放板機、斜立式收板機、輸送機
尊貴針織有限公司蘆竹廠,桃園市蘆竹區長興里南崁路二段４０２巷２弄８、１０號,25.062198600000002,121.269051,紡織業,針織布業,,織布、針織布
富源精鑽實業社,桃園市蘆竹區長興里南崁路二段４０２巷２弄１號,25.0623,121.26876100000001,金屬製品業,金屬模具製造業,,模具加工
永賀股份有限公司南崁廠,桃園市蘆竹區長興里南崁路二段３５２－３號,25.06246,121.270477,機械設備業,泵、壓縮機、活栓及活閥製造業,五金,水龍頭
晉洋工業股份有限公司,桃園市蘆竹區長興里３鄰南崁路二段４０２巷６號、８號,25.0622368,121.26851699999999,金屬製品業,未分類其他金屬製品製造業,,家用冷氣壓縮機零組件（消音器、上蓋）、汽車冷媒儲液器零組件
品賀實業有限公司,桃園市蘆竹區長興里南崁路二段４０２巷２６弄８號,25.0636082,121.26918799999999,汽車及零件業,車體製造業,不鏽鋼管,車體（消防車車體）汽車零件（汽車動力系統零件）
亞橋企業股份有限公司二廠,桃園市蘆竹區長興里南崁路二段４０２巷２２號,25.0634689,121.26880600000001,金屬製品業,未分類其他金屬製品製造業,鋅合金,鋅合金零件壓鑄、五金零件、模具、各種機械設備及其零配件
文勛科技企業有限公司二廠,桃園市蘆竹區長興里南崁路二段４００號１樓,25.061941100000002,121.2686,機械設備業,其他通用機械設備製造業,,鋼板維修、載盤維修、冷軋中厚鋼板加工、金屬加工處理、各種機械設備及其零件
亞橋企業股份有限公司一廠,桃園市蘆竹區長興里南崁路二段４０２巷２４號,25.0635872,121.26880600000001,金屬製品業,未分類其他金屬製品製造業,,鋅鋁合金零件壓鑄、五金零件、模具、各種機械設備及零配件
光榮汽車電機廠,桃園市蘆竹區長興里南崁路二段３７６號１樓,25.061529999999998,121.269524,汽車及零件業,汽車零件製造業,,汽車及其零件
欣登企業有限公司,桃園市蘆竹區長興里南崁路二段４０２巷２６弄２號,25.0637512,121.26907299999999,機械設備業,未分類其他專用機械設備製造業,,模具修理、拉鍊
達成製模有限公司,桃園市蘆竹區蘆竹里南崁路二段４３６號,25.06222,121.26804399999999,金屬製品業,金屬模具製造業,,模具
亨新電子工業有限公司二廠,桃園市蘆竹區長興里３鄰溪洲４５之４號１樓,25.0639343,121.270081,金屬製品業,金屬模具製造業,,單面印刷電路板
勁沅科技股份有限公司,桃園市蘆竹區長興里南崁路二段４０２巷６７號,25.0638733,121.26866899999999,機械設備業,其他通用機械設備製造業,,ＰＣＢ測試治具、導電橡膠、測試機用配線、轉換器、其他電子零件
新百富展示架有限公司,桃園市蘆竹區長興里長興路四段２９３巷１０號１樓,25.0638924,121.268524,金屬製品業,未分類其他金屬製品製造業,,展示架
寀呈股份有限公司南崁廠,桃園市蘆竹區長興里南崁路二段３８７號,25.0611744,121.269127,塑膠製品業,其他塑膠製品製造業,,保鮮盒、隨身杯、湯匙、一次性餐具
瑞健股份有限公司南崁三廠,桃園市蘆竹區蘆竹里３鄰南崁路二段４２１巷１號１至４樓,25.0615616,121.268295,其他製造業,其他醫療器材及用品製造業,,強化塑膠製品注射針筒、醫療氣墊床
得恩堂國際漢方美容有限公司,桃園市蘆竹區蘆竹里南崁路二段４３１號,25.0617561,121.26805900000001,化學製品業,清潔用品及化粧品製造業,,化粧品
國喬興業有限公司,桃園市蘆竹區長興里南崁路二段２２８巷２７３弄６８號,25.064258600000002,121.26984399999999,金屬製品業,未分類其他金屬製品製造業,,建材五金基本金屬批發
大慶縫衣機械股份有限公司蘆竹廠,桃園市蘆竹區長興里南崁路二段３３２之１號,25.061487200000002,121.27076000000001,機械設備業,紡織、成衣及皮革生產用機械設備製造業,,工業用縫紉機
哲辰機械股份有限公司蘆竹廠,桃園市蘆竹區南崁路二段３３２號,25.061487200000002,121.27076000000001,機械設備業,紡織、成衣及皮革生產用機械設備製造業,,工業用縫紉機
台灣丸源國際股份有限公司蘆竹廠,桃園市蘆竹區蘆竹里南崁路二段４２１巷５號,25.061294600000004,121.26844799999999,機械設備業,未分類其他專用機械設備製造業,,專用生產機械及零件
廣恆有限公司,桃園市蘆竹區蘆竹里３鄰南崁路二段４１９巷２２弄４號,25.0609837,121.26869199999999,金屬製品業,金屬表面處理業,,小五金噴砂
訊助企業股份有限公司蘆竹廠,桃園市蘆竹區長興里長興路四段２７３巷１６號,25.0644741,121.269135,電子零組件業,印刷電路板製造業,,ＰＣ板之鑽孔加工
富積電子股份有限公司,桃園市蘆竹區錦興里南崁路二段３５５號,25.060812,121.269539,電腦電子及光學品業,顯示器及終端機製造業,ＰＣＢ、ＩＣ、ＦＰＣ、ＣＯＮＮＥＣＴ,液晶顯示器、週邊產品－基板
瑞健股份有限公司南崁廠,桃園市蘆竹區蘆竹里南崁路二段４２１巷６、８、１０號,25.06115,121.26828799999998,塑膠製品業,其他塑膠製品製造業,,塑膠製品
易昌企業有限公司,桃園市蘆竹區蘆竹里南崁路二段４１９巷２２弄６號,25.0609589,121.268631,木竹製品製造業,木質容器製造業,,木質容器
三井興業有限公司,桃園市蘆竹區蘆竹里富國路三段１４１０巷１５之４號,25.0615044,121.267822,非金屬礦物製品業,耐火材料製造業,,防火吸音板、未分類之其他建材批發
翔仁有限公司,桃園市蘆竹區蘆竹里富國路三段１４１０巷１７之４號５樓,25.0613918,121.26790600000001,電力設備業,照明器具製造業,,照明設備
帛鴻有限公司,桃園市蘆竹區蘆竹里南崁路二段４１９巷２２弄８號１樓,25.0609245,121.26858500000002,電子零組件業,未分類其他電子零組件製造業,,電子測試板
每一天調理食品有限公司蘆竹廠,桃園市蘆竹區蘆竹里南崁路二段４５９號,25.0620155,121.267448,食品及飼品業,未分類其他食品製造業,蒟蒻、麵粉、高麗菜,冷凍餐盒、其他食品
鍵盈機械有限公司,桃園市蘆竹區長興里長興路四段２７３巷１２號,25.0646076,121.269066,機械設備業,其他通用機械設備製造業,,雜鋼機械零件、鋁擠型模具
晉麒塑料有限公司蘆竹廠,桃園市蘆竹區長興里南崁路二段２２８巷２７３弄３２號及３８號,25.064382600000002,121.27058400000001,化學材料業,塑膠原料製造業,,塑膠粒子
澄豐精密有限公司,桃園市蘆竹區蘆竹里南崁路二段４１９巷２２弄１２號,25.06087,121.26846299999998,金屬製品業,未分類其他金屬製品製造業,,ＰＣＢ銑刀
久泰電子有限公司蘆竹廠,桃園市蘆竹區長興里南崁路二段４０２巷１３１號５樓,25.064682,121.269722,電子零組件業,印刷電路板製造業,,電路板
鑫盈科技有限公司,桃園市蘆竹區長興里南崁路二段４０２巷１３１號地下１樓、１樓、２樓,25.064682,121.269722,電子零組件業,印刷電路板組件製造業,,ｐｃｂ
德門機電工業有限公司,桃園市蘆竹區蘆竹里南崁路二段４１９巷２２弄１４號,25.0608311,121.268372,機械設備業,輸送機械設備製造業,,輸送設備零件
唯力電業有限公司,桃園市蘆竹區蘆竹里南崁路二段４１９巷２２弄９號,25.0607338,121.26856200000002,電力設備業,其他電力設備及配備製造業,,延長線，電源線，轉接頭，燈泡等
廣牧精密有限公司,桃園市蘆竹區蘆竹里南崁路二段４１９巷２２弄１８號,25.060779999999998,121.268257,電子零組件業,印刷電路板製造業,,電路板加工
瑞銓精密工業股份有限公司,桃園市蘆竹區蘆竹里南崁路二段４１９巷２２弄１１號１樓,25.0606766,121.26846299999998,金屬製品業,金屬鍛造業,,銅殼
日謙工業股份有限公司,桃園市蘆竹區長興里南崁路二段４０２巷１４０號,25.0647259,121.270348,基本金屬業,鋼鐵鑄造業,鐵板．摩光鋼棒,鑄鐵件鑄造及加工
翔宇電子有限公司蘆竹廠,桃園市蘆竹區蘆竹里南崁路二段４１９巷２２弄１３號,25.0606689,121.2684,金屬製品業,其他金屬加工處理業,,金屬加工處理
群寶科技股份有限公司,桃園市蘆竹區長興里南崁路二段２２８巷２７３弄１９、２１號,25.064416899999998,121.271019,化學製品業,未分類其他化學製品製造業,,其他化學製藥
毅全有限公司,桃園市蘆竹區長興里南崁路二段２２８巷１１３弄２３號,25.062088,121.27191200000001,金屬製品業,其他金屬加工處理業,,鋁合金製品
東邑精密陶瓷股份有限公司,桃園市蘆竹區長興里長興路四段２７３巷１０號,25.064870000000003,121.268837,非金屬礦物製品業,未分類其他非金屬礦物製品製造業,,陶瓷材料
益浩電子股份有限公司,桃園市蘆竹區長興里長興路四段２２７巷８弄１５號,25.064970000000002,121.269356,電子零組件業,印刷電路板製造業,,ＰＣＢ乾膜加工
詮茂針織廠股份有限公司,桃園市蘆竹區長興里南崁路二段２２８巷３０６號,25.0611134,121.2714,紡織業,針織布業,,各種針織布
成豐企業社,桃園市蘆竹區蘆竹里南崁路二段４１９巷２２弄１７號１樓,25.0605965,121.26826499999999,金屬製品業,其他金屬加工處理業,,金屬結構及建築組件，金屬加工處理
利陽鋁業股份有限公司,桃園市蘆竹區蘆竹里富國路三段１４５２號１樓,25.06211,121.266975,金屬製品業,金屬建築組件製造業,,鋁門窗加工
祺霖實業有限公司,桃園市蘆竹區長興里長興路四段２８１號,25.06474,121.26821899999999,電子零組件業,未分類其他電子零組件製造業,銅球，銀,電子零件、ＰＣＢ
億元順企業社,桃園市蘆竹區錦興里長興路四段３００號１樓,25.064420000000002,121.267693,食品及飼品業,磨粉製品製造業,,粉末代工
峰合工業有限公司,桃園市蘆竹區長興里長興路四段２２７巷８弄１３號,25.0650578,121.269295,基本金屬業,鋼鐵鑄造業,,機械零件
全盈金屬工業股份有限公司,桃園市蘆竹區長興里長興路四段２２７巷８弄１４號１樓,25.0650368,121.26907299999999,金屬製品業,螺絲、螺帽及鉚釘製造業,,螺絲
勁銘企業股份有限公司,桃園市蘆竹區長興里長興路四段２２７巷８弄１４號２樓,25.0650368,121.26907299999999,金屬製品業,螺絲、螺帽及鉚釘製造業,,螺絲
富明機械股份有限公司,桃園市蘆竹區長興里南崁路二段２２８巷２７３弄２２號,25.0647163,121.270882,機械設備業,其他通用機械設備製造業,,飛輪
明真科技有限公司,桃園市蘆竹區長興里長興路四段２７９號,25.0648346,121.268272,電子零組件業,印刷電路板製造業,銀金,印刷電路板加工
瑞奇食品加工廠,桃園市蘆竹區長興里長興路四段２９８號,25.0645981,121.267776,食品及飼品業,烘焙炊蒸食品製造業,,蘿蔔糕
銓璟精密有限公司蘆竹廠,桃園市蘆竹區長興里長興路四段２９６號１樓,25.0645981,121.267776,機械設備業,其他通用機械設備製造業,,機械設備及零件
寶仕汽車股份有限公司,桃園市蘆竹區長興里長興路四段２２７巷８弄１０號,25.0652313,121.269058,汽車及零件業,汽車零件製造業,,汽車及其零件
台灣西卡股份有限公司桃園廠,桃園市蘆竹區蘆竹里富國路三段１３８０號,25.0605888,121.267746,化學製品業,未分類其他化學製品製造業,,工業助劑
加全有限公司,桃園市蘆竹區長興里南崁路二段２２８巷２７３弄１７號,25.0646782,121.2713,塑膠製品業,其他塑膠製品製造業,塑膠粒,塑膠製品
榮鳳企業社蘆竹廠,桃園市蘆竹區蘆竹里富國路三段１３９８號１樓,25.061039,121.26721200000001,金屬製品業,其他金屬加工處理業,,不銹鋼製品，其他機械金屬製造
薪達機械有限公司蘆竹廠,桃園市蘆竹區蘆竹里富國路三段１３９６號１樓,25.06099,121.26721200000001,機械設備業,其他金屬加工用機械設備製造業,,１．ＣＮＣ車床，洗床加工２．脫蠟鑄造毛胚整形，加工
信一預拌混凝土股份有限公司南崁廠,桃園市蘆竹區長興里長興路四段２９２號,25.0649567,121.267967,非金屬礦物製品業,預拌混凝土製造業,,預拌混凝土
亨新電子工業有限公司,桃園市蘆竹區長興里長興路四段２７１號,25.0652275,121.268547,電子零組件業,未分類其他電子零組件製造業,,單面印刷電路板
新世代鋁業股份有限公司,桃園市蘆竹區長興里南崁路二段３００號及３０６號,25.0606842,121.27153,金屬製品業,金屬建築組件製造業,,鋁、不銹鋼門窗
全泰電機有限公司,桃園市蘆竹區蘆竹里富國路三段１３９４之１號,25.0608234,121.26728100000001,電力設備業,發電、輸電及配電機械製造業,,配電盤
如隆有限公司,桃園市蘆竹區長興里長興路四段２２７巷８弄６號,25.065425899999997,121.269028,汽車及零件業,汽車零件製造業,,汽、機車零件
馥榮國際有限公司,桃園市蘆竹區長興里長興路四段２６７號１樓,25.0654,121.268631,化學製品業,清潔用品及化粧品製造業,,化粧品（液劑）、化妝品
良羚機械廠股份有限公司蘆竹廠,桃園市蘆竹區長興里長興路四段２２７巷２６號,25.0655,121.269943,機械設備業,其他通用機械設備製造業,,通用機械設備
志盈金屬企業股份有限公司,桃園市蘆竹區長興里長興路四段２２７巷２０號,25.065523100000004,121.26984399999999,金屬製品業,螺絲、螺帽及鉚釘製造業,,螺絲
台敭工業股份有限公司桃園廠,桃園市蘆竹區長興里３鄰長興路四段２２７巷８弄４號,25.065520000000003,121.26902,金屬製品業,未分類其他金屬製品製造業,,端子、支架彈片
麗鎮科技股份有限公司二廠,桃園市蘆竹區長興里南崁路二段２７４號,25.060554500000002,121.271744,電子零組件業,印刷電路板製造業,,多層印刷電路板
順銅資源回收有限公司,桃園市蘆竹區長興里南崁路二段２２８巷２７７弄７號,25.0652657,121.27117199999999,基本金屬業,銅材軋延、擠型及伸線業,,銅板加工、廢棄物回收
登泰林針織有限公司,桃園市蘆竹區蘆竹里富國路三段１３５６之２號,25.0602417,121.26743300000001,紡織業,針織布業,布,織布、織布
聖宏彩色印刷有限公司,桃園市蘆竹區長興里長興路四段２２７巷１２號１樓,25.0657215,121.269333,印刷及儲存媒體複製業,印刷業,,紙張印刷
泳霖環保企業有限公司,桃園市蘆竹區長興里南崁路二段２２８巷２７７弄１１號,25.065458300000003,121.27095,塑膠製品業,其他塑膠製品製造業,,塑膠製品
竣鑫工業股份有限公司,桃園市蘆竹區長興里長興路四段２２７巷２１、２３、２５、２７、２９號,25.0656815,121.270439,金屬製品業,螺絲、螺帽及鉚釘製造業,盤元（不銹鋼線）,螺絲、不銹鋼線
景興精密機械有限公司,桃園市蘆竹區長興里南崁路二段２７０號,25.0604458,121.272,機械設備業,電子及半導體生產用機械設備製造業,,各式板面清潔機、膠帶、鍍鉻棒
鋼緯工業股份有限公司,桃園市蘆竹區長興里長興路四段２２７巷６號,25.06583,121.269089,金屬製品業,金屬表面處理業,,鋼材、金屬表面氮化處理
鑫強先進機械股份有限公司,桃園市蘆竹區長興里南崁路二段２７７巷２號８樓之２,25.0600853,121.271584,機械設備業,紡織、成衣及皮革生產用機械設備製造業,,機械組裝加工買賣
朕意科技有限公司,桃園市蘆竹區長興里長興路四段２２７巷２號,25.0658646,121.268974,電子零組件業,未分類其他電子零組件製造業,,主機板
台灣聚瀚塑膠工業有限公司,桃園市蘆竹區長興里３鄰南崁路二段４０２巷１９５號,25.06576,121.2706,塑膠製品業,塑膠膜袋製造業,,２０１８－Ｐ３０－０１－ＳＵＰＥＲ ９９＃６０ ＢＰＯ ＶＩＶＥ ＭＡＳ、２０１８－Ｐ３２－０１－ＳＵＰＥＲ ９９＃６０ ＢＰＯ ＶＩＶＥ ＭＡＳ、２０１８－Ｐ２１－０１－ＳＵＰＥＲ ９９＃６０ ＢＰＯ ＯＸＯ、２０１８－Ｐ４５－０１－ＳＵＰＥＲ ９９＃６０ ＢＰＯ ＶＩＶＥ ＭＡＳ
鎰陽實業有限公司,桃園市蘆竹區長興里長興路四段２２７巷１９號,25.0659275,121.269524,金屬製品業,未分類其他金屬製品製造業,,其他金屬製品
泓安工業社,桃園市蘆竹區長興里長興路四段２２７巷１９號,25.0659275,121.269524,金屬製品業,未分類其他金屬製品製造業,,金屬研磨
保捷國際股份有限公司,桃園市蘆竹區長興里長興路四段２２７巷１７號,25.0659466,121.26945500000001,機械設備業,污染防治設備製造業,,火化爐、空氣污染防治設備
乙泰企業有限公司蘆竹廠,桃園市蘆竹區長興里南崁路二段２９７巷３２號６樓,25.0597878,121.271294,其他製造業,體育用品製造業,,育樂用品，毛刷，化妝刷，美甲刷，美術刷，牙材刷，雷射代工，打點代工，拉線
宗龍機械股份有限公司,桃園市蘆竹區錦興里南崁路二段２７７巷６號１樓,25.0598869,121.271507,機械設備業,未分類其他專用機械設備製造業,,全自動電腦印花機
研達科技有限公司,桃園市蘆竹區長興里４鄰溪洲７１之４號,25.0655575,121.267555,基本金屬業,鋼鐵軋延及擠型業,,鋼板研磨製作、承載盤維修製作
宏合鐵工廠股份有限公司,桃園市蘆竹區蘆竹里富國路三段１３５６之１號,25.05978,121.26743300000001,機械設備業,其他通用機械設備製造業,,磁棒式網版印花機、機械設備製造
樂亦企業社,桃園市蘆竹區長興里南崁路２２８巷２６８號,25.0652542,121.27201799999999,機械設備業,其他通用機械設備製造業,,機械零件加工
侑增企業有限公司,桃園市蘆竹區長興里南崁路二段２２８巷２７０號,25.065321,121.271965,金屬製品業,未分類其他金屬製品製造業,,金屬製品、熔解爐
金盛昌格柵板股份有限公司,桃園市蘆竹區長興里南崁路二段２２８巷２８３號,25.065652800000002,121.27148400000002,金屬製品業,金屬建築組件製造業,,格柵板
騰鎰企業有限公司二廠,桃園市蘆竹區長興里南崁路二段２２８巷１２８弄２號,25.0623379,121.273338,電子零組件業,印刷電路板製造業,,ＰＣＢ金手指斜邊研磨、ＰＣＢ切割、印刷電路板切割
廣淵工業股份有限公司,桃園市蘆竹區長興里南崁路二段２２８巷２５８號,25.0651455,121.272224,金屬製品業,其他金屬加工處理業,,金屬沖壓零組件
創新元電子股份有限公司,桃園市蘆竹區長興里南崁路二段２２８巷１３８號,25.062948199999997,121.27334599999999,電子零組件業,印刷電路板製造業,,ＰＣＢ板鑽孔加工
長鋐電子有限公司蘆竹廠,桃園市蘆竹區長興里７鄰溪洲３４之９號,25.06221,121.273338,電子零組件業,印刷電路板製造業,,印刷電路板（切割加工）
睿義企業有限公司,桃園市蘆竹區長興里南崁路二段２６６號,25.0603428,121.272423,金屬製品業,金屬模具製造業,,塑膠模具
晟鈺企業社,桃園市蘆竹區長興里南崁路二段２２８巷２８２號,25.0657139,121.27172900000001,電子零組件業,印刷電路板製造業,,印刷電路板補線加工
順勁企業有限公司,桃園市蘆竹區長興里南崁路二段２６４號,25.06021,121.2725,金屬製品業,未分類其他金屬製品製造業,,其他金屬製品、金屬加工用機械、其他機械
順立科技有限公司,桃園市蘆竹區長興里長興路四段２２１號,25.066402399999998,121.269356,電子零組件業,印刷電路板製造業,,ＰＣＢ加工
東琪企業股份有限公司蘆竹廠,桃園市蘆竹區長興里南崁路二段２２８巷１５０弄１１號,25.063404100000003,121.273544,機械設備業,其他通用機械設備製造業,刀具、材料（鐵板）,機械五金零件、模具
億祥盛國際股份有限公司,桃園市蘆竹區長興里南崁路二段２２８巷１５０弄１１號,25.063404100000003,121.273544,金屬製品業,其他金屬加工處理業,鐵材,鐵材加工
成宇工業股份有限公司,桃園市蘆竹區長興里南崁路二段２２８巷５８號,25.0613155,121.273422,汽車及零件業,汽車零件製造業,,機車鋼圈、汽車前、後樑、機車離合器、汽車前、後保
成宇工業股份有限公司二廠,桃園市蘆竹區長興里南崁路二段２２８巷５８號１樓,25.0613155,121.273422,金屬製品業,未分類其他金屬製品製造業,,機車鋼圈、汽車前、後樑、機車離合器、汽車前、後保
益興隆企業股份有限公司,桃園市蘆竹區長興里南崁路二段２２８巷１３０號,25.062732699999998,121.273743,汽車及零件業,汽車零件製造業,,汽機車零配件加工、電著塗裝
宏裕企業社,桃園市蘆竹區長興里南崁路二段２２８巷２６６弄１７號,25.06554,121.272369,金屬製品業,其他金屬加工處理業,,機械設備製造
榮笙瓦楞機械有限公司蘆竹廠,桃園市蘆竹區長興里南崁路二段２２８巷２１１號,25.066165899999998,121.27138500000001,機械設備業,未分類其他專用機械設備製造業,,印刷機
冠洲環保科技股份有限公司,桃園市蘆竹區長興里南崁路二段２２８巷２３５號,25.066165899999998,121.27138500000001,基本金屬業,銅材軋延、擠型及伸線業,,ＰＡＣ、銅粉
台原自動化有限公司,桃園市蘆竹區長興里南崁路二段２２８巷２９２號１樓,25.065877899999997,121.271957,機械設備業,金屬切削工具機製造業,,金屬切削工具機製造鵭鋼园棒段差粗研磨代工
均泓有限公司,桃園市蘆竹區長興里南崁路二段２２８巷２９６號,25.0659237,121.272011,電子零組件業,印刷電路板製造業,,印刷電路板加工
昕藝石材股份有限公司,桃園市蘆竹區濱海里中圳街１６５號,25.0659962,121.267075,非金屬礦物製品業,石材製品製造業,,花崗石材
創國精密股份有限公司,桃園市蘆竹區蘆竹里富國路三段１２００號１、２、３、４樓,25.05876,121.268227,金屬製品業,金屬刀具及手工具製造業,,金屬手工藝、金屬切削刀具
香港商台本機械有限公司台灣分公司,桃園市蘆竹區蘆竹里富國路三段１２００號１樓,25.05876,121.268227,機械設備業,金屬切削工具機製造業,,其他磨床
華健醫藥生技股份有限公司桃園廠,桃園市蘆竹區蘆竹里富國路三段１２００號４樓,25.05876,121.268227,化學製品業,未分類其他化學製品製造業,,化妝品相關產品製造、醫療器材製造
進暐工業股份有限公司,桃園市蘆竹區長興里南崁路二段２２８巷２６６弄２６號,25.0655155,121.272675,機械設備業,流體傳動設備製造業,,氣液壓閥類、鐵芯
鉅航精測有限公司,桃園市蘆竹區長興里南崁路二段２２８巷３００號１樓,25.0660038,121.27211000000001,電腦電子及光學品業,其他光學儀器及設備製造業,顯微鏡、機械手臂、花崗岩、治具,自動檢查機
詠信電子股份有限公司長興廠,桃園市蘆竹區長興里長興路四段７１巷７號,25.0667553,121.27021,電子零組件業,印刷電路板製造業,,印刷電路板加工
帛邦企業股份有限公司,桃園市蘆竹區長興里南崁路二段２２８巷２６６弄２７號,25.0657539,121.272636,機械設備業,其他通用機械設備製造業,探針、纖維板、銅線材,電路板測試用治具
東寶食品有限公司,桃園市蘆竹區長興里南崁路二段２２８巷２５５號,25.059557,121.272636,食品及飼品業,麵條及粉條類食品製造業,,麵條生產
全福纖維企業股份有限公司南崁廠,桃園市蘆竹區長興里南崁路二段２６５號,25.059654199999997,121.272774,紡織業,不織布業,,不織布
松協企業股份有限公司,桃園市蘆竹區長興里南崁路二段２２８巷９８號,25.06204,121.27411699999999,塑膠製品業,其他塑膠製品製造業,,門禁、監視產品
