FactoryName,Addr,lat,lng,MiddleIndustry,DetailIndustry,Material,ProductName
啟圓工業股份有限公司新豐廠,新竹縣新豐鄉坡頭村坡子頭１８９之２號、１８９－３號、埔和村埔頂２４３－１號,24.932909,120.98703799999998,化學製品業,未分類其他化學製品製造業,,硬脂酸鋇（鈣．鋅）硬脂酸鎂
岳志企業有限公司,桃園市新屋區蚵間里蚵殼港５１之４號,24.937920000000002,120.992668,汽車及零件業,汽車零件製造業,,保險絲、繼電器
全民土石方加工處理廠,新竹縣新豐鄉埔和村１９鄰埔頂２３７之５號,24.933321,120.989479,非金屬礦物製品業,未分類其他非金屬礦物製品製造業,,非金屬礦物製品
精浩科技股份有限公司,新竹縣新豐鄉埔和村１０鄰埔頂２６１之２號,24.9323635,120.99060800000001,機械設備業,其他通用機械設備製造業,,橡膠接頭模．射出成型模具設計．橡膠部品製造
廣達昌環保股份有限公司,新竹縣新豐鄉埔和村１９鄰埔頂２３７－３號,24.9382362,120.99465900000001,塑膠製品業,其他塑膠製品製造業,,塑膠製品
帝王酒業股份有限公司,新竹縣新豐鄉埔和村１０鄰埔頂２６１號１樓,24.9325,120.990959,飲料業,其他酒精飲料製造業,,飲料
川龍科技股份有限公司,新竹縣新豐鄉後湖村２鄰後湖子３３之２號,24.9391041,121.0014,金屬製品業,未分類其他金屬製品製造業,,工業電腦機殼、機箱／機櫃（伺服器用、網路用）以及各式零組件
陽寶股份有限公司,新竹縣新豐鄉後湖村後湖子２５號,24.9343567,121.00226599999999,基本金屬業,鋼鐵鑄造業,,不銹鋼閥鑄件、機械另件、五金另件
亞樂米企業有限公司,新竹縣新豐鄉後湖村後湖子２１號,24.9336987,121.001534,機械設備業,農用及林用機械設備製造業,鋼鐵、塑膠,畜牧、穀物倉儲
亞樂米企業有限公司二廠,新竹縣新豐鄉後湖村後湖子１６之１號,24.933374399999998,121.001221,金屬製品業,金屬建築組件製造業,鋼鐵、塑膠,畜牧、穀物倉儲
勤美酒業股份有限公司,新竹縣新豐鄉後湖村後湖子１１８之２、３號,24.9334545,120.99801599999999,飲料業,其他酒精飲料製造業,,其他蒸餾酒
宜家鋼構有限公司,新竹縣新豐鄉後湖村後湖子４５之５號,24.9416122,121.00698100000001,金屬製品業,其他金屬加工處理業,,鋼料加工．油漆工程．鋼構工程
立鎣塑膠有限公司第一廠,新竹縣新豐鄉後湖村後湖子７３之２號,24.939329999999998,121.013405,塑膠製品業,其他塑膠製品製造業,,塑膠粒
銓成精密有限公司,新竹縣新豐鄉後湖村後湖子１９６之７號１樓,24.9360065,121.022705,金屬製品業,未分類其他金屬製品製造業,,其他金屬製品
沛鴻生技股份有限公司,新竹縣新豐鄉福興村３鄰圓山子４３之１號１樓,24.9415951,121.0352,化學材料業,塑膠原料製造業,,環氧樹脂銷售及施工
陽寶股份有限公司,新竹縣新豐鄉後湖村後湖子路２５號,24.9335,121.026756,基本金屬業,鋼鐵鑄造業,,不銹鋼閥鑄件、機械另件、五金另件
鋅春企業有限公司,新竹縣新豐鄉福興村圓山子７１之２號,24.93757,121.04261799999999,金屬製品業,未分類其他金屬製品製造業,,鋅鋁鋼製品
台灣頂好繃帶工業有限公司,新竹縣湖口鄉和興村嘉興路二段３２２巷７１號,24.933576600000002,121.04453999999998,紡織業,其他紡織品製造業,,繃帶織帶
永乾食品有限公司,桃園市新屋區望間里十五間４６之３號,24.94089,121.060852,食品及飼品業,烘焙炊蒸食品製造業,,糕點、客家米食
新復興微波通訊股份有限公司新屋廠,桃園市新屋區望間里十五間４５號,24.94067,121.062454,電子零組件業,印刷電路板製造業,鐵氟龍、陶瓷、ＦＲ－４銅箔基板材,高頻微波通訊基板、一般資訊用板
長益鐵工廠股份有限公司楊梅廠,桃園市新屋區望間里十五間１５－６號,24.9409561,121.06751299999999,金屬製品業,金屬彈簧及線製品製造業,,彈簧
海金實業有限公司,新竹縣新豐鄉坡頭村１鄰１０之２號,24.929615,120.97146599999999,機械設備業,電子及半導體生產用機械設備製造業,,自動化塗佈設備
瀧之香酒業股份有限公司,新竹縣新豐鄉坡頭村坡子頭１０號,24.922472,120.97831699999999,飲料業,其他酒精飲料製造業,,米酒
元盛企業有限公司新豐廠,新竹縣新豐鄉埔和村埔頂３７５號,24.923172,120.98860900000001,金屬製品業,金屬表面處理業,鐵材、銑鐵、焦炭,瓦斯爐及鑄鐵盤加工
高森工業股份有限公司新豐廠,新竹縣新豐鄉埔和村埔頂１２９號,24.923576399999998,120.989571,機械設備業,未分類其他專用機械設備製造業,,掃紙桿、滾筒輸送機
沛鑫包裝科技股份有限公司新竹分公司,新竹縣新豐鄉埔和村１８鄰埔頂４６５－１號,24.9213,120.98375700000001,機械設備業,未分類其他專用機械設備製造業,,塑膠標籤、包裝機臺
建益工業社,新竹縣新豐鄉埔和村埔頂５００號,24.91939,120.984489,紡織業,其他紡織品製造業,,紗
良成製麵店,新竹縣新豐鄉埔和村２鄰埔頂８１號,24.9190083,120.985344,食品及飼品業,麵條及粉條類食品製造業,,麵條、水餃皮
隆門股份有限公司新豐廠,新竹縣新豐鄉新豐村１鄰新和路１９８號,24.9178333,120.9847,金屬製品業,未分類其他金屬製品製造業,,閥類
秉宗有限公司新豐廠,新竹縣新豐鄉新豐村１鄰紅毛２３－２６號,24.91762,120.98634299999999,化學製品業,未分類其他化學製品製造業,,未分類其他化學原材料
全富奈米材料股份有限公司,新竹縣新豐鄉埔和村１０鄰埔頂２７７號,24.9311428,120.99261499999999,非金屬礦物製品業,其他陶瓷製品製造業,,陶瓷製品
錦美企業社,新竹縣新豐鄉新豐村紅毛２３之２２號,24.917579999999997,120.986443,金屬製品業,金屬刀具及手工具製造業,,五金零件
合興佳鋼品有限公司,新竹縣新豐鄉新豐村紅毛２３之３號,24.917579999999997,120.986443,金屬製品業,其他金屬加工處理業,,Ｈ型鋼、鍍鋅管、金屬壁板、烤漆鋼板、鍍鋅鋼帶、ＰＣ耐力板不鏽鋼板、不鏽鋼管、鍍鋁鋅烤漆鋼捲、方管、黑鐵管、螺絲點焊網、烤漆壓花鋼捲、鋁窗、不鏽鋼角鐵、復合式防火鋼板琉璃瓦烤漆ＰＵ鋼板、雙層烤漆ＰＵ鋼板、烤漆１２２門片
新冀機械有限公司,新竹縣新豐鄉新豐村紅毛２３之７號１樓,24.917579999999997,120.986443,橡膠製品業,工業用橡膠製品製造業,,橡膠油壓成型機
精永立工業股份有限公司二廠,新竹縣新豐鄉新豐村１鄰紅毛２３之１８號,24.917579999999997,120.986443,汽車及零件業,汽車零件製造業,,汽車零件、金屬手工具及模具
福源國際有限公司,新竹縣新豐鄉新豐村１鄰紅毛２３之１９號,24.917579999999997,120.986443,塑膠製品業,其他塑膠製品製造業,塑膠料,塑膠汽車保險桿
久菘科技股份有限公司新豐廠,新竹縣新豐鄉新豐村１鄰紅毛２３之２號１、３樓,24.917579999999997,120.986443,電腦電子及光學品業,其他通訊傳播設備製造業,,室外天線、ＧＰ天線、定向天線、平板天線
安暘有限公司,新竹縣新豐鄉新豐村１鄰紅毛２３之９號,24.917579999999997,120.986443,家具業,金屬家具製造業,,其他金屬傢俱及裝設品製造
弘技實業股份有限公司,新竹縣新豐鄉新豐村１鄰紅毛２３之１０號,24.917579999999997,120.986443,紡織業,紡織製成品製造業,,床單、窗簾
台灣迪肯特股份有限公司新豐廠,新竹縣新豐鄉新豐村１鄰紅毛２３之１２號,24.917579999999997,120.986443,機械設備業,其他通用機械設備製造業,,其他專用機械設備
羽翔生技有限公司,新竹縣新豐鄉新豐村１鄰紅毛２３之１５號,24.917579999999997,120.986443,化學製品業,清潔用品及化粧品製造業,椰子油，增稠劑,清潔用品
統方實業有限公司,新竹縣新豐鄉新豐村紅毛２３之１３號１樓,24.917579999999997,120.986443,飲料業,非酒精飲料製造業,,非酒精飲料
鑫合興浪板企業有限公司,新竹縣新豐鄉新豐村紅毛２３之２０號,24.917579999999997,120.986443,金屬製品業,金屬結構製造業,,Ｈ型鋼、槽鐵、圓鐵、塑膠外圍、鐵板、鋼軌、冷軋鍍鋅鋼捲、角鐵、扁鐵、烤漆鋼板（捲）、烤漆鋼板、鍍鋅鋼帶（板、捲）鍍鋅板、鍍鋅鋼管、點焊網、ＰＵ發泡原料、彩色鋼板、不鏽鋼板捲、不鏽鋼板、鋼管、鍍鋅花板、ＰＵ裝潢板、鍍鋅網、雙層烤漆鋼板、３５０裝潢板發泡、裝潢板不鏽鋼雙層、琉璃瓦白鐵雙層、琉璃瓦雙層、菱形網、止水條
正昊精密有限公司,新竹縣新豐鄉新豐村紅毛２３之２１號,24.917579999999997,120.986443,金屬製品業,金屬刀具及手工具製造業,,五金零件
大富酒業股份有限公司,新竹縣新豐鄉埔和村埔頂１５６號１樓,24.92401,120.998848,飲料業,其他酒精飲料製造業,,米酒
揚欣生物科技股份有限公司,新竹縣新豐鄉埔和村埔頂１７９號１樓,24.9296875,120.99771899999999,食品及飼品業,烘焙炊蒸食品製造業,生乳．奶粉．砂糖,布丁．優格．優酪乳
揚格食品股份有限公司,新竹縣新豐鄉埔和村埔頂１７９號１樓,24.9296875,120.99771899999999,食品及飼品業,烘焙炊蒸食品製造業,,布丁、優格、優酪乳
誠毅股份有限公司新豐工廠,新竹縣新豐鄉後湖村６鄰後湖子１２０之１號,24.9311352,121.006348,金屬製品業,未分類其他金屬製品製造業,,家庭用五金（螺絲、鐵釘）包裝代工
駿翰塑膠企業有限公司,新竹縣新豐鄉青埔村青埔子路１５２之１號,24.9249382,121.01741799999999,塑膠製品業,其他塑膠製品製造業,塑膠料,塑膠製品
正大香農產行青埔廠,新竹縣新豐鄉青埔村青埔子９２之６號,24.9201889,121.00985700000001,食品及飼品業,未分類其他食品製造業,,豆腐乳
翊生科技股份有限公司新竹二廠,新竹縣新豐鄉後湖村６鄰後湖子１１６－１８號,24.932436,121.00790400000001,金屬製品業,未分類其他金屬製品製造業,鋁錠,鋁擠加工
翊生科技股份有限公司新竹一廠,新竹縣新豐鄉後湖村６鄰後湖子１１６－１９號,24.9325428,121.00797299999999,金屬製品業,未分類其他金屬製品製造業,鋁錠,鋁擠加工
長川機械鐵工廠,新竹縣新豐鄉後湖村１３鄰十一股５７之１號,24.9269733,121.030952,機械設備業,未分類其他專用機械設備製造業,,造紙機械
協力新工業有限公司,新竹縣湖口鄉和興村德興路９３２巷１３９號１樓,24.9263954,121.042152,機械設備業,其他通用機械設備製造業,,自動化機械設備
玖鼎材料股份有限公司,新竹縣湖口鄉德盛村德興路９３２巷１３８號,24.925943399999998,121.041748,金屬製品業,未分類其他金屬製品製造業,,真空腔體翻修
鼎新行,新竹縣湖口鄉和興村７鄰和豐路６５巷６７號,24.92664,121.04647800000001,非金屬礦物製品業,未分類其他非金屬礦物製品製造業,,土、石
汲鋒企業有限公司,新竹縣湖口鄉和興村７鄰和豐路３１６號,24.9294815,121.04248,化學製品業,清潔用品及化粧品製造業,,化妝品
陶一企業有限公司湖口廠,新竹縣湖口鄉和興村中山路三段８２２號,24.9242516,121.059891,紙漿、紙及紙製品業,未分類其他紙製品製造業,,水針不織布，面膜，其他紙張
名晟塑膠企業有限公司,新竹縣湖口鄉和興村嘉興路二段５５號,24.9297028,121.054382,塑膠製品業,其他塑膠製品製造業,,塑膠射出
台灣山葉機車工業股份有限公司新竹工廠,新竹縣湖口鄉東興村１１鄰山葉路８１號,24.9199963,121.05356599999999,其他運輸工具零件業,機車製造業,,機車，機車零件
永信容器工業股份有限公司富岡廠,桃園市楊梅區富岡里新明街７３０號,24.930212,121.066048,塑膠製品業,其他塑膠製品製造業,,塑膠製品
智譽企業股份有限公司新明廠,桃園市楊梅區富岡里新明街７３０號,24.930212,121.066048,汽車及零件業,汽車零件製造業,,汽車零件，保險桿，葉子板，引擎蓋
森欣實業股份有限公司,新竹縣新豐鄉新豐村２８４－１號,24.915735199999997,120.9736,紙漿、紙及紙製品業,瓦楞紙板及紙容器製造業,紙箱,紙箱
森欣實業股份有限公司,新竹縣新豐鄉新豐村紅毛２８５號,24.916235,120.97388500000001,紙漿、紙及紙製品業,瓦楞紙板及紙容器製造業,,紙箱
品碩豐食品行,新竹縣新豐鄉新豐村１２鄰紅毛２８６之２號,24.915895499999998,120.97431200000001,食品及飼品業,調味品製造業,,筍絲、剝皮辣椒、脆瓜
遠芳實業有限公司,新竹縣新豐鄉新豐村紅毛１３８號,24.9135075,120.9765,紡織業,不織布業,纖維絲,軋針布
駿德有限公司,新竹縣新豐鄉新豐村５鄰紅毛１３６號,24.91327,120.976929,基本金屬業,鋼鐵鑄造業,,鋼鐵、人孔蓋
誠遠科技股份有限公司二廠,新竹縣新豐鄉新豐村１６鄰紅毛３４９之１號,24.9124718,120.979073,電子零組件業,半導體封裝及測試業,,積體電器加工、ＩＣ測試
震偉股份有限公司,新竹縣新豐鄉新豐村新和路９０號,24.91396,120.98236100000001,非金屬礦物製品業,黏土建築材料製造業,,擋土磚、空心磚、地磚、其他磚品
新庄子機械有限公司,新竹縣新豐鄉新豐村新和路９２號,24.91396,120.98236100000001,機械設備業,其他通用機械設備製造業,,機械零件加工
棕茂科技股份有限公司新竹廠,新竹縣新豐鄉新豐村新和路９６之１號１樓,24.91396,120.98236100000001,非金屬礦物製品業,其他陶瓷製品製造業,,陶瓷製品加工、精密陶瓷（２１０）
耀穎光電股份有限公司,新竹縣新豐鄉新豐村新和路９６之３號１樓,24.91396,120.98236100000001,電腦電子及光學品業,其他光學儀器及設備製造業,,ＯＬＰＦ、ＩＲ－ＦＩＬＴＥＲ、ＣＯＶＥＲ ＧＬＡＳＳ ８－ＩＮＣＨ  ＷＡＴＥＲ
有成精密股份有限公司,新竹縣新豐鄉新豐村新和路９６號３樓、３樓之１、之２、之３,24.91396,120.98236100000001,電子零組件業,其他光電材料及元件製造業,,ＰＶ  ＭＯＤＵＬＥＳ
三千電器工業廠股份有限公司翻修胎廠,新竹縣新豐鄉新豐村新和路１０２巷５號,24.914777800000003,120.982681,機械維修及安裝業,產業用機械設備維修及安裝業,,車輛用輪胎翻修
統洋酒業股份有限公司,新竹縣新豐鄉新豐村新和路１０２巷５號１樓,24.914777800000003,120.982681,飲料業,其他酒精飲料製造業,,飲料
禪才科技股份有限公司,新竹縣新豐鄉新豐村新和路１０２巷６號２樓,24.914814,120.98261299999999,機械設備業,其他通用機械設備製造業,ＰＣＢ控製板、ＰＣＢ高壓模組,靜電風扇
三千電器工業廠股份有限公司新豐廠,新竹縣新豐鄉新豐村新和路１０２巷６號３樓,24.914814,120.98261299999999,汽車及零件業,汽車零件製造業,,其他金屬製品
清隆光能股份有限公司,新竹縣新豐鄉新和路９６號５樓,24.914413500000002,120.98220800000001,電子零組件業,半導體封裝及測試業,,半導體封裝及測試業
追速科技股份有限公司,新竹縣新豐鄉新豐村２鄰新和路１０４號１樓,24.9148617,120.98251299999998,電子零組件業,未分類其他電子零組件製造業,其他電子零組件、光學儀器,晶片、石英棒、ＩＣＲ切換器
昱晁科技股份有限公司新豐廠,新竹縣新豐鄉新豐村新和路１０４號,24.9148617,120.98251299999998,電子零組件業,未分類其他電子零組件製造業,,ＰＣ板代工
啟亨工業有限公司,新竹縣新豐鄉新豐村新和路１０４號,24.9148617,120.98251299999998,其他運輸工具零件業,機車零件製造業,,其他機械
偉全實業股份有限公司新竹廠,新竹縣新豐鄉新豐村２鄰新和路１０６號,24.915208800000002,120.982445,紡織業,人造纖維梭織布業,,平織布９３％、加工絲７％
必翔實業股份有限公司,新竹縣新豐鄉新豐村２鄰新和路１０８號,24.915638,120.9829,其他運輸工具零件業,未分類其他運輸工具及其零件製造業,,電動代步車、電動輪椅車及電動自行車
雅譽企業有限公司新豐廠,新竹縣新豐鄉新豐村紅毛２３－２５號,24.9162922,120.98622900000001,紡織業,紡織製成品製造業,,布．窗簾．加工
國川針織有限公司新豐廠,新竹縣新豐鄉新豐村紅毛２３－２３號,24.9163723,120.98603100000001,紡織業,針織布業,,隔簾．窗簾
久增股份有限公司,新竹縣新豐鄉新豐村１６鄰紅毛３５７之３號,24.909107199999998,120.982666,金屬製品業,金屬模具製造業,,殼模砂心
三貿機械工業股份有限公司,新竹縣新豐鄉新豐村１６鄰新和路１３之５號,24.9095783,120.981827,機械設備業,橡膠及塑膠加工用機械設備製造業,,輪胎成型機
大碩工業股份有限公司,新竹縣新豐鄉新豐村１６鄰新和路１３之６號,24.9095783,120.981827,金屬製品業,金屬表面處理業,,建築鋁材表面陽極處理加工
精御科技股份有限公司新豐廠,新竹縣新豐鄉新豐村新和路１３號,24.9095783,120.981827,化學製品業,未分類其他化學製品製造業,,碳粉
精御科技股份有限公司新豐二廠,新竹縣新豐鄉新和路１３之２、１３之７號,24.9095783,120.981827,化學製品業,未分類其他化學製品製造業,,碳粉
聯合利華股份有限公司新竹廠,新竹縣新豐鄉新豐村新和路１５０號,24.916452399999997,120.983376,食品及飼品業,未分類其他食品製造業,,果凍粉，沙拉醬，果醬，快煮湯類，高湯，茶包，奶茶粉
興奕揚工業有限公司,新竹縣新豐鄉瑞興村崁頭２之１號１樓,24.910529999999998,120.990036,塑膠製品業,其他塑膠製品製造業,,塑膠產品加工１、積木盒組２、幾何容器
和泰興木業社,新竹縣新豐鄉埔和村埔頂１６號,24.917188600000003,120.98770900000001,家具業,木製家具製造業,,木桌子，木椅子組合
千山木業股份有限公司,新竹縣新豐鄉重興村新庄路３２０號,24.904705,120.985413,家具業,木製家具製造業,,木器家具、珠寶箱、彫刻品
臺灣通利行銷有限公司新豐廠,新竹縣新豐鄉重興村新庄路２９３號,24.9037247,120.98500800000001,食品及飼品業,膳食及菜餚製造業,剝皮辣椒,辣椒醬
得意碾米工廠,新竹縣新豐鄉青埔村４鄰青埔子５７之２號,24.9170532,121.00396699999999,食品及飼品業,碾榖業,,糙米
新竹縣新豐鄉農會碾榖廠,新竹縣新豐鄉青埔村８鄰青埔子１２７之８、１２７之１０、１２７之１１、１２７之１２、１２７之１３號,24.9134331,121.013977,食品及飼品業,碾榖業,,糙米
七星爆竹股份有限公司,新竹縣新豐鄉瑞興村４鄰崁頭７２號,24.908515899999998,121.010704,化學製品業,未分類其他化學製品製造業,,爆竹、煙火
淶富有限公司,新竹縣新豐鄉瑞興村１６９之１號,24.905942899999996,121.02002,紙漿、紙及紙製品業,未分類其他紙製品製造業,,紙器（角紙，紙管，紙罐）加工
祺驊股份有限公司,新竹縣湖口鄉和興村德興路２３１號,24.9123478,121.04400600000001,其他製造業,體育用品製造業,,健身器材產品
興力興企業股份有限公司,新竹縣湖口鄉和興村德興路３３４號,24.9131927,121.043922,金屬製品業,金屬模具製造業,,機械零件．模具
加力興股份有限公司,新竹縣湖口鄉和興村德興路３３６號,24.9133224,121.043884,機械設備業,其他金屬加工用機械設備製造業,,機械（粉末成型機、加工機）機械零件、五金零件
遠東新世紀股份有限公司湖口紡織廠,新竹縣湖口鄉東興村和興路３０號,24.91315,121.0455,化學材料業,人造纖維製造業,,棉紗、聚酯棉紗、嫘縈棉混紡紗
亞東創新發展股份有限公司生醫廠,新竹縣湖口鄉東興村和興路３０號２樓,24.91315,121.0455,其他製造業,其他醫療器材及用品製造業,,疤痕貼片、泡棉敷料、生物纖維膜、注射式人工骨替代物
禹欣企業有限公司,新竹縣湖口鄉和興村德豐路５８號,24.912193300000002,121.04213,電子零組件業,被動電子元件製造業,,電阻（壓帽）
奇力新電子股份有限公司二廠,新竹縣湖口鄉和興村１鄰德興路３０１巷２９號２、３樓,24.914678600000002,121.041824,電力設備業,其他電力設備及配備製造業,,被動元件電感
奇力新電子股份有限公司,新竹縣湖口鄉和興村德興路３０１巷２９號,24.914678600000002,121.041824,電力設備業,其他電力設備及配備製造業,,電感器
佳旺機械工業社,新竹縣湖口鄉德盛村１９鄰德豐路１０５巷６號,24.912605300000003,121.040306,金屬製品業,金屬模具製造業,,模具
久然企業有限公司,新竹縣湖口鄉德盛村６鄰德興路１３６巷２１號,24.9093,121.045349,電子零組件業,被動電子元件製造業,,電阻
欣匯豐企業有限公司,新竹縣湖口鄉和興村德興路３０１巷２弄１７號１樓,24.91574,121.0421,汽車及零件業,汽車零件製造業,,汽車開關另件
奇力新電子股份有限公司,新竹縣湖口鄉和興村德興路３０１巷５６號,24.915016199999997,121.04013799999998,電力設備業,其他電力設備及配備製造業,,鐵粉、線圈、晶片電感
春祥精機股份有限公司,新竹縣湖口鄉德盛村中山路三段３５號,24.909175899999997,121.04916399999999,機械設備業,其他通用機械設備製造業,,機械零件
翊楊精密機械廠,新竹縣湖口鄉東興村中山路三段２００號,24.9121056,121.050674,機械設備業,農用及林用機械設備製造業,,機械零件
泰安鋼鐵有限公司,新竹縣湖口鄉東興村東成街３５號,24.9095821,121.050453,金屬製品業,金屬建築組件製造業,,金屬建築組件
泰安鋼鐵有限公司,新竹縣湖口鄉東興村２鄰東成街３５號１樓,24.9095821,121.050453,金屬製品業,金屬建築組件製造業,,其他金屬建材批發
震華企業,新竹縣湖口鄉德盛村東成街４０之１號,24.90951,121.050568,金屬製品業,金屬建築組件製造業,,鋼構、鐵屋加工
鑫來興工業有限公司,新竹縣湖口鄉東興村中山路三段２０８巷５０弄１８號,24.9129467,121.052223,塑膠製品業,其他塑膠製品製造業,,塑膠製品
國慶電機有限公司,新竹縣湖口鄉東興村長威一街４５號,24.9122429,121.05228400000001,電力設備業,發電、輸電及配電機械製造業,,電力機械器材
昌億興有限公司,新竹縣湖口鄉東興村２鄰東成街３６１號,24.910133399999996,121.05798300000001,非金屬礦物製品業,未分類其他非金屬礦物製品製造業,,土石方
昌億興有限公司一廠,新竹縣湖口鄉東興村２鄰東成街３６１號,24.910133399999996,121.05798300000001,非金屬礦物製品業,未分類其他非金屬礦物製品製造業,,土石方
上湖工業社,桃園市楊梅區上湖里楊湖路四段７８２號,24.9074783,121.059624,塑膠製品業,塑膠膜袋製造業,塑膠粉粒,塑膠袋
桐邑企業有限公司,桃園市楊梅區上湖里楊湖路四段２３１巷１號２樓,24.909275100000002,121.06525400000001,電力設備業,其他電力設備及配備製造業,,ＥＭＩ實驗室製造
安晟實業有限公司,桃園市楊梅區上湖里楊湖路四段２３１巷１號,24.9092712,121.065262,其他運輸工具零件業,自行車零件製造業,,自行車及其零件
祥曜科技股份有限公司,桃園市楊梅區上湖里楊湖路四段２３１巷３號,24.909110000000002,121.06533799999998,電力設備業,其他電力設備及配備製造業,電力機械器材,高壓斷路器
台灣琺瑯工業股份有限公司,新竹縣湖口鄉愛勢村民生街４１５號,24.905720000000002,121.05698400000001,金屬製品業,未分類其他金屬製品製造業,,琺瑯浴缸，琺瑯牆板
菘新塑膠有限公司湖口廠,新竹縣湖口鄉愛勢村２２鄰民生街４０７號,24.905571,121.056564,塑膠製品業,其他塑膠製品製造業,,塑膠製品
三每有限公司,桃園市楊梅區上湖里楊湖路四段６０５巷２６３號,24.9043713,121.06154599999999,紡織業,其他織布業,,胚布
利阡工業股份有限公司,新竹縣新豐鄉鳳坑村坑子口６９３號,24.8960457,120.97085600000001,金屬製品業,未分類其他金屬製品製造業,,五金代工
光勛工業股份有限公司,新竹縣新豐鄉鳳坑村坑子口６９７號,24.895553600000003,120.97053500000001,機械設備業,其他通用機械設備製造業,,機械
元利鋼纜股份有限公司,新竹縣新豐鄉鳳坑村坑子口６６９之１號,24.8960018,120.97454099999999,基本金屬業,鋼鐵伸線業,,各種綱纜，各種鋼絲，各種鋼絞線
九州鋁業股份有限公司,新竹縣新豐鄉鳳坑村１４鄰坑子口６６８之１號,24.8960018,120.97454099999999,基本金屬業,鋁材軋延、擠型及伸線業,,建築用鋁擠型材、鋁門窗
鴻成工業股份有限公司新竹精密鑄造工廠,新竹縣新豐鄉鳳坑村１４鄰坑子口６６９號,24.8960018,120.97454099999999,機械設備業,未分類其他專用機械設備製造業,,機械零件
進億電氣有限公司新竹廠,新竹縣新豐鄉鳳坑村坑子口６６８之２號,24.8960018,120.97454099999999,木竹製品製造業,其他木竹製品製造業,木刻品,雕塑品
超昱光電科技股份有限公司,新竹縣新豐鄉鳳坑村坑子口５７１之１號,24.900507,120.97660800000001,電力設備業,電線及電纜製造業,,石英光纖、塑膠光纖
煦昊精密機械有限公司,新竹縣新豐鄉鳳坑村坑子口５７１之１號,24.900507,120.97660800000001,金屬製品業,未分類其他金屬製品製造業,,金屬設備零件製作
安星製藥股份有限公司,新竹縣新豐鄉鳳坑村坑子口６７３號,24.89856,120.97716499999999,藥品及醫用化學品業,西藥製造業,,生理食鹽水，軟袋
海洋食品行,新竹縣新豐鄉鳳坑村坑子口５７１－３號１樓,24.90128,120.97740900000001,食品及飼品業,蔬果加工及保藏業,,蘭花乾、油豆付
正揚利企業有限公司,新竹縣新豐鄉鳳坑村５鄰坑子口６２３號,24.8912163,120.967552,非金屬礦物製品業,石材製品製造業,,砂石
夫翔商行企業有限公司,新竹縣新豐鄉上坑村坑子口４１２之３號,24.8918362,120.975357,化學製品業,未分類其他化學製品製造業,,其他化學製品
舒爽生化科技股份有限公司,新竹縣新豐鄉重興村建興路二段６５４、６５６號,24.8971176,120.98696899999999,紙漿、紙及紙製品業,家庭及衛生用紙製造業,,衛生棉
益泰行,新竹縣新豐鄉重興村振興街２號,24.90304,120.9865,食品及飼品業,碾榖業,,白米、糙米
正暉紙品有限公司,新竹縣新豐鄉重興村建興路二段４４３巷１８號,24.896385199999997,120.988976,紙漿、紙及紙製品業,紙板製造業,,紙箱製造
合瞬精密股份有限公司,新竹縣新豐鄉上坑村坑子口５０２之３號,24.8934021,120.983833,金屬製品業,未分類其他金屬製品製造業,,機械五金零件
景碩科技股份有限公司新豐一廠,新竹縣新豐鄉重興村建興路二段５２６號,24.89412,120.98933400000001,電子零組件業,印刷電路板製造業,,ＩＣ載板
郁泓股份有限公司,新竹縣新豐鄉重興村建興路二段５９６巷１１號,24.8965359,120.99211899999999,橡膠製品業,工業用橡膠製品製造業,,密封圈
旭裕科技股份有限公司,新竹縣新豐鄉重興村建興路二段５９６巷１１號,24.8965359,120.99211899999999,機械維修及安裝業,產業用機械設備維修及安裝業,,維修幫浦
尚源股份有限公司,新竹縣新豐鄉重興村建興路二段５９６巷１１號,24.8965359,120.99211899999999,電子零組件業,分離式元件製造業,,半導體及電子相關產業之零組件生產及設計
復揚科技股份有限公司,新竹縣新豐鄉重興村建興路二段４６８巷１２號,24.8965359,120.99211899999999,電子零組件業,印刷電路板製造業,,印刷電路板，其他電子零組件
振崑汽車車體股份有限公司,新竹縣新豐鄉崎頂村建興路二段４４３巷１０號,24.8909035,120.987022,機械設備業,未分類其他專用機械設備製造業,,大貨車車箱生產、加工、檢修
永豐品實業有限公司新豐廠,新竹縣新豐鄉建興路二段４２７號,24.890646,120.987778,塑膠製品業,其他塑膠製品製造業,,各種化妝品容器製造
優揚生物科技股份有限公司,新竹縣新豐鄉建興路二段４２６號,24.890605899999997,120.98777,機械設備業,電子及半導體生產用機械設備製造業,,半導體酸洗設備，半導體設備零件、中古設備買賣維修
鋐杰科技有限公司,新竹縣新豐鄉崎頂村建興路二段４２１巷２３、２５號１樓,24.89021,120.9867,機械設備業,金屬切削工具機製造業,,其他金屬加工處理，其他金屬製品
元普科技有限公司,新竹縣新豐鄉崎頂村建興路二段４２１巷２號,24.890255,120.98710600000001,成衣及服飾品業,服飾品製造業,,不織布手套、不織布防護衣、口罩、實驗衣
奕綸有限公司,新竹縣新豐鄉建興路二段４２１巷２號２樓,24.890255,120.98710600000001,其他製造業,其他醫療器材及用品製造業,,口罩
台灣偉德科技股份有限公司建興廠,新竹縣新豐鄉崎頂村建興路二段４２１巷６號１樓,24.89021,120.986977,橡膠製品業,其他橡膠製品製造業,,ｍｅｍｂｒａｎｅ
台灣宇創精密科技股份有限公司建興廠,新竹縣新豐鄉崎項村建興路二段４２１巷６號１樓,24.89021,120.986977,金屬製品業,未分類其他金屬製品製造業,,Ｕｔｅｘ Ｍａｃｈｉｎｉｎｇ Ｒｉｎｇ
矩陣國際股份有限公司,新竹縣新豐鄉中崙村３鄰中崙９３號,24.896929999999998,121.000267,家具業,木製家具製造業,,木製家具製造蕭售
嘉呈興業股份有限公司,新竹縣新豐鄉中崙村１０鄰中崙３２３號,24.896513,121.00155600000001,金屬製品業,金屬表面處理業,,塑膠金屬零件
聯祥資源股份有限公司,新竹縣新豐鄉中崙村１０鄰中崙３２４號,24.8963661,121.001328,金屬製品業,其他金屬加工處理業,鋁料,鋁合金產品
嘉呈興業股份有限公司,新竹縣新豐鄉中崙村中崙３２３、３２３－１、３２４、３２４－１、３２４－２號,24.8963661,121.001328,金屬製品業,金屬表面處理業,,塑膠金屬零件
人化股份有限公司,新竹縣新豐鄉中崙村中崙８１之１號,24.898696899999997,120.995819,金屬製品業,金屬表面處理業,,傘骨電鍍、電鍍零件
欣興電子股份有限公司新豐一廠,新竹縣新豐鄉中崙村２８９、２９０號,24.8943424,120.99886299999999,電子零組件業,分離式元件製造業,,封裝基板
巨煌工程股份有限公司,新竹縣新豐鄉中崙村１０鄰中崙３２８號,24.8937378,121.00186200000002,機械設備業,其他通用機械設備製造業,,ＰＶＣ管、風車
鋐昇金屬有限公司新竹廠,新竹縣新豐鄉中崙村１０鄰中崙３０９之５號,24.8923569,120.999908,金屬製品業,未分類其他金屬製品製造業,,鋁料加工
博麟實業有限公司新竹廠,新竹縣新豐鄉中崙村中崙３０９之３號,24.89224,121.00023700000001,金屬製品業,金屬模具製造業,,模具
三林科技股份有限公司,新竹縣新豐鄉中崙村１０鄰中崙３０９之２號,24.8918285,121.000832,電力設備業,發電、輸電及配電機械製造業,,配電設備（變壓器）
兆同企業股份有限公司新豐廠,新竹縣新豐鄉中崙村１０鄰中崙３０９之１號,24.8917389,121.001274,機械設備業,其他通用機械設備製造業,,超音波清淨機、離心乾燥機、噴洗機、回收機
兆銳塑膠股份有限公司,新竹縣新豐鄉中崙村１０鄰中崙３０９之４號１樓,24.891223899999996,121.00058,塑膠製品業,其他塑膠製品製造業,,汽車零件
駿星企業有限公司,新竹縣新豐鄉中崙村８鄰中崙２６７之１號,24.893301,121.005753,機械設備業,其他通用機械設備製造業,,機械零件加工
上躍工業股份有限公司新豐廠,新竹縣新豐鄉中崙村中崙１８０號,24.8942947,121.011269,汽車及零件業,汽車零件製造業,,各種（五金機械，工作母機，汽車機車等）
竹代機械有限公司,新竹縣新豐鄉中崙村中崙２１７之１號,24.89162,121.017715,機械設備業,採礦及營造用機械設備製造業,,攪拌機械、切草機（鋼鐵材材加工）
台達鋁業股份有限公司,新竹縣湖口鄉信勢村成功路６１４巷６６號,24.8968754,121.031,基本金屬業,鋁材軋延、擠型及伸線業,,鋁擠型材製造、鋁管加工、鋁材加工
祥丞精密工業有限公司,新竹縣湖口鄉德盛村新義路８０巷１２號,24.9020348,121.025925,電腦電子及光學品業,視聽電子產品製造業,,模製具
元錩企業股份有限公司,新竹縣湖口鄉成功路６３７號,24.894582699999997,121.033157,金屬製品業,金屬模具製造業,,模具
元昆企業股份有限公司,新竹縣湖口鄉成功路６３７號,24.894582699999997,121.033157,金屬製品業,金屬模具製造業,,模具
新盛家具行,新竹縣湖口鄉信義村成功路６３７號,24.894582699999997,121.033157,家具業,木製家具製造業,,家具及裝設品製造業
冠群精密工業有限公司湖口廠,新竹縣湖口鄉信義村成功路５７１號,24.89396,121.03261599999999,機械設備業,其他通用機械設備製造業,,機器軸心、零件
光紳科技有限公司,新竹縣湖口鄉信義村成功路５５３號、５５３－１號、５５３號２樓、５５３號２樓之１、５５３號３樓、５５３號４樓,24.894527399999998,121.03396599999999,電子零組件業,被動電子元件製造業,,鐵芯生產．電子零件貿易
合盛生技股份有限公司,新竹縣湖口鄉信義村成功路４４３－３號,24.89621,121.036133,化學材料業,肥料及氮化合物製造業,,培養土、有機質肥料
宏達工業社,新竹縣湖口鄉成功路３６６巷８號,24.89986,121.03699499999999,基本金屬業,未分類其他基本金屬製造業,,不銹鋼買賣
德世達科技有限公司,新竹縣湖口鄉信義村５鄰成功路４５７號,24.8974266,121.036934,機械設備業,未分類其他專用機械設備製造業,,機械器具及電子零組件
正昌車體打造廠,新竹縣湖口鄉信義村成功路３６６巷１９號,24.8988171,121.03733799999999,汽車及零件業,車體製造業,,車斗
永協企業股份有限公司,新竹縣湖口鄉信義村７鄰成功路９１０號,24.8918324,121.02593999999999,非金屬礦物製品業,預拌混凝土製造業,,預拌混凝土
正閣家具有限公司,新竹縣湖口鄉信義村中美西路２１０巷９號,24.89196,121.0333,家具業,木製家具製造業,,木製家具、鋼鐵家具製造
銘家機械股份有限公司,新竹縣湖口鄉孝勢村中山路二段２８號,24.900013,121.04286200000001,其他運輸工具零件業,自行車零件製造業,,主軸模組、系統開發、自行車避震器
昇洲精密股份有限公司湖口廠,新竹縣湖口鄉信義村成功路３３５巷２９弄１１號,24.8983288,121.04045900000001,塑膠製品業,其他塑膠製品製造業,,ＣＡＲＲＩＥＲ、塑膠上帶
紀丞企業有限公司新竹廠,新竹縣湖口鄉信義村成功路３３５巷２９弄１２號,24.8983288,121.04045900000001,電子零組件業,被動電子元件製造業,,被動零件加工、端銀加工
仟佰實業有限公司,新竹縣湖口鄉信義村成功路３３５巷２９弄９號,24.8983288,121.04045900000001,電子零組件業,被動電子元件製造業,,變壓器
歐利得材料科技股份有限公司,新竹縣湖口鄉信義村成功路３３５巷２９弄８號１樓,24.8985825,121.0404,化學材料業,化學原材料製造業,,ＥＡ２，ＲＥ３Ｈ０１，ＲＥ１Ｈ０１
美華珍蛋糕,新竹縣湖口鄉仁勢村中正路一段８３號４樓,24.9020348,121.046135,食品及飼品業,烘焙炊蒸食品製造業,,西點麵包煙酒糕餅
祥龍興鋼鐵股份有限公司,新竹縣湖口鄉信勢村成功路８９６號１樓,24.900098800000002,121.03993200000001,基本金屬業,鋼鐵軋延及擠型業,,鐵板
信勢塑膠廠有限公司,新竹縣湖口鄉信義村８鄰成功路３３７號,24.899457899999998,121.03968799999998,塑膠製品業,其他塑膠製品製造業,,手機按鍵、金屬粉末射出（ＭＩＭ）
宏泰精密機械工廠,新竹縣湖口鄉中正村健康街４８號,24.8995247,121.0489,金屬製品業,螺絲、螺帽及鉚釘製造業,,螺絲、五金
協裕順精密工業股份有限公司湖口廠,新竹縣湖口鄉中正村中正路二段１２６巷１９號,24.8938313,121.04838600000001,金屬製品業,金屬模具製造業,,洗床、切割加工
恩祥機械企業股份有限公司,新竹縣湖口鄉中正村中正二路２１３號,24.893476500000002,121.047844,機械設備業,紡織、成衣及皮革生產用機械設備製造業,軸承,絞線機
士捷企業股份有限公司,新竹縣湖口鄉中勢村中興街１５３號１樓,24.90312,121.049568,木竹製品製造業,木質容器製造業,,木棧板、塑木、木箱
新亞洲製刀股份有限公司,新竹縣湖口鄉中勢村中平路一段５０號,24.9016724,121.05068999999999,金屬製品業,金屬刀具及手工具製造業,,刀具
三進鐵箱有限公司一廠,新竹縣湖口鄉中正村１４鄰中正路二段１２６巷１２號,24.8939571,121.04886599999999,金屬製品業,未分類其他金屬製品製造業,,鐵箱
立菽企業有限公司,新竹縣湖口鄉中正村中正路二段１２６巷１０號,24.8939571,121.04886599999999,食品及飼品業,蔬果加工及保藏業,,蔬果處理及其製品
凱信木業有限公司,新竹縣湖口鄉中正村中正路二段１２６巷７號１樓,24.89376,121.04895,木竹製品製造業,其他木竹製品製造業,,木箱
允大昌企業有限公司湖口廠,新竹縣湖口鄉中勢村中正路二段１５７號,24.8941669,121.049751,塑膠製品業,其他塑膠製品製造業,,塑膠製品（玩具，塑膠殼，毛刷，電子零件）
駿立捷工程有限公司,新竹縣湖口鄉中勢村中正路二段１６５號,24.893810000000002,121.04981200000002,機械設備業,其他金屬加工用機械設備製造業,鐵管、鋼管,風管、排氣管
順鈺企業社,新竹縣湖口鄉中正村中正路二段１６８號１樓,24.8936958,121.049843,機械設備業,其他通用機械設備製造業,,通用機械設備
貿鑫有限公司新竹廠,新竹縣湖口鄉中勢村中正路二段１７０號１樓,24.8935013,121.049904,電子零組件業,未分類其他電子零組件製造業,,電子表面處理
孩之友實業有限公司,新竹縣湖口鄉中勢村中正路二段１７５巷９號,24.8939152,121.0504,木竹製品製造業,其他木竹製品製造業,,木竹製品
翰頡光學股份有限公司,新竹縣湖口鄉中正村中正路二段１９６號１樓,24.8917,121.04746999999999,其他製造業,眼鏡製造業,,隱形眼鏡
大金精密科技股份有限公司,新竹縣湖口鄉中正村中正路二段１９６號３樓,24.8917,121.04746999999999,電子零組件業,未分類其他電子零組件製造業,,其他電子零組件
新竹縣湖口鄉農會碾米廠,新竹縣湖口鄉中勢村中正路二段１８４號,24.893116,121.05034599999999,食品及飼品業,碾榖業,,糙米，搗碎米
旭強鋼鐵有限公司,新竹縣湖口鄉中正村中正路二段１９０號,24.8928833,121.05065900000001,金屬製品業,其他金屬加工處理業,,鐵板裁剪
吉美物流有限公司,新竹縣湖口鄉中正村中正路二段１７８號,24.89237,121.050079,橡膠製品業,其他橡膠製品製造業,,橡膠製品
鼎鏗精密工業股份有限公司,新竹縣湖口鄉中勢村中正路二段１９９號,24.8925915,121.050537,塑膠製品業,其他塑膠製品製造業,,汽機車零件、電腦週邊產品
聯強消防安全設備有限公司湖口廠,新竹縣湖口鄉中正村中正路二段２０３巷１號,24.8927879,121.05086499999999,機械設備業,其他通用機械設備製造業,,消防安全設備批發
金永瀚科技股份有限公司,新竹縣湖口鄉中勢村中正路二段１８７巷６號,24.8929749,121.051064,電腦電子及光學品業,照相機製造業,電子另件,數位相機、網路設備、ＬＣＤ、ＭＯＮＩＴＯＲ等
明峰企業社,新竹縣湖口鄉中勢村中正路二段２０５號１樓,24.892461800000003,121.05056,機械設備業,未分類其他專用機械設備製造業,,其他專用機械設備、通用機械設備代客加工
溢晟工業有限公司,新竹縣湖口鄉中勢村中正路二段１８７巷１號,24.8927727,121.050995,金屬製品業,金屬模具製造業,鋼材,模具
吉勝機械有限公司,新竹縣湖口鄉中正村中正路二段２０３巷１１號,24.8930264,121.05145300000001,機械設備業,其他通用機械設備製造業,,絞線機
名揚光電有限公司,新竹縣湖口鄉中勢村中平路一段３５８號,24.89846,121.05898300000001,電子零組件業,發光二極體製造業,,照明設備、ＬＥＤ封裝、加工
磐昌科技企業股份有限公司湖口廠,新竹縣湖口鄉中勢村中平路一段３８１號１樓,24.8993359,121.057259,電力設備業,電線及電纜製造業,ＰＶＣ料、ＰＶＣ粒、裸銅線、裸銅單線,電腦零件、ＣＡＢＬＥ線
日裕電材股份有限公司長安工廠,新竹縣湖口鄉中勢村中平路一段３１８號,24.899373999999998,121.056541,化學製品業,塗料、染料及顏料製造業,,塗料、染料、其他化學製品
誠富生機食品有限公司,新竹縣湖口鄉長嶺村中平路一段６４５號,24.896562600000003,121.06520800000001,食品及飼品業,蔬果加工及保藏業,,一般食品買賣加工及製造
喬冠塑膠股份有限公司,新竹縣湖口鄉湖口村湖中路１３８號,24.8917751,121.057419,塑膠製品業,塑膠外殼及配件製造業,,塑膠製品
喬冠塑膠股份有限公司,新竹縣湖口鄉湖口村湖中路１３８號,24.8917751,121.057419,塑膠製品業,其他塑膠製品製造業,,塑膠製品
銪成綜合建材有限公司,新竹縣湖口鄉長嶺村中平路一段７０１號,24.8961582,121.066971,木竹製品製造業,合板及組合木材製造業,,木材板
六和金屬有限公司,新竹縣湖口鄉湖口村湖中路２０２號,24.8904629,121.059822,金屬製品業,金屬結構製造業,,金屬製品製造業
隆灃工業股份有限公司新竹廠,新竹縣湖口鄉長嶺村長嶺路１３５號,24.895236999999998,121.072449,汽車及零件業,汽車零件製造業,,金屬手工具及模具，其他金屬製品，通用機械設備，車體，汽車零件，機車及其零件
同榮工業股份有限公司湖口廠,新竹縣湖口鄉長嶺村長嶺路１２９號,24.8953514,121.072029,塑膠製品業,其他塑膠製品製造業,,格子樑、整體浴室及組件、廚具檯面及壁材
金財興股份有限公司,桃園市楊梅區上湖里上湖三路５３１巷６５號１樓,24.9027615,121.079544,塑膠製品業,其他塑膠製品製造業,,碳纖維加工
潤弘精密工程事業股份有限公司楊梅一廠,桃園市楊梅區上湖里泰圳路１４４８號,24.896097199999996,121.088425,非金屬礦物製品業,水泥及混凝土製品製造業,,袋裝泥作材料生產
潤弘精密工程事業股份有限公司楊梅二廠,桃園市楊梅區上湖里泰圳路１４４２號,24.8959789,121.090057,非金屬礦物製品業,水泥及混凝土製品製造業,,預鑄構件生產（樑、柱、版片、水泥製品）
安迦精密工業股份有限公司,新竹縣湖口鄉長嶺村長嶺路７８５號,24.893426899999998,121.087471,金屬製品業,金屬模具製造業,,模具
翔鋐企業有限公司,新竹縣湖口鄉長嶺村長嶺路５４７巷５５、５７號,24.8942966,121.08279399999999,汽車及零件業,汽車零件製造業,,鋼板
東裕科技有限公司,新竹縣湖口鄉長嶺村八德路三段１１巷３３號,24.8905182,121.086052,電力設備業,其他電力設備及配備製造業,,其他電力器材
聯懿金屬股份有限公司楊梅廠,桃園市楊梅區上湖里中山南路８００巷１８８號（１樓、２樓）,24.896841000000002,121.103477,金屬製品業,金屬建築組件製造業,,其它金屬結構、建築組件
新航保麗龍股份有限公司二廠,桃園市楊梅區上湖里中山南路８００巷１０８號,24.8970261,121.106171,塑膠製品業,塑膠外殼及配件製造業,,塑膠製品
全興國際水產股份有限公司,桃園市楊梅區上湖里中山南路８００巷１０６號、１０６之１號,24.8972836,121.10710900000001,食品及飼品業,動物飼品製造業,,魚粉（輔助飼料）、礦物質（配合飼料）
元昶玻璃股份有限公司,桃園市楊梅區上湖里中山南路８００巷１００號,24.897424700000002,121.107674,非金屬礦物製品業,其他玻璃及其製品製造業,,強化玻璃、膠合玻璃
佳和桂科技股份有限公司楊梅廠,桃園市楊梅區頭湖里中山南路８００巷９８弄１０號（Ａ棟（１、２樓）、Ｂ棟、Ｃ棟、Ｄ棟、Ｅ棟）,24.9004917,121.108475,藥品及醫用化學品業,原料藥製造業,,原料藥（人體、動物均有）
全科企業股份有限公司楊梅廠,桃園市楊梅區三湖里中山南路８００巷９８弄８號,24.9002075,121.10908500000001,塑膠製品業,其他塑膠製品製造業,,膠帶、黏性膠帶加工
新航保麗龍股份有限公司,桃園市楊梅區三湖里中山南路８００巷９８弄６號,24.899723100000003,121.10936699999999,塑膠製品業,塑膠外殼及配件製造業,,塑膠製品
宜彥有限公司楊梅廠,桃園市楊梅區三湖里７鄰中山南路８００巷９８弄２號,24.8983669,121.110229,紙漿、紙及紙製品業,瓦楞紙板及紙容器製造業,,膠帶用紙管，一般用紙管
仁鎂科技股份有限公司二廠,桃園市楊梅區頭湖里中山南路８００巷９８弄２之１號,24.8983669,121.110229,基本金屬業,鋁鑄造業,,其他非鐵金屬基本工業（鋁鑄件＋鎂鑄件）
仁鎂科技股份有限公司,桃園市楊梅區頭湖里中山南路８００巷９８弄２之２號,24.8983669,121.110229,基本金屬業,鋁鑄造業,,其他非鐵金屬基本工業（鋁鑄件＋鎂鑄件）
綠電再生股份有限公司楊梅廠,桃園市楊梅區頭湖里泰圳路３１３巷１２８號,24.9007072,121.11003899999999,基本金屬業,其他基本金屬鑄造業,,其他基本金屬鑄造品
雄盛工業股份有限公司楊梅二廠,桃園市楊梅區頭湖里泰圳路３１３巷１２０號１樓,24.901629999999997,121.110352,汽車及零件業,汽車零件製造業,,汽車零件
雄聖科技有限公司二廠,桃園市楊梅區頭湖里泰圳路３１３巷１２０號１樓,24.901629999999997,121.110352,汽車及零件業,汽車零件製造業,,汽車零件
雄盛工業股份有限公司楊梅一廠,桃園市楊梅區頭湖里泰圳路３１３巷１２０號１樓,24.901629999999997,121.110352,汽車及零件業,汽車零件製造業,,汽車零件
雄聖科技有限公司,桃園市楊梅區頭湖里泰圳路３１３巷１２０號２樓,24.901629999999997,121.110352,汽車及零件業,汽車零件製造業,,汽車零件
精冶科技工業股份有限公司,桃園市楊梅區頭湖里泰圳路４４１巷２７號,24.9024677,121.110115,基本金屬業,鋼鐵鑄造業,,高級強韌鑄鐵、球狀石墨鑄鐵、汽車模具
誠宇鋼管股份有限公司楊梅廠,桃園市楊梅區頭湖里泰圳路３１３巷１１８號,24.901825,121.11066399999999,基本金屬業,鋼鐵軋延及擠型業,,鋼鐵
誠栩木業有限公司,桃園市楊梅區頭湖里泰圳路３１３巷１１６號,24.9025116,121.11135900000001,木竹製品製造業,其他木竹製品製造業,,木箱墊木板
台灣明尼蘇達礦業製造股份有限公司楊梅廠,桃園市楊梅區三湖里中山南路８００巷６６號,24.89995,121.112228,電子零組件業,液晶面板及其組件製造業,,平面顯示增光片
城紹科技股份有限公司二廠,桃園市楊梅區東流里中山南路７６４號１樓,24.902103399999998,121.123306,其他製造業,體育用品製造業,,運動器材
城億科技股份有限公司,桃園市楊梅區東流里中山南路７６２號１樓,24.9021511,121.12343600000001,其他製造業,體育用品製造業,,各種健身運動器材
城紹科技股份有限公司,桃園市楊梅區東流里中山南路７６０號,24.9021969,121.12352800000001,其他製造業,體育用品製造業,,塑膠布縫合、運動器材
吉宏鉚釘工業股份有限公司楊梅廠,桃園市楊梅區頭湖里泰圳路３１３巷６６號,24.904588699999998,121.11276200000002,金屬製品業,螺絲、螺帽及鉚釘製造業,,螺絲、鉚釘
友成玻璃纖維股份有限公司楊梅廠,桃園市楊梅區三湖里泰圳路２００巷５弄２號,24.90612,121.112137,塑膠製品業,其他塑膠製品製造業,玻璃纖維、樹脂、硬化劑、離型劑、色膏、保利膠,玻璃纖維製品
耀洋科技有限公司,桃園市楊梅區東流里甡甡路７３７號,24.8915482,121.123314,電子零組件業,未分類其他電子零組件製造業,,電子零組件、配件
新得實業股份有限公司,新竹縣新豐鄉上坑村坑子口１０４之８號,24.8824959,120.97649399999999,機械設備業,紡織、成衣及皮革生產用機械設備製造業,鎢鋼、合金鋼、瓷導,紡織機零件加工
三陽工業股份有限公司新豐廠,新竹縣新豐鄉上坑村２鄰坑子口１８４號,24.8832436,120.977852,其他運輸工具零件業,機車零件製造業,,機車零件加工
蓮花工業股份有限公司門窗廠,新竹縣新豐鄉上坑村坑子口４３２之３號,24.8895626,120.97711899999999,基本金屬業,鋁材軋延、擠型及伸線業,,鋁材，鋁門窗，鋁梯
蓮花工業股份有限公司,新竹縣新豐鄉上坑村坑子口４３８、４３８之１、４３９之１號,24.888853100000002,120.9776,基本金屬業,鋁材軋延、擠型及伸線業,,鋁材，鋁門窗，鋁梯
蓮花工業股份有限公司化合廠,新竹縣新豐鄉上坑村坑子口４３８號,24.888853100000002,120.9776,基本金屬業,鋁材軋延、擠型及伸線業,,鋁材
九州鋁業股份有限公司一廠,新竹縣新豐鄉上坑村坑子口４３９號,24.888853100000002,120.9776,基本金屬業,鋁材軋延、擠型及伸線業,,建築用鋁擠型材、鋁門窗
必翔電動汽車股份有限公司,新竹縣新豐鄉上坑村２鄰坑子口１６９號,24.882541699999997,120.97918700000001,汽車及零件業,汽車製造業,,電動汽車及其零組件製造業
京麒有限公司,新竹縣新豐鄉上坑村７鄰坑子口４７０之１１號,24.887586600000002,120.985863,機械設備業,金屬切削工具機製造業,砂輪,鑄件研磨
博一電子企業股份有限公司,新竹縣新豐鄉重興村建興路二段３２５號１樓,24.887311899999997,120.98770900000001,電子零組件業,印刷電路板製造業,,電子零件加工
亮雲科技股份有限公司,新竹縣新豐鄉上坑村坑子口４６４之１號１樓,24.888486899999997,120.98263500000002,機械設備業,電子及半導體生產用機械設備製造業,,電子及半導體生產用機械設備
晟普股份有限公司新豐廠,新竹縣新豐鄉重興村建興路二段３６９號,24.8886681,120.98744199999999,金屬製品業,未分類其他金屬製品製造業,,機械零件加工
鼎新金屬股份有限公司新豐廠,新竹縣新豐鄉重興村建興路二段３７２號１樓,24.88876,120.98744199999999,金屬製品業,未分類其他金屬製品製造業,,金屬瓶蓋
鼎立金屬包裝股份有限公司,新竹縣新豐鄉重興村建興路二段３７２號,24.88876,120.98744199999999,金屬製品業,其他金屬容器製造業,,啤酒、飲料用鋁鐵罐
鴻億棉業股份有限公司,新竹縣新豐鄉重興村建興路二段３９３之１號１樓,24.889522600000003,120.987068,紡織業,其他紡織品製造業,,棉被，枕頭，被套，登山睡袋，蠶絲被，羽毛
琖太工業有限公司,新竹縣新豐鄉重興村建興路二段３９３號１樓,24.889522600000003,120.987068,金屬製品業,未分類其他金屬製品製造業,,其它未分類金屬製品製造
泉州實業有限公司,新竹縣新豐鄉重興村建興路二段３９３號１樓,24.889522600000003,120.987068,其他運輸工具零件業,機車零件製造業,,機車輪胎加工
源鼎宏實業有限公司第一廠,新竹縣新豐鄉重興村建興路二段３９３號１樓,24.889522600000003,120.987068,化學製品業,塗料、染料及顏料製造業,,塗料及油漆製造
東立企業股份有限公司,新竹縣新豐鄉崎頂村１５鄰建興路二段３９３號,24.889522600000003,120.987068,化學材料業,人造纖維製造業,,伸縮尼龍絲
勤美股份有限公司,新竹縣新豐鄉上坑村４８８號,24.8899021,120.986061,基本金屬業,鋼鐵鑄造業,,鑄迼類：高級鑄鐵、汽車零件、連座軸承
桃信實業股份有限公司,新竹縣新豐鄉重興村建興路二段４１９號,24.8900337,120.98721299999998,紡織業,染整業,,壓克力纖維紗，混紡紗之染色整理
產益電工廠,新竹縣新豐鄉崎頂村１鄰建興路二段１４５號,24.8849487,120.99056200000001,電子零組件業,未分類其他電子零組件製造業,,連接器（含電子插接頭）
源盛爐機械股份有限公司,新竹縣新豐鄉上坑村坑子口４５３號,24.8888855,120.98056799999999,金屬製品業,未分類其他金屬製品製造業,盤元,鋼珠
台寶樹脂化工股份有限公司新豐廠,新竹縣新豐鄉新豐村建興路二段４５２巷１０號,24.88958,120.9893,塑膠製品業,塑膠外殼及配件製造業,,ＥＰＰ塑膠粒及其製品
昱錩企業社,新竹縣新豐鄉重興村建興路二段１０９號,24.88472,120.99136399999999,機械設備業,冶金機械製造業,,機械零件
富恩工業股份有限公司,新竹縣新豐鄉員山村１鄰員山１４號,24.885583899999997,120.99726100000001,金屬製品業,未分類其他金屬製品製造業,,法蘭箱
邁特電子企業股份有限公司,新竹縣新豐鄉員山村２鄰員山４０號,24.8875217,121.00221299999998,電腦電子及光學品業,視聽電子產品製造業,,控制卡，隨身碟，視聽電子產品，電腦週邊ＣＡＲＤ，其他電子產品控制卡等
邁特電子企業股份有限公司二廠,新竹縣新豐鄉員山村２鄰員山路４１之１號,24.887970000000003,121.00164,電腦電子及光學品業,視聽電子產品製造業,,無線網卡．隨身碟．控制卡
昱晁科技股份有限公司第二廠,新竹縣新豐鄉員山村員山５號１樓,24.8856888,120.995857,電子零組件業,未分類其他電子零組件製造業,,ｐｃ板代工
大笙彎管有限公司,新竹縣新豐鄉員山村２鄰員山３９之２號１樓,24.88942,121.001305,金屬製品業,未分類其他金屬製品製造業,,鋁門窗
保怡有限公司,新竹縣新豐鄉員山村忠信街４１２號,24.8820915,120.99568899999998,金屬製品業,未分類其他金屬製品製造業,圓棒（不銹鋼棒）,五金零件、機械零件
駿林工業股份有限公司,新竹縣新豐鄉員山村忠信街４２８巷１號,24.88252,120.99530800000001,基本金屬業,鋁鑄造業,,鋁壓鑄製品、汽機車零件加工
屏榮食品股份有限公司新豐廠,新竹縣新豐鄉中崙村９鄰中崙２８９之３號,24.886995300000002,121.005623,食品及飼品業,屠宰業,,肉類處理及其製品，蔬果處理及其製品，其他食品
美得運企業有限公司,新竹縣新豐鄉中崙村中崙３０４號,24.889120000000002,121.004395,其他運輸工具零件業,機車零件製造業,,機車及其零件、其他運輸工具及其零件
常宏興業股份有限公司新豐廠,新竹縣新豐鄉員山路１３２號,24.8810425,121.00515700000001,汽車及零件業,汽車零件製造業,不銹鋼板,汽車零件
臺灣富美家股份有限公司新豐廠,新竹縣新豐鄉中崙村中崙２８９之１號,24.8862782,121.00752299999999,木竹製品製造業,合板及組合木材製造業,,裝飾耐火板、工業耐火板
福比股份有限公司,新竹縣新豐鄉中崙村９鄰中崙２８９－５號,24.886478399999998,121.007622,食品及飼品業,烘焙炊蒸食品製造業,,麵包、土司類產品
大瑄科技宏業有限公司,新竹縣新豐鄉中崙村９鄰中崙２８９之２號２樓,24.8865528,121.008,電力設備業,配線器材製造業,,電線及配線器材，其他電力設備，其他專用機械設備，通用機械設備
南港輪胎股份有限公司新豐廠,新竹縣新豐鄉員山村新興路３９９號,24.88118,121.00808,橡膠製品業,輪胎製造業,,輪胎生產與製造
祥普精密工業股份有限公司,新竹縣新豐鄉員山村新興路４０３號,24.88118,121.00808,金屬製品業,金屬模具製造業,,模具
晶陽科技股份有限公司,新竹縣新豐鄉員山村精工路５５號、５５號２樓、５５號３樓,24.8764648,120.99968,金屬製品業,未分類其他金屬製品製造業,,專用生產機械
昊松有限公司,新竹縣湖口鄉鳳凰村新興路６０８號,24.87965,121.007423,金屬製品業,未分類其他金屬製品製造業,,雷射加工、金屬板材裁切加工
總興機械股份有限公司,新竹縣湖口鄉波羅村新興路８６２號,24.8842163,121.013306,機械設備業,其他通用機械設備製造業,,工程用機械、公共工程
億升工業股份有限公司,新竹縣新豐鄉中崙村新興路８９９號,24.8853741,121.012276,汽車及零件業,汽車零件製造業,,各種汽車材料（車身沖壓件）汽車零件
台灣普熙股份有限公司,新竹縣湖口鄉波羅村成功路１２８８號,24.8871517,121.01611299999999,機械設備業,泵、壓縮機、活栓及活閥製造業,,真空泵設備
欣彤欣實業股份有限公司,新竹縣湖口鄉波羅村新興路８３８巷３號,24.8837547,121.012794,金屬製品業,其他金屬加工處理業,,金屬五金加工
昱玨股份有限公司湖口廠,新竹縣湖口鄉波羅村成功路１２７８、１２８０號,24.8872337,121.0163,機械設備業,其他金屬加工用機械設備製造業,,機械零組件
太陽神汽車美容資材商行,新竹縣湖口鄉波羅村成功路１２６６號,24.8872929,121.016411,化學製品業,清潔用品及化粧品製造業,,洗車精
台灣樹強股份有限公司,新竹縣湖口鄉波羅村６鄰成功路１２６０號,24.887331,121.01651000000001,紡織業,不織布業,,氣（液）體過瀘器
輝瑞生技股份有限公司新竹廠,新竹縣新豐鄉中崙村中崙２９０之１號,24.8861332,121.011223,藥品及醫用化學品業,原料藥製造業,,西藥、維生素
永鴻國際生技股份有限公司新竹廠,新竹縣新豐鄉中崙村中崙２９０之３號,24.8850574,121.010094,食品及飼品業,動物飼品製造業,,動物用輔助飼料
志航企業有限公司,新竹縣湖口鄉鳳凰村新興路７６０號,24.882206,121.01043700000001,塑膠製品業,其他塑膠製品製造業,,容器及配件、工具盒、磁碟隔板
士林電機廠股份有限公司新豐廠,新竹縣新豐鄉中崙村７鄰中崙２３４號,24.8900185,121.0174,電力設備業,發電、輸電及配電機械製造業,,無熔絲斷路器、電磁開關、電容器
上躍工業股份有限公司湖口廠,新竹縣湖口鄉波羅村成功路１０１１號,24.8886585,121.01939399999999,汽車及零件業,汽車零件製造業,,五金機械工作母機之附屬零件汽車
發能機械工程有限公司,新竹縣湖口鄉鳳凰村新興路７０２巷１０號,24.880823100000004,121.009621,機械設備業,金屬切削工具機製造業,,廠房鋼結構
延懿企業有限公司,新竹縣湖口鄉波羅村７鄰光華路６５巷３８號１樓,24.8791866,121.0125,金屬製品業,其他金屬加工處理業,,金屬加工
競輪企業有限公司,新竹縣湖口鄉鳳凰村光華路９巷３６號,24.8789215,121.00868999999999,化學製品業,未分類其他化學製品製造業,,化學原料銷售
華隆汽車修理股份有限公司,新竹縣湖口鄉鳳凰村中華路１２２之９號,24.8772087,121.01136799999999,汽車及零件業,汽車零件製造業,,汽車門框／車門後扭
立隆塑膠工業股份有限公司,新竹縣湖口鄉波羅村八德路一段３巷３６號,24.885839999999998,121.024178,塑膠製品業,塑膠膜袋製造業,,塑膠袋製品
吉麒科技股份有限公司,新竹縣湖口鄉波羅村１１鄰三元路一段３９２巷５８號,24.885519,121.03086100000002,機械設備業,其他通用機械設備製造業,,ＲＯ、ＵＦ膜
吉麒科技股份有限公司第二廠,新竹縣湖口鄉波羅村１１鄰三元路一段３９２巷５８號３樓,24.885519,121.03086100000002,機械設備業,其他通用機械設備製造業,,ＲＯ、ＵＦ膜
忠憶企業社,新竹縣湖口鄉波羅村１１鄰三元路一段３７８號,24.88389,121.030273,塑膠製品業,其他塑膠製品製造業,,保利龍裁剪加工
萬章興業有限公司,新竹縣湖口鄉波羅村１１鄰千禧路９１巷６７號,24.8872833,121.027946,金屬製品業,其他金屬容器製造業,,金屬容器
賈源塑膠股份有限公司,新竹縣湖口鄉波羅村八德路一段２００巷２０號,24.8817482,121.03,塑膠製品業,塑膠外殼及配件製造業,,塑膠製品、汽車、電視外殼、冰箱
逸成有限公司,新竹縣湖口鄉波羅村八德路一段２００巷２０號,24.8817482,121.03,汽車及零件業,汽車零件製造業,,汽車零件
振弘科技股份有限公司,新竹縣湖口鄉八德路一段６７號,24.88477,121.025154,機械設備業,電子及半導體生產用機械設備製造業,,空氣軸承龍門平臺．精密定位平臺．花崗岩平臺．馬達平臺次系統
華貿電機股份有限公司,新竹縣湖口鄉波羅村三元路一段５７５巷３號,24.887291,121.02506299999999,電力設備業,發電、輸電及配電機械製造業,,匯流排設備
一穎企業有限公司,新竹縣湖口鄉信義村信興路３９８號,24.888279999999998,121.025627,紙漿、紙及紙製品業,瓦楞紙板及紙容器製造業,,瓦楞紙板（箱）製造
奎茂紙器實業有限公司,新竹縣湖口鄉波羅村１１鄰三元路一段８１號,24.8821487,121.03364599999999,紙漿、紙及紙製品業,瓦楞紙板及紙容器製造業,,紙容器製造
國欣木業股份有限公司,新竹縣湖口鄉八德路一段２８５號,24.8817768,121.03338600000001,木竹製品製造業,其他木竹製品製造業,,木箱、棧板
日富鐵工廠,新竹縣湖口鄉波羅村八德路一段３１５號,24.88085,121.033829,金屬製品業,螺絲、螺帽及鉚釘製造業,,螺絲、鉚釘
宏德鐵材有限公司,新竹縣湖口鄉信義村忠義路二段１６３號,24.888834,121.0353,金屬製品業,金屬結構製造業,,鋼筋
科逸國際股份有限公司,新竹縣湖口鄉鳳凰村中湖路４２１巷１號,24.8776741,121.027657,非金屬礦物製品業,未分類其他非金屬礦物製品製造業,石英玻璃,石英製品、電子零組件
美商電能動力科技股份有限公司台灣分公司,新竹縣湖口鄉鳳凰村中湖路４１９巷８號,24.87746,121.028252,塑膠製品業,其他塑膠製品製造業,,塑料產品加工，廢塑料裂解
和隆興業股份有限公司新竹廠,新竹縣湖口鄉湖南村中山路一段２號,24.8808784,121.03706399999999,非金屬礦物製品業,黏土建築材料製造業,,陶板
琨鈺企業有限公司,新竹縣湖口鄉湖鏡村湖鏡段１２６號,24.8835068,121.03988600000001,非金屬礦物製品業,預拌混凝土製造業,,預拌混凝土
大晶木業開發有限公司,新竹縣湖口鄉湖南村信湖路５１號,24.883604000000002,121.03973400000001,木竹製品製造業,其他木竹製品製造業,,木板
盛鴻光電股份有限公司,新竹縣湖口鄉湖南村１５鄰八德路一段５３９巷７號,24.8785076,121.045677,非金屬礦物製品業,其他玻璃及其製品製造業,,玻璃面板
德儱企業有限公司,新竹縣湖口鄉湖南村南勢１３鄰八德路一段３６５號,24.880073499999998,121.038315,金屬製品業,未分類其他金屬製品製造業,銅排、鋁排,變壓器附件
皇科太陽能科技股份有限公司,新竹縣湖口鄉中正村中正路二段１７５巷１號,24.8904514,121.05163600000002,機械設備業,其他金屬加工用機械設備製造業,,光電設備維修
庫葉科技有限公司,新竹縣湖口鄉中正村９鄰中正路二段１７５巷１０、１２號,24.89049,121.05163600000002,汽車及零件業,汽車零件製造業,,汽機車零件生產製造、衛星天線、醫療設備、家具
勤育塑膠工業有限公司,新竹縣湖口鄉湖口村中美東路１３０號,24.8865585,121.055733,塑膠製品業,其他塑膠製品製造業,,塑膠製品
湛能科技股份有限公司,新竹縣湖口鄉湖鏡村中正路三段２４９巷１７號１樓,24.8820534,121.05583999999999,非金屬礦物製品業,未分類其他非金屬礦物製品製造業,,石英器具加工
世昌工業社,新竹縣湖口鄉湖鏡村中正路三段１６２巷１６號,24.883112,121.054123,木竹製品製造業,其他木竹製品製造業,,木竹製品
一澤貿易有限公司,新竹縣湖口鄉湖口村長富路一段６０號,24.8814716,121.063515,家具業,木製家具製造業,,木製家具
吉莉科技股份有限公司,新竹縣湖口鄉湖口村長富路一段１５０巷７６弄９號,24.884016,121.0659,其他製造業,其他未分類製造業,,洗衣服務
三進鐵箱有限公司,新竹縣湖口鄉湖口村長富路一段６８巷７２號,24.8827343,121.06561299999998,金屬製品業,未分類其他金屬製品製造業,,鐵箱
嘉新製材工廠,新竹縣湖口鄉湖鏡村中正路三段３５５號,24.8784714,121.055252,木竹製品製造業,其他木竹製品製造業,原木等,木材
新竹縣湖口鄉農會農產加工廠,新竹縣湖口鄉湖口村八德路二段５５０號,24.882679,121.07267,食品及飼品業,碾榖業,,糙米、搗碎米
久聯化學工業股份有限公司,新竹縣湖口鄉湖口村２３鄰祥喜路８８號,24.8810673,121.074455,化學材料業,合成橡膠原料製造業,,合成橡膠乳液、聚氨酸發泡原液、強化塑膠複合熟料、食品包裝材料
嘉普科技股份有限公司二廠,新竹縣湖口鄉八德路二段６５６號３、４樓,24.88477,121.078392,電力設備業,電池製造業,,電池模組
嘉普科技股份有限公司,新竹縣湖口鄉湖口村八德路二段４７１號４樓,24.8860283,121.07941399999999,電力設備業,電池製造業,,電池模組
新普科技股份有限公司,新竹縣湖口鄉湖口村１１鄰八德路二段４７１號１樓、２樓、３樓,24.8860283,121.07941399999999,電力設備業,電池製造業,,筆記型電腦用電池組
潔鄉化學工業有限公司,新竹縣湖口鄉長嶺村八德路二段５１１巷２１號,24.8868542,121.079247,化學製品業,清潔用品及化粧品製造業,,洗衣精、洗潔劑、清潔劑
皓裕機械有限公司,新竹縣湖口鄉湖口村祥喜路１７５號、１８３號、１８９號、２０１號、２０７號,24.8803768,121.07701899999999,金屬製品業,金屬建築組件製造業,,鋼模製造
金品實業有限公司湖口廠,新竹縣湖口鄉湖口村祥喜路１７６號,24.8803768,121.07701899999999,食品及飼品業,製茶業,,茶葉
溢灥股份有限公司羊喜窩廠,新竹縣湖口鄉湖口村２３鄰祥喜路１７０巷１１、１１之１號,24.879673,121.076553,汽車及零件業,汽車零件製造業,,汽車零件
定鞍有限公司,新竹縣湖口鄉湖口村祥喜路１９７號,24.8799782,121.077477,金屬製品業,其他金屬加工處理業,,箱體
光德科技有限公司,新竹縣湖口鄉湖口村２３鄰祥喜路２０９號,24.879674899999998,121.078239,金屬製品業,未分類其他金屬製品製造業,,精密金屬零件加工
豐碩工業股份有限公司,新竹縣湖口鄉湖口村２３鄰祥喜路２１０號,24.8796463,121.078308,基本金屬業,鋁材軋延、擠型及伸線業,鋁片,鋁蓋
東源企業股份有限公司湖口廠,新竹縣湖口鄉湖口村祥喜路２１１號,24.8796463,121.078308,汽車及零件業,汽車零件製造業,,主要產品擾流板進貨包裝
立環鋼業有限公司,新竹縣湖口鄉湖口村祥喜路２１３號,24.8796463,121.078308,基本金屬業,鋼鐵軋延及擠型業,,鐵板
宸和工業有限公司,新竹縣湖口鄉湖口村祥喜路２０８巷１８號１樓,24.878757500000003,121.077347,金屬製品業,其他金屬加工處理業,,塑木
建豐住宅股份有限公司,新竹縣湖口鄉湖口村祥喜路２０８巷１８號２樓,24.878757500000003,121.077347,金屬製品業,金屬建築組件製造業,,金屬結構及建築組件
國喬粘劑股份有限公司,新竹縣湖口鄉長嶺村中平路二段６０６號,24.8900032,121.08010900000001,非金屬礦物製品業,黏土建築材料製造業,,瓷磚粘著劑、填縫劑、鏝石泥、耐磨砂漿
昶緣興化學工業股份有限公司新竹廠,新竹縣湖口鄉湖口村祥喜路２０８巷１１號,24.8788357,121.078255,化學製品業,塗料、染料及顏料製造業,,硫酸銅、特用化學品
佳興螺絲工業股份有限公司新竹廠,新竹縣湖口鄉湖口村祥喜路２２６巷１號,24.878973000000002,121.078873,金屬製品業,螺絲、螺帽及鉚釘製造業,,螺絲
莊佳有限公司,新竹縣湖口鄉湖口村祥喜路２２６巷１號,24.878973000000002,121.078873,金屬製品業,螺絲、螺帽及鉚釘製造業,,螺絲
佶興螺絲工廠新竹廠,新竹縣湖口鄉湖口村祥喜路２２６巷１號,24.878973000000002,121.078873,金屬製品業,螺絲、螺帽及鉚釘製造業,,螺絲
旻業工業股份有限公司,新竹縣湖口鄉湖口村祥喜路２４５號,24.8792973,121.07991000000001,金屬製品業,金屬模具製造業,,汽車零件、模具
統一企業股份有限公司新竹湖口廠,新竹縣湖口鄉長嶺村八德路三段３０號,24.888708100000002,121.088692,食品及飼品業,未分類其他食品製造業,,其他食品、冰塊
欣利食品行,新竹縣湖口鄉長安村長安路１４２號,24.8858967,121.091858,食品及飼品業,麵條及粉條類食品製造業,,麵條、版條
合昌實業股份有限公司,新竹縣湖口鄉長安村長安路２２３號,24.8846016,121.09389499999999,紡織業,染整業,,各種混紡紗，染色
鈞裕機械有限公司,新竹縣湖口鄉長安村９鄰長興路１３巷１７號,24.886,121.094086,機械設備業,其他通用機械設備製造業,,輸送機、配管、食品機械維修及安裝、機械代工
立丞企業有限公司,新竹縣湖口鄉中平路二段６４７號１、２樓,24.889751399999998,121.084854,紙漿、紙及紙製品業,瓦楞紙板及紙容器製造業,,免洗餐具
曹科股份有限公司,新竹縣湖口鄉長安村長興路５１號,24.885835600000004,121.09539,機械設備業,電子及半導體生產用機械設備製造業,,ＰＵＭＰ、ＶＡＬＶＥ、ＶＭＢ、ＣＤＭ
台灣精材股份有限公司,新竹縣湖口鄉長安村長春路５６號,24.8880119,121.095467,機械設備業,電子及半導體生產用機械設備製造業,,半導體耗材ＱＵＡＲＴＺ、ＣＥＲＡＭＩＣ、ＳＩＬＩＣＯ
清雲企業社,桃園市楊梅區東流里甡甡路６９３巷７弄１３號,24.8911018,121.125107,塑膠製品業,其他塑膠製品製造業,塑膠粒,塑膠射出製品
世和紙管工業股份有限公司,桃園市楊梅區大平里秀才路７４５號,24.8914547,121.1358,紙漿、紙及紙製品業,未分類其他紙製品製造業,灰紙板、牛皮紙、羊皮、膠,紙管
鐵牛機械股份有限公司楊梅廠,桃園市楊梅區大平里秀才路７６９巷２之１號,24.891233399999997,121.13649,機械設備業,輸送機械設備製造業,,船用起重機、吊車、卡車、輸送機、另件
東侑包裝企業有限公司,桃園市楊梅區大平里秀才路７６９巷２號,24.891233399999997,121.13649,木竹製品製造業,木質容器製造業,,包裝材料
中華汽車工業股份有限公司楊梅廠,桃園市楊梅區秀才里秀才路６１８號,24.892120000000002,121.134727,汽車及零件業,汽車製造業,,小型商用車，轎車，３．５噸以上大車
久尹股份有限公司,桃園市楊梅區東流里甡甡路６２３巷１６０號,24.890636399999998,121.1272,電子零組件業,未分類其他電子零組件製造業,,電子產品（壓敏電阻、熱敏電阻）
久尹股份有限公司二廠,桃園市楊梅區東流里甡甡路６２３巷１６０號,24.890636399999998,121.1272,機械設備業,其他通用機械設備製造業,,機器設備製造
涵群精密股份有限公司,桃園市楊梅區大平里秀才路７６９巷１２號,24.8917389,121.13755800000001,其他運輸工具零件業,自行車零件製造業,,自行車另件加工、縫紉機零件
宜康食品有限公司,桃園市楊梅區東流里甡甡路６９３巷１１弄２號,24.8908043,121.126015,食品及飼品業,乳品製造業,奶粉、砂糖,乳品、其他食品
新美光股份有限公司楊梅工廠,桃園市楊梅區秀才里秀才路８４５巷２５０號,24.884237300000002,121.14149499999999,化學製品業,塗料、染料及顏料製造業,,油墨
圳泰精密工業有限公司,桃園市楊梅區永寧里校前路９２８巷１４５號,24.8844147,121.147484,機械設備業,其他通用機械設備製造業,,機械零件
台灣噴筆器材股份有限公司,桃園市楊梅區永寧里１鄰校前路９８８號,24.8862152,121.14951299999998,其他製造業,其他未分類製造業,,美工噴筆及槍其空氣壓縮器
大耀寶股份有限公司二廠,桃園市楊梅區秀才里秀才路８４５巷２５８號,24.8832436,121.14243300000001,汽車及零件業,汽車零件製造業,,汽車及零件，其他未列名汽車零組件
鑫梅企業股份有限公司,桃園市楊梅區秀才里秀才路８４５巷２６０號,24.88308,121.142372,汽車及零件業,汽車零件製造業,,汽車及五金零件
日陽包裝實業股份有限公司,桃園市楊梅區永寧里老莊路２８１號,24.892167999999998,121.157082,塑膠製品業,其他塑膠製品製造業,,食品包裝容器
首爾富企業有限公司,新竹縣竹北市尚義里鳳岡路五段６４６號１樓,24.87259,120.95441399999999,食品及飼品業,蔬果加工及保藏業,,泡菜
高慶生技股份有限公司,新竹縣竹北市崇義里蓮花路２２３巷１００號１樓,24.868116399999998,120.956718,食品及飼品業,磨粉製品製造業,,碾榖、磨粉及澱粉製品，其他食品
台灣雅色國際股份有限公司,新竹縣竹北市崇義里蓮花路２２３巷１０２號,24.868076300000002,120.956604,化學製品業,清潔用品及化粧品製造業,,臉部護膚品、養護頭皮產品
百事程有限公司,新竹縣竹北市尚義里８鄰蓮花路２４６巷１３６弄３０號,24.8683643,120.9624,金屬製品業,其他金屬加工處理業,,金屬加工處理，未分類其他運輸工具及其零件
保安企業商行,新竹縣竹北市尚義里蓮花路１６８巷４９號,24.8665829,120.96111299999998,塑膠製品業,其他塑膠製品製造業,塑膠粒（料）,１、塑膠拖鞋２、塑膠滾輪
瑞毅科技股份有限公司,新竹縣竹北市聯興里環北路三段２２６號２樓,24.865880999999998,120.95070600000001,電腦電子及光學品業,其他電腦週邊設備製造業,,其他電腦設備及其零組件
中國化學製藥股份有限公司新豐二廠,新竹縣新豐鄉上坑村２鄰坑子口１８２號,24.8733234,120.979156,藥品及醫用化學品業,西藥製造業,,西葯品
中國化學製藥股份有限公司新豐工廠,新竹縣新豐鄉上坑村坑子口１８２之１號,24.8733234,120.979156,藥品及醫用化學品業,西藥製造業,ＡＣＥＴＡＭＩＮＯＰＨＥＮ、ＡＥ、ＨＹＤ,人用部份（西藥劑型：顆粒、錠、糖衣錠）
大林興業有限公司,新竹縣竹北市大義里鳳岡路三段８６號,24.86409,120.96671299999998,紡織業,紡織製成品製造業,紗,胚布，紡織布
信傑實業股份有限公司,新竹縣新豐鄉松林村３鄰康樂路一段３６１巷７４號１樓,24.8703079,120.98445900000002,機械設備業,電子及半導體生產用機械設備製造業,,ＩＣＴＥＳＴＨＡＮＤＥＲ
大山工業社,新竹縣新豐鄉松林村康樂路一段３６１巷８０號,24.870183899999997,120.98436000000001,金屬製品業,未分類其他金屬製品製造業,,五金、機械零件
清山米店,新竹縣新豐鄉松柏村康和路６２號,24.873089999999998,120.983116,食品及飼品業,烘焙炊蒸食品製造業,,其他食品
思達科技股份有限公司新豐廠,新竹縣新豐鄉松柏村德昌街１３６號,24.86751,120.985382,電子零組件業,未分類其他電子零組件製造業,,Ｔｅｓｔ＆Ｍｅａｓｕｒｅｍｅｎｔ ｍａｃｈｉｎｅ、Ｐｒｏｂｅ Ｃａｒｄ
美菱股份有限公司新竹廠,新竹縣新豐鄉松柏村７鄰德昌街１３６號,24.86751,120.985382,紡織業,其他紡織品製造業,,花式燃紗
新竹物流股份有限公司,新竹縣新豐鄉松柏村德昌街２２８號,24.8673534,120.983093,汽車及零件業,汽車零件製造業,,汽車及其零件、機車及其零件
廣化科技股份有限公司,新竹縣新豐鄉松林村康樂路１６９之２號３樓,24.8670044,120.987427,機械設備業,其他金屬加工用機械設備製造業,,晶圓分類機、雙頭自動組焊機
台灣精密工具股份有限公司螺絲攻工廠,新竹縣新豐鄉松林村康樂路一段１６９之２號地下一樓、１樓、２樓,24.8680248,120.989189,金屬製品業,金屬刀具及手工具製造業,,切削工具、螺絲工、鑽頭
哲良企業股份有限公司,新竹縣新豐鄉松林村康樂路一段１６９之５、１６９之８號,24.8680248,120.989189,機械設備業,其他金屬加工用機械設備製造業,,成型機、臺車、滾筒、成型筒
世騰工業有限公司,新竹縣新豐鄉松林村康樂路一段１６９之５號１樓,24.8680248,120.989189,機械設備業,橡膠及塑膠加工用機械設備製造業,,橡膠加工用機械、其他機械
普發真空科技股份有限公司,新竹縣新豐鄉松林村康樂路一段１６９之９號,24.8680248,120.989189,機械設備業,泵、壓縮機、活栓及活閥製造業,,１．真空ＰＵＭＰ及２．測漏儀
台灣精密工具股份有限公司,新竹縣新豐鄉松林村康樂路一段１６９號,24.8680248,120.989189,金屬製品業,金屬刀具及手工具製造業,,切削工具、螺絲工、鑽頭
矽碁科技股份有限公司,新竹縣新豐鄉松林村１５鄰康樂路一段１６９之３號,24.8680248,120.989189,機械設備業,其他通用機械設備製造業,幫浦，針空計，腔體，閥門等,濺鍍機、等
興立翔機電有限公司,新竹縣新豐鄉松林村１５鄰康樂路一段１６９之６號１、２樓,24.8680248,120.989189,機械設備業,泵、壓縮機、活栓及活閥製造業,,通用機械設備
元寧企業有限公司,新竹縣新豐鄉松林村１５鄰康樂路一段１６９之６號１、２樓,24.8680248,120.989189,機械設備業,泵、壓縮機、活栓及活閥製造業,,通用機械設備
普強股份有限公司新豐廠,新竹縣新豐鄉松林村１５鄰康樂路一段１６９之７號,24.8680248,120.989189,機械設備業,其他通用機械設備製造業,,機器手臂
耀嵩企業有限公司,新竹縣竹北市大義里鳳岡路二段１５０巷２１５號,24.86342,120.98323799999999,基本金屬業,鋼鐵鑄造業,,閥泵法蘭零件、機械零件
力成科技股份有限公司３Ｄ廠,新竹縣湖口鄉鳳山村大同路１５號、１５號２、３、４、５樓,24.871143300000004,120.999329,電子零組件業,半導體封裝及測試業,,半導體裝配封裝及測試
駿洋機械工程有限公司,新竹縣新豐鄉員山村新興路３３３號,24.873023999999997,120.99999199999999,機械設備業,輸送機械設備製造業,,製造加工反應槽、機械維修
力成科技股份有限公司３Ｄ－１廠,新竹縣湖口鄉鳳山村大同路１５－１號、１５－１號２、３、４、５、６樓,24.8706684,120.99918400000001,電子零組件業,半導體封裝及測試業,,半導體裝配封裝、測試
巍昌兄弟股份有限公司,新竹縣湖口鄉鳳山村大同路２１、２３號,24.8726234,121.0021,機械設備業,污染防治設備製造業,,吊門機、撈污機
台一國際股份有限公司新竹廠,新竹縣湖口鄉鳳山村大同路２５號,24.8726234,121.0021,電力設備業,電線及電纜製造業,,漆包線
金泰工業社,新竹縣新豐鄉員山村中興路３８號,24.8740921,120.99956499999999,金屬製品業,金屬建築組件製造業,,鐵材加工
力成科技股份有限公司大同廠,新竹縣湖口鄉鳳山村大同路２６號,24.872345000000003,121.00221299999998,電子零組件業,半導體封裝及測試業,,半導體裝配、封裝、測試
得裕盛業股份有限公司,新竹縣湖口鄉鳳山村大同路１１號,24.869718600000002,120.998695,皮革毛皮製品業,鞋類製造業,牛皮、豬皮、鋼頭、橡膠、ＰＵ,安全皮鞋、無塵安全鞋、無塵鞋、運動鞋、皮便鞋、軍鞋、玻纖鞋頭
長雋科技股份有限公司,新竹縣新豐鄉忠孝村中興路４２號,24.8743725,120.999641,化學製品業,清潔用品及化粧品製造業,,身體保養品
巧成家具廠,新竹縣新豐鄉員山村１５鄰中興路４８號,24.8745079,120.99938999999999,家具業,其他非金屬家具製造業,,其他非金屬家具及裝設品
美商昆騰全球科技有限公司台灣分公司,新竹縣湖口鄉鳳山村大同路９號,24.869482,120.99838999999999,金屬製品業,其他金屬加工處理業,,半導體／ＰＶＤ設備ＰＡＲＴＳ清洗和買賣服務
逢陽機械股份有限公司,新竹縣湖口鄉鳳山村新興路３９２號,24.87394,121.00187700000001,機械設備業,輸送機械設備製造業,,輸送設備零件
四維創新材料股份有限公司新竹工廠,新竹縣湖口鄉鳳山村大同路３６號,24.8716125,121.00296000000002,其他製造業,其他未分類製造業,ＰＶＣ塑膠皮ＯＰＰ薄膜黏膠,ＰＶＣ膠帶、商標紙膠帶、ＯＰＰ膠帶、瑪拉
厚聲工業股份有限公司,新竹縣湖口鄉鳳山村三民路１７號,24.8687954,120.999977,電子零組件業,被動電子元件製造業,,碳素皮膜電阻器、金屬皮膜電阻器
德亞樹脂股份有限公司,新竹縣湖口鄉鳳山村新竹工業區三民路１５號,24.868465399999998,120.99974099999999,化學材料業,塑膠原料製造業,,壓克力樹脂、塗料用樹脂
華達企業社,新竹縣新豐鄉忠孝村精工路２２號,24.8754463,120.99906899999999,食品及飼品業,烘焙炊蒸食品製造業,,土司、漢堡、麵包
福營塑膠股份有限公司新竹二廠,新竹縣湖口鄉鳳山村１鄰自強路１５、１７號,24.8689632,120.99724599999999,塑膠製品業,塑膠膜袋製造業,,塑膠袋
營福有限公司,新竹縣湖口鄉鳳山村自強路１７號,24.8689632,120.99724599999999,塑膠製品業,塑膠膜袋製造業,,塑膠袋
國碩科技工業股份有限公司新豐廠,新竹縣湖口鄉自強路１８號１、２樓（部分使用）,24.8689671,120.997238,電子零組件業,太陽能電池製造業,,Ｒｉｂｂｏｎ
碩禾電子材料股份有限公司新豐廠,新竹縣湖口鄉自強路１８號２、３樓（部分使用）,24.8689671,120.997238,化學製品業,未分類其他化學製品製造業,,銀漿
碩鑽材料股份有限公司新豐廠,新竹縣湖口鄉自強路１８號２樓（部份使用）,24.8689671,120.997238,電子零組件業,未分類其他電子零組件製造業,,鑽石粉鑽石線晶、圓
隆山元工業股份有限公司二廠,新竹縣湖口鄉鳳山村三民路１０號,24.8681717,120.99906899999999,汽車及零件業,汽車零件製造業,鐵板、鐵管、光丸條,汽機車零件、模具、電子零件、運動器材、家具、機械、五金零件等
台灣豪雅光學股份有限公司,新竹縣湖口鄉鳳山村三民路１１號,24.8681717,120.99906899999999,其他製造業,眼鏡製造業,,鏡片
和契科技有限公司,新竹縣新豐鄉員山村精工路１９號,24.875583600000002,120.998848,電腦電子及光學品業,其他光學儀器及設備製造業,,線分離機臺
安和金屬工業股份有限公司新竹廠,新竹縣湖口鄉鳳山村復興路３６號,24.8699417,121.00344799999999,金屬製品業,金屬建築組件製造業,,金屬門窗、防火門、捲門
隆山元工業股份有限公司,新竹縣湖口鄉鳳山村復興路３８號,24.8699417,121.00344799999999,其他運輸工具零件業,機車零件製造業,鐵板、鐵管、光丸條,機車汽車零件（變速底座、加油煞車離合器總成、空氣濾心器、前叉、車體）模具、電子零件、面板、家具、運動器材五金零件
嘉信工程有限公司,新竹縣新豐鄉員山村精工路２１號,24.8756237,120.998878,機械設備業,其他通用機械設備製造業,鐵材,機械零件加工、鐵屋、鐵窗、鐵捲門等
全民精機股份有限公司,新竹縣湖口鄉鳳山村新興路４３６號,24.8747234,121.0028,機械設備業,其他通用機械設備製造業,,機械零件
成研機械廠,新竹縣新豐鄉員山村２８鄰精工路３６號,24.8758087,120.99947399999999,機械設備業,紡織、成衣及皮革生產用機械設備製造業,,機械零件、模具生產
力成科技股份有限公司３Ｃ廠,新竹縣湖口鄉湖口村大同路１０號,24.868515,120.9976,電子零組件業,半導體封裝及測試業,,半導體裝配封裝、測試
全益科技有限公司,新竹縣新豐鄉員山村精工路２９號,24.8758469,120.99911499999999,機械設備業,未分類其他專用機械設備製造業,,光電類設備、夾治具自動化設備
生泰機械企業有限公司,新竹縣新豐鄉員山村中興路１２４號１樓,24.8756676,120.998352,機械設備業,未分類其他專用機械設備製造業,,零件
璟德電子工業股份有限公司,新竹縣湖口鄉鳳山村自強路１６號,24.8683,120.9978,電子零組件業,被動電子元件製造業,,高頻積層陶瓷整合元件與模組
台灣電容器製造廠股份有限公司新豐廠,新竹縣新豐鄉員山村新興路３５７號,24.875391,121.00228899999999,電子零組件業,被動電子元件製造業,,鋁電解電容器
哲良企業股份有限公司二廠,新竹縣新豐鄉忠孝村精工路５８號,24.876117699999998,120.999924,機械設備業,其他金屬加工用機械設備製造業,,金屬成型機械
世騰工業有限公司二廠,新竹縣新豐鄉忠孝村精工路５８號,24.876117699999998,120.999924,機械設備業,橡膠及塑膠加工用機械設備製造業,,橡膠加工用機械、其他機械
廣聯企業社,新竹縣新豐鄉員山村２８鄰中興路１３４巷３號,24.8760223,120.99836,金屬製品業,其他金屬加工處理業,,鐵板裁剪加工
默克先進科技材料股份有限公司新竹廠,新竹縣湖口鄉鳳山村新興路４５８－６、４５８－８、４５８－１１號,24.8750267,121.003151,化學製品業,未分類其他化學製品製造業,,其他化學材料
香港商太古商用汽車有限公司台灣分公司湖口廠,新竹縣湖口鄉鳳山村新興路４５８號,24.8750267,121.003151,汽車及零件業,汽車零件製造業,,大貨車
香港商運通汽車有限公司台灣分公司,新竹縣湖口鄉鳳山村新興路４５８號,24.8750267,121.003151,汽車及零件業,汽車零件製造業,,汽車零組件
唐榮鐵工廠股份有限公司機械廠,新竹縣湖口鄉鳳山村新興路４５８號,24.8750267,121.003151,基本金屬業,鋼鐵軋延及擠型業,,冷軋不鏽鋼板
台灣車輛股份有限公司,新竹縣湖口鄉鳳山村新興路４５８號,24.8750267,121.003151,其他運輸工具零件業,未分類其他運輸工具及其零件製造業,,軌道車輛製造、改造及整修
崴立機電股份有限公司,新竹縣湖口鄉鳳山村新興路４５８號,24.8750267,121.003151,機械設備業,金屬切削工具機製造業,,ＣＮＣ立式綜合加工中心機、ＣＮＣ五軸加工中心、ＣＮＣ五面加工機、ＣＮＣ臥式搪孔機
恆勁科技股份有限公司,新竹縣湖口鄉鳳山村２２鄰新興路４５８之１７號,24.8750267,121.003151,電子零組件業,印刷電路板製造業,,印刷電路板
太陽光電能源科技股份有限公司,新竹縣湖口鄉鳳山村２２鄰新興路４５８之９號,24.8750267,121.003151,電子零組件業,太陽能電池製造業,,太陽能電池
博磊科技股份有限公司,新竹縣新豐鄉員山村精工路５３號１樓,24.876308399999996,120.99951899999999,電腦電子及光學品業,其他光學儀器及設備製造業,,其他電子零組件、ＨＩＦＩＸ、Ｃ－ＫＩＴ、ＰＲＯＢＥＣＡＲＤ、半導體相關設備
力成科技股份有限公司湖口廠,新竹縣湖口鄉鳳山村三民路７、７之１號,24.8674927,120.99844399999999,電子零組件業,半導體封裝及測試業,,半導體裝配、封裝、測試
陶一企業有限公司新豐廠,新竹縣新豐鄉忠孝村２鄰中興路１３４巷８號１、２樓,24.876205399999996,120.99805500000001,紡織業,不織布業,,面膜．水針不織布．其他紙張
米莎資國際有限公司新豐廠,新竹縣新豐鄉忠孝村中興路１３４巷８號３樓,24.8762074,120.99805500000001,化學製品業,清潔用品及化粧品製造業,,足膜、面膜、乳液、手膜
力成科技股份有限公司新興廠,新竹縣湖口鄉鳳山村新興路４５８－２８號,24.875227,121.0034,電子零組件業,半導體封裝及測試業,,積體電路（ＩＣ）封裝及測試
安一工業股份有限公司,新竹縣湖口鄉鳳山村新竹工業區大同路３號,24.8684158,120.996284,非金屬礦物製品業,其他玻璃及其製品製造業,,玻璃瓶塗裝印刷
貫新工業股份有限公司,新竹縣湖口鄉鳳山村大同路２號２樓,24.8684158,120.996284,其他製造業,玩具及遊戲機製造業,,嬰兒電動車、玩具、手推車、學步車
美商英特格有限公司台灣分公司湖口廠,新竹縣湖口鄉鳳山村大同路５號,24.8684158,120.996284,電子零組件業,分離式元件製造業,,晶舟盒／運送盒之清洗
台栗科技股份有限公司新竹廠,新竹縣湖口鄉鳳山村大同路７之１號,24.8684158,120.996284,機械維修及安裝業,產業用機械設備維修及安裝業,,電子零件、組清洗、維修
南豐工業股份有限公司,新竹縣湖口鄉鳳山村大同路１之１號,24.8684158,120.996284,塑膠製品業,其他塑膠製品製造業,,塑膠製品、塑膠板及塑膠容器製造加工
奇鼎科技股份有限公司,新竹縣湖口鄉大同路７號,24.8684158,120.996284,機械設備業,未分類其他專用機械設備製造業,,工業或生化無塵室設計施工、潔淨室風機濾網機組節能監控系統及有機氣體線上分析系統
環真科技股份有限公司湖口廠,新竹縣湖口鄉鳳山村新竹工業區大同路２號,24.8684158,120.996284,電子零組件業,半導體封裝及測試業,,ＩＣ測試，ＷＡＦＥＲ測試
三皇化工企業股份有限公司,新竹縣湖口鄉鳳山村復興路２８號,24.869428600000003,121.00443999999999,化學製品業,塗料、染料及顏料製造業,,油墨、塗料、墨水
世禾科技股份有限公司,新竹縣湖口鄉鳳山村復興路３０號,24.869428600000003,121.00443999999999,電子零組件業,未分類其他電子零組件製造業,,ＰＡＲＴＳＣＬＥＡＭ清洗、ＳＵＳＣＥＰＴＥＲ清洗、ＭＡＳＫ
三福氣體股份有限公司湖口廠,新竹縣湖口鄉鳳山村復興路３２號,24.869428600000003,121.00443999999999,化學材料業,化學原材料製造業,,氮氣
納爾科股份有限公司湖口廠,新竹縣湖口鄉鳳山村復興路３４號,24.869428600000003,121.00443999999999,化學製品業,未分類其他化學製品製造業,,腐蝕抑制劑、冷卻水微生控制劑、防蝕防垢劑、造紙工業分散劑
華展工業股份有限公司,新竹縣湖口鄉鳳山村三民路１號,24.8664951,120.997421,塑膠製品業,塑膠外殼及配件製造業,,ＥＰＰ、ＥＰＥ、ＥＰＳ、紙器
鴻勳工業社,新竹縣湖口鄉鳳山村榮光路６６５號,24.8666363,120.99646000000001,電力設備業,其他電力設備及配備製造業,,模具、彈片、電器零件
一興國際化學有限公司新竹廠,新竹縣湖口鄉鳳山村復興路２４號,24.8688068,121.00563000000001,化學製品業,未分類其他化學製品製造業,,水處理劑
博膜科技股份有限公司,新竹縣湖口鄉鳳山村復興路２４號,24.8688068,121.00563000000001,機械設備業,其他通用機械設備製造業,,淨水機、逆滲透設備
居易科技股份有限公司新竹廠,新竹縣湖口鄉鳳山村復興路２６號,24.8688068,121.00563000000001,電腦電子及光學品業,其他通訊傳播設備製造業,,路由器
立州油脂有限公司湖口廠,新竹縣湖口鄉鳳山村復興路２０號,24.8688068,121.00563000000001,石油及煤製品業,石油及煤製品製造業,,燃料油
台灣櫻宮化學股份有限公司,新竹縣湖口鄉鳳山村復興路２２號,24.8688068,121.00563000000001,化學製品業,塗料、染料及顏料製造業,樹脂、溶劑,罐用塗料
三陽工業股份有限公司新竹廠,新竹縣湖口鄉鳳山村１鄰中華路３號,24.865696,121.004295,其他運輸工具零件業,機車製造業,,機車，汽車，汽機車另件（夾，工，檢，鏌具）
台灣森那美起亞股份有限公司新竹廠,新竹縣湖口鄉鳳山村中華路３號,24.865696,121.004295,汽車及零件業,汽車製造業,汽車零件,汽車
英屬開曼群島商壹久科技股份有限公司台灣分公司,新竹縣湖口鄉鳳山村中華路１２號,24.870967899999997,121.008,電力設備業,電池製造業,,二次電池製造
美強光學股份有限公司中華廠,新竹縣湖口鄉鳳山村中華路１３之１號,24.870967899999997,121.008,電腦電子及光學品業,其他光學儀器及設備製造業,,微型攝影模組
錦霆科技股份有限公司一廠,新竹縣湖口鄉鳳山村中華路１３號,24.870967899999997,121.008,電子零組件業,其他光電材料及元件製造業,,矽料加工
新竹汽車客運股份有限公司修車廠,新竹縣湖口鄉鳳山村中華路１３號,24.870967899999997,121.008,汽車及零件業,汽車零件製造業,,車輛維護
日揚科技股份有限公司新湖廠,新竹縣湖口鄉鳳山村中華路１３號,24.870967899999997,121.008,機械設備業,泵、壓縮機、活栓及活閥製造業,,真空零組件、真空泵、ＰＵＭＰ維修及買賣
正文科技股份有限公司湖口廠,新竹縣湖口鄉鳳山村中華路１５之１號,24.870967899999997,121.008,電腦電子及光學品業,其他通訊傳播設備製造業,,電腦及其週邊設備、通信機械器材、視聽電子產品、資料儲存媒體
竹安興業有限公司鈑金廠,新竹縣湖口鄉鳳山村中華路１５號,24.870967899999997,121.008,金屬製品業,其他金屬加工處理業,,鐵箱加工
東元電機股份有限公司湖口廠,新竹縣湖口鄉鳳山村中華路１５號,24.870967899999997,121.008,電力設備業,發電、輸電及配電機械製造業,鐵材、矽鋼片、線材、銅排,低壓電磁開關、變頻器
竹安興業有限公司,新竹縣湖口鄉鳳山村中華路１５號,24.870967899999997,121.008,金屬製品業,其他金屬加工處理業,,鐵箱加工
東元電機股份有限公司湖口二廠,新竹縣湖口鄉鳳山村中華路１５號,24.870967899999997,121.008,電力設備業,發電、輸電及配電機械製造業,,配電盤
辛耘企業股份有限公司,新竹縣湖口鄉鳳山村中華路１６號,24.870967899999997,121.008,機械設備業,電子及半導體生產用機械設備製造業,,半導體製程設備、液晶顯示器生產設備等及晶圓再生
士林電機廠股份有限公司電裝廠,新竹縣湖口鄉鳳山村中華路１７號,24.870967899999997,121.008,電力設備業,發電、輸電及配電機械製造業,,二輪磁石發電機、二輪起動馬達、四輪交流發電機、燃油泵浦
華淵電機工業股份有限公司,新竹縣湖口鄉鳳山村中華路１８號,24.870967899999997,121.008,電力設備業,發電、輸電及配電機械製造業,,電動窗馬達、機器設備
辛耘企業股份有限公司湖口二廠,新竹縣湖口鄉鳳山村新竹工業區中華路１４號,24.870967899999997,121.008,機械設備業,電子及半導體生產用機械設備製造業,,半導體製程設備、液晶顯示器生產設備等及晶圓再生
冠玨股份有限公司,新竹縣新豐鄉松林村７鄰松柏林１０４號,24.8662052,120.993927,金屬製品業,金屬模具製造業,,模具、機械零件（紡織機、食品機零件）
普晶材料股份有限公司,新竹縣湖口鄉中華路１６號５樓,24.8694,121.008125,電子零組件業,發光二極體製造業,,表面黏著型ＬＥＤ
譜光儀器股份有限公司,新竹縣湖口鄉中華路１６號５樓,24.8694,121.008125,電腦電子及光學品業,量測、導航及控制設備製造業,,實驗室專用分析儀器及系統設備－質譜儀
台灣盛禧奧股份有限公司新竹廠,新竹縣湖口鄉鳳山村仁政路１７號,24.868328100000003,121.007751,化學材料業,塑膠原料製造業,,丙烯－苯乙烯－丁二烯共聚物（ＡＢＳ）、聚碳酸脂（ＰＣ）及聚丙烯（ＰＰ）
長春人造樹脂廠股份有限公司新竹廠,新竹縣湖口鄉鳳山村中華路８號,24.865560000000002,121.005554,化學材料業,化學原材料製造業,,電木粉、環氧樹脂成型材料、環氧樹脂、積層板
花王台灣股份有限公司新竹廠,新竹縣湖口鄉鳳山村中華路６號,24.865560000000002,121.005554,化學製品業,清潔用品及化粧品製造業,,陰離子界面活性劑、紙尿褲、洗衣粉、洗衣精、洗髮類、洗潔類
精中電企業有限公司新竹廠,新竹縣湖口鄉鳳山村仁義路１９號,24.86935,121.008476,機械設備業,金屬切削工具機製造業,,其他機械（玻璃砂帶機、玻璃架倉儲系統、玻璃強化爐、吊具吸盤）－２０％
昭和興精機有限公司新竹廠,新竹縣湖口鄉鳳山村仁政路２２號,24.8686962,121.00868200000001,其他運輸工具零件業,機車零件製造業,,其他金屬製品、汽車及其零件、機車及其零件、其他運輸工具及其零件
世禾科技股份有限公司新竹廠,新竹縣湖口鄉鳳山村１鄰仁政路１８號,24.8686962,121.00868200000001,電子零組件業,未分類其他電子零組件製造業,,ＰＡＲＴＳＣＬＥＡＭ清洗、ＳＵＳＣＥＰＴＥＲ清洗、ＭＡＳＫ
精銘塑膠股份有限公司新竹廠,新竹縣湖口鄉鳳山村仁德路１２號,24.870967899999997,121.00945300000001,塑膠製品業,塑膠外殼及配件製造業,,汽車、機車、家電等塑膠件
逸典科技股份有限公司,新竹縣湖口鄉鳳山村復興路１４號,24.8672619,121.00821699999999,機械維修及安裝業,產業用機械設備維修及安裝業,,中古機臺維修設備
理翰應用科技有限公司第一廠,新竹縣湖口鄉鳳山村復興路１４號１樓,24.8672619,121.00821699999999,化學製品業,未分類其他化學製品製造業,,抗氧化劑
向陽科技股份有限公司新竹廠,新竹縣湖口鄉鳳山村復興路１６號,24.8672619,121.00821699999999,塑膠製品業,其他塑膠製品製造業,,廢空桶及廢塑膠桶加工回收
翔勝企業股份有限公司新竹廠,新竹縣湖口鄉鳳山村仁愛路１１號,24.8700027,121.014137,機械設備業,電子及半導體生產用機械設備製造業,,自動化設備
亞翔工程股份有限公司,新竹縣湖口鄉鳳山村仁愛路９號,24.8700027,121.014137,機械設備業,電子及半導體生產用機械設備製造業,,無塵室空調工程、製程管路工程、機電工程、其他工程
榮錦塑膠工業股份有限公司,新竹縣湖口鄉鳳山村文化路２８、３０號,24.869955100000002,121.01454199999999,塑膠製品業,其他塑膠製品製造業,,塑膠製品
威爾司科技股份有限公司,新竹縣湖口鄉鳳山村仁愛路５號３樓,24.8698368,121.014343,機械設備業,電子及半導體生產用機械設備製造業,,半導體機械設備維修，其他通用機械設備維修
晧晟實業股份有限公司湖口廠,新竹縣湖口鄉鳳凰村仁愛路３號,24.8698368,121.014343,紙漿、紙及紙製品業,未分類其他紙製品製造業,,影印紙
佑泰機械有限公司,新竹縣湖口鄉鳳凰村光華九巷２３號,24.872074100000003,121.0116,金屬製品業,其他金屬加工處理業,,金屬手工具及模具，金屬容器，金屬加工處理，其他金屬製品
立捷國際股份有限公司新竹廠,新竹縣湖口鄉鳳山村仁愛路７號,24.87068,121.01187900000001,電腦電子及光學品業,其他通訊傳播設備製造業,主基板、端子基板、ＩＣ、外殼等,防盜之主機及感知器、其他保全器具
三梅企業股份有限公司新竹工廠,新竹縣湖口鄉鳳山村仁德路１號,24.869684200000002,121.01206200000001,塑膠製品業,其他塑膠製品製造業,,塑膠製品（食品、藥品、化妝品之容器）
南茂科技股份有限公司湖口一廠,新竹縣湖口鄉鳳山村仁德路４號,24.869684200000002,121.01206200000001,電子零組件業,半導體封裝及測試業,包裝材料,ＩＣ測試
晶兆成科技股份有限公司總廠,新竹縣湖口鄉鳳山村文化路２６號,24.868207899999998,121.0144,電子零組件業,半導體封裝及測試業,,提供晶圓測試服務
朝陽電裝股份有限公司,新竹縣湖口鄉鳳凰村實踐路１０號,24.868751500000002,121.01680800000001,其他運輸工具零件業,機車零件製造業,電線、鋅、銅、鋁,機車用開關及鑰匙
鴻發精密有限公司,新竹縣湖口鄉鳳凰村實踐路１０之１號,24.86875,121.01680800000001,電子零組件業,太陽能電池製造業,,矽原料、金屬加工件
環球優士技術有限公司湖口廠,新竹縣湖口鄉勝利村實踐路１０之１號１樓,24.86875,121.01680800000001,非金屬礦物製品業,未分類其他非金屬礦物製品製造業,廢光罩，廢晶圓,光罩再生料，再生晶圓片
天弘化學股份有限公司,新竹縣湖口鄉鳳山村文化路１１號,24.8682861,121.01313799999998,化學材料業,化學原材料製造業,,硝酸銨鈰、氯化亞錫、蝕刻液、氧化鑭
康普材料科技股份有限公司,新竹縣湖口鄉鳳山村文化路１１號、復興路２號、２之１號,24.8682861,121.01313799999998,化學製品業,未分類其他化學製品製造業,,醋酸鈷、醋酸錳、鈷錳溴觸媒溶液、氧化鈷、氫氧化鈷
富士達股份有限公司,新竹縣湖口鄉鳳山村文化路１２號,24.8682861,121.01313799999998,機械設備業,輸送機械設備製造業,,電梯、電扶梯及其零主件
裕器工業股份有限公司,新竹縣湖口鄉鳳山村新竹工業區文化路２３號,24.8681,121.013687,汽車及零件業,汽車零件製造業,,特殊塑膠大型汽車零件及其他汽車零件
欣銓科技股份有限公司新工二廠,新竹縣湖口鄉鳳山村文化路２４號地下１、２樓、１、２、３、４、５、６、８樓,24.8681,121.013687,電子零組件業,半導體封裝及測試業,,晶圓測試加工
士林電機廠股份有限公司重電廠,新竹縣湖口鄉鳳凰村中華路２３號,24.87238,121.010071,電力設備業,發電、輸電及配電機械製造業,,變壓器、配電盤、真空開關、比流器、路燈開關
豪門彩色印刷事業股份有限公司第二廠,新竹縣湖口鄉鳳凰村實踐路２之１號,24.869754800000003,121.01848600000001,印刷及儲存媒體複製業,印刷業,,高級彩盒印刷
晟德大藥廠股份有限公司新竹廠,新竹縣湖口鄉實踐路２號,24.869754800000003,121.01848600000001,藥品及醫用化學品業,西藥製造業,,西藥（粉劑，西藥液劑，片劑，膠囊針）
濟生醫藥生技股份有限公司,新竹縣湖口鄉勝利村實踐路３號,24.869754800000003,121.01848600000001,藥品及醫用化學品業,醫用生物製品製造業,,洗腎液、注射液
濟生醫藥生技股份有限公司食品廠,新竹縣湖口鄉勝利村實踐路３號（食品廠區）,24.869754800000003,121.01848600000001,食品及飼品業,未分類其他食品製造業,,魚油，晶世界膠囊，益生菌
佳德精密機械有限公司,新竹縣湖口鄉波羅村仁興路１巷３１弄１１號１樓,24.875814399999996,121.012993,機械設備業,未分類其他專用機械設備製造業,鋁材、鐵材、鋼材、塑膠,自動化設備，清潔機、撕膜機、貼膜機、電暈機等其他專用機械設備，通用機械設備
東義科技股份有限公司,新竹縣湖口鄉鳳山村文化路１５、１７號,24.8679848,121.01284,塑膠製品業,塑膠外殼及配件製造業,,電腦塑膠外殼
永大順股份有限公司,新竹縣湖口鄉鳳山村文化路１８號,24.8679848,121.01284,塑膠製品業,其他塑膠製品製造業,,塑膠外殼
科美利亞科技股份有限公司,新竹縣湖口鄉鳳山村文化路１９號１樓,24.8679848,121.01284,電子零組件業,未分類其他電子零組件製造業,,其他電子零組件
台灣高美可科技股份有限公司,新竹縣湖口鄉勝利村實踐路１４號,24.867826500000003,121.015877,機械設備業,電子及半導體生產用機械設備製造業,,半導體零組件加工及銷售
台灣精星科技股份有限公司,新竹縣湖口鄉鳳凰村實踐路１２號,24.867820000000002,121.015877,電子零組件業,印刷電路板組件製造業,,ＴＦＴ－ＬＣＤ驅動控制面板、主機板、網路產品、醫療器材
宗諺機械有限公司,新竹縣湖口鄉鳳凰村中華路１２０號３樓（部分使用）,24.87536,121.011757,機械設備業,未分類其他專用機械設備製造業,,機械設備、金屬製品、模具
永勝機械有限公司,新竹縣湖口鄉鳳凰村中華路１２０號３樓（部分使用）,24.87536,121.011757,機械設備業,未分類其他專用機械設備製造業,,機械設備零件製造
神工精密有限公司,新竹縣湖口鄉鳳凰村中華路１２０號４樓,24.87536,121.011757,金屬製品業,金屬模具製造業,,模具加工、馬達灌注加工、互感器、塑膠射出
鉅昌機械有限公司,新竹縣湖口鄉鳳凰村中華路１２０號４樓,24.87536,121.011757,機械設備業,其他金屬加工用機械設備製造業,,廢鋼鐵廢五金處理
台原生物科技股份有限公司,新竹縣湖口鄉鳳凰村中華路１２０號４樓（部份使用）,24.87536,121.011757,食品及飼品業,未分類其他食品製造業,,食用菌菇類菌種栽培
安信開發環保有限公司,新竹縣湖口鄉鳳凰村中華路１２０號４樓（部份使用）,24.87536,121.011757,金屬製品業,未分類其他金屬製品製造業,,五金零件製造
鴻發有限公司,新竹縣湖口鄉鳳凰村中華路１２０號４樓（部份使用）,24.87536,121.011757,紙漿、紙及紙製品業,未分類其他紙製品製造業,,紙製品加工．加工紙
速敏科技股份有限公司,新竹縣湖口鄉鳳凰村中華路１２０號Ｄ棟１樓,24.87536,121.011757,金屬製品業,未分類其他金屬製品製造業,,５０永久磁鐵－粘結、永久磁鐵－燒結、應用產品
電致科技股份有限公司,新竹縣湖口鄉鳳凰村中華路１２０號Ｄ棟１樓,24.87536,121.011757,電子零組件業,液晶面板及其組件製造業,,ＬＥＤ背光模組、導光板、電源供應器
華燈光電股份有限公司,新竹縣湖口鄉鳳凰村中華路１２２－１２號３樓,24.87536,121.011757,電力設備業,電燈泡及燈管製造業,石英玻管,照明設備
華庠科技興業股份有限公司,新竹縣湖口鄉鳳凰村中華路１２２之１２號１樓,24.87536,121.011757,電子零組件業,未分類其他電子零組件製造業,,ＶＡＬＶＥＣＬＥＡＮ表面處理
大晃流力機械股份有限公司,新竹縣湖口鄉鳳凰村中華路１２２之１２號１樓,24.87536,121.011757,機械設備業,其他通用機械設備製造業,,其它零件
鑫全翔有限公司,新竹縣湖口鄉鳳凰村中華路１２２之１２號２樓,24.87536,121.011757,基本金屬業,未分類其他基本金屬製造業,,廢鋼鐵
朝啟科技有限公司,新竹縣湖口鄉鳳凰村中華路１２２之１２號２樓,24.87536,121.011757,機械設備業,未分類其他專用機械設備製造業,,專用生產機械、其他機械
誼澄實業股份有限公司,新竹縣湖口鄉鳳凰村中華路１２２之１２號２樓（部分使用）,24.87536,121.011757,化學製品業,清潔用品及化粧品製造業,,化粧品
永承實業社,新竹縣湖口鄉鳳凰村中華路１２２之１２號２樓（部分使用）,24.87536,121.011757,塑膠製品業,塑膠膜袋製造業,,塑膠袋
鴻源包裝科技股份有限公司,新竹縣湖口鄉鳳凰村中華路１２２之１８號,24.87536,121.011757,塑膠製品業,塑膠膜袋製造業,膠粒、塑膠粉料,印刷用膜料膠粒
旭源包裝科技股份有限公司,新竹縣湖口鄉鳳凰村中華路１２２之１８號,24.87536,121.011757,印刷及儲存媒體複製業,印刷業,塑膠膜料、機械模組及加工件,套標機、貼標機、標籤印刷、積層袋
藍田生物科技有限公司,新竹縣湖口鄉鳳凰村中華路１２２之１號３樓,24.87536,121.011757,化學材料業,肥料及氮化合物製造業,,有機肥料
雲頂工業有限公司,新竹縣湖口鄉鳳凰村中華路１２２之３號２樓,24.87536,121.011757,汽車及零件業,汽車零件製造業,,汽車零件表面處理
郁恒實業股份有限公司湖口廠,新竹縣湖口鄉鳳凰村中華路１１６號,24.87536,121.011757,機械設備業,紡織、成衣及皮革生產用機械設備製造業,鋼鐵,縫紉機零件
雅信鑄造股份有限公司,新竹縣湖口鄉鳳凰村中華路１１８號,24.87536,121.011757,金屬製品業,未分類其他金屬製品製造業,,機械零件、五金零件、電子零件、針車零件、各種精密鑄造零件
聯合石英股份有限公司,新竹縣湖口鄉鳳凰村中華路１２０之１號１樓,24.87536,121.011757,非金屬礦物製品業,未分類其他非金屬礦物製品製造業,,其他非金屬礦物製品
恆榮科技股份有限公司,新竹縣湖口鄉鳳凰村中華路１２０之３號,24.87536,121.011757,金屬製品業,金屬表面處理業,,陽極代工
泰捷真空股份有限公司,新竹縣湖口鄉鳳凰村中華路１２０號（部分使用）,24.87536,121.011757,機械維修及安裝業,產業用機械設備維修及安裝業,,真空泵浦維修、半導體設備零件買賣
昌潔科技股份有限公司,新竹縣湖口鄉鳳凰村中華路１２０號１、２樓,24.87536,121.011757,機械設備業,其他通用機械設備製造業,,其他機械
鴻陽輪胎股份有限公司,新竹縣湖口鄉鳳凰村中華路１２０號１樓,24.87536,121.011757,汽車及零件業,汽車零件製造業,,汽車及其零件
允創科技股份有限公司,新竹縣湖口鄉鳳凰村中華路１２０號１樓,24.87536,121.011757,機械設備業,電子及半導體生產用機械設備製造業,正已烷、磷酸三鈉,機械加工
安吉生技股份有限公司Ａ廠,新竹縣湖口鄉鳳凰村中華路１２０號２樓,24.87536,121.011757,化學材料業,肥料及氮化合物製造業,,愛田寶、漢草勇、霍元甲、禾立肥
上輝科技有限公司,新竹縣湖口鄉鳳凰村中華路１２０號２樓,24.87536,121.011757,化學製品業,未分類其他化學製品製造業,,其他化學製品
鐳崴科技有限公司新竹廠,新竹縣湖口鄉鳳凰村中華路１２０號２樓,24.87536,121.011757,電子零組件業,未分類其他電子零組件製造業,ＬＡＳＥＲＬＡＭＰ、ＬＡＳＥＲＦＩＬＴＥＲ、ＣＡＲＴＯＮ、ＴＡＰＥ,其他電子零組件
三千電器工業廠股份有限公司,新竹縣湖口鄉鳳凰村中華路１２０號２樓,24.87536,121.011757,其他運輸工具零件業,機車零件製造業,,車輛用氣門嘴
豐田工業有限公司,新竹縣湖口鄉鳳凰村中華路１２０號２樓Ａ棟,24.87536,121.011757,機械設備業,流體傳動設備製造業,,氣壓零組件
先進釋放生技股份有限公司,新竹縣湖口鄉鳳凰村中華路１２０號３樓,24.87536,121.011757,化學製品業,未分類其他化學製品製造業,,凱索尼酸（ＡＣ－ＣＡＴＭ）、微囊體包覆技術服務（ＣＡ－ＳＡＣＴＭ）
立美科技有限公司,新竹縣湖口鄉鳳凰村中華路１２０號３樓,24.87536,121.011757,塑膠製品業,其他塑膠製品製造業,,塑膠製品
微軒電子有限公司湖口廠,新竹縣湖口鄉鳳凰村中華路１２０號３樓（Ａ棟）,24.87536,121.011757,電子零組件業,印刷電路板製造業,,電路板
安吉生技股份有限公司,新竹縣湖口鄉鳳凰村中華路１２２之３號３樓,24.87536,121.011757,化學材料業,肥料及氮化合物製造業,,愛田寶、漢草勇、霍元甲、禾立肥
晶星光電股份有限公司,新竹縣湖口鄉鳳凰村中華路１２２之４號３樓,24.87536,121.011757,電力設備業,照明器具製造業,,ＬＥＤ燈
得群科技股份有限公司,新竹縣湖口鄉鳳凰村中華路１２２之８號,24.87536,121.011757,電子零組件業,分離式元件製造業,,半導體導線架電鍍加工
鉅大光電科技股份有限公司,新竹縣湖口鄉鳳凰村中華路１２２之８號１樓,24.87536,121.011757,塑膠製品業,其他塑膠製品製造業,,塑膠製品製造、鋼材二次加工、陶瓷玻璃製品製造
思邁科技股份有限公司,新竹縣湖口鄉鳳凰村中華路１２２之８號２樓,24.87536,121.011757,機械設備業,電子及半導體生產用機械設備製造業,,晶圓加熱器，金屬或非金屬類加工件，晶圓清洗刷，機構設計
艾克密國際有限公司,新竹縣湖口鄉鳳凰村中華路１２２之８號３樓,24.87536,121.011757,紙漿、紙及紙製品業,未分類其他紙製品製造業,,濕度指示卡、分子篩、活性氧化鋁、乾燥劑
浚洸光學科技股份有限公司湖口廠,新竹縣湖口鄉鳳凰村中華路１２２之８號４樓,24.87536,121.011757,電腦電子及光學品業,其他光學儀器及設備製造業,,ＬＥＤ光學鏡片
榮鼎科技有限公司,新竹縣湖口鄉鳳凰村中華路１２２之８號Ｈ棟３樓（部分使用）,24.87536,121.011757,電子零組件業,未分類其他電子零組件製造業,,電子零子件．機械零件
三燡養生企業有限公司,新竹縣湖口鄉鳳凰村中華路１２２號３樓（部分使用）,24.87536,121.011757,食品及飼品業,未分類其他食品製造業,,牛樟芝粉
清晰科技股份有限公司新竹二廠,新竹縣湖口鄉鳳凰村中華路１２４號,24.87536,121.011757,電子零組件業,印刷電路板製造業,,散熱鋁基板
成都電子實業有限公司,新竹縣湖口鄉鳳凰村中華路１２０號２樓（部分使用）,24.875368100000003,121.011757,電子零組件業,未分類其他電子零組件製造業,,電子零組件
岳通企業有限公司,新竹縣湖口鄉鳳凰村中華路１２０號２樓（部分使用）,24.875368100000003,121.011757,機械設備業,其他通用機械設備製造業,,中心定位機皮帶輪
達鑫企業社,新竹縣湖口鄉鳳凰村中華路１２０號２樓（部份使用）,24.875368100000003,121.011757,金屬製品業,金屬表面處理業,,金屬加工
園紡工業有限公司,新竹縣湖口鄉鳳凰村中華路１２０號２樓（部份使用）,24.875368100000003,121.011757,機械設備業,其他通用機械設備製造業,,２９３通用機械設備
旭源包裝科技股份有限公司新竹實踐廠,新竹縣湖口鄉鳳凰村實踐路１０之１號（部分使用）,24.8679962,121.01689099999999,塑膠製品業,其他塑膠製品製造業,塑膠膜料,積層袋
台神工具股份有限公司,新竹縣湖口鄉鳳山村仁德路１０號,24.8707733,121.00981100000001,金屬製品業,金屬刀具及手工具製造業,,切削工具
復盛精密工業股份有限公司湖口廠,新竹縣湖口鄉鳳凰村實踐路６號,24.8682613,121.017876,電子零組件業,分離式元件製造業,,ＩＣ導線架
味島食品股份有限公司,新竹縣湖口鄉鳳凰村實踐路８號,24.8682613,121.017876,食品及飼品業,調味品製造業,,香鬆，海苔醬，風味、速食湯、調味料，鰹露醬油
豪門彩色印刷事業股份有限公司新竹廠,新竹縣湖口鄉鳳凰村３６鄰實踐路７號,24.8682613,121.017876,印刷及儲存媒體複製業,印刷業,,高級彩盒印刷及買賣
永信容器工業股份有限公司,新竹縣湖口鄉鳳山村文化路２２號,24.86717,121.0134,塑膠製品業,其他塑膠製品製造業,,塑膠容器
精鈺金屬工業股份有限公司,新竹縣湖口鄉鳳山村文化路２１號,24.86717,121.0134,金屬製品業,未分類其他金屬製品製造業,,機械零件、汽車零件
台灣資生堂股份有限公司新竹工廠,新竹縣湖口鄉中興村光復北路６０號,24.870698899999997,121.019806,化學製品業,清潔用品及化粧品製造業,,保養品、化粧品、香皂、洗髮精
欣銓科技股份有限公司新工一廠,新竹縣湖口鄉勝利村工業三路３號,24.867420000000003,121.017311,電子零組件業,半導體封裝及測試業,,晶圓測試加工
瑞軒科技股份有限公司湖口廠,新竹縣湖口鄉鳳凰村工業三路２號１、３、４樓,24.867420000000003,121.017311,電腦電子及光學品業,顯示器及終端機製造業,,ＬＣＤＭＯＮＩＴＯＲ／ＬＣＤＴＶ
瑞旭科技股份有限公司,新竹縣湖口鄉鳳凰村工業三路２號１、３樓,24.867420000000003,121.017311,電腦電子及光學品業,顯示器及終端機製造業,,大尺寸液晶顯示器
加國陽光能源科技股份有限公司,新竹縣湖口鄉勝利村工業三路２號,24.866926199999998,121.01599099999999,電子零組件業,太陽能電池製造業,電池片、太陽能玻璃、矽膠、封裝材料、接線盒,太陽能模組
台灣極水股份有限公司新竹廠,新竹縣湖口鄉鳳山村仁義路２號,24.8668346,121.01356499999999,機械設備業,污染防治設備製造業,,無塵衣，無塵鞋洗滌及水處理設備
秦岱股份有限公司,新竹縣湖口鄉鳳凰村光復北路７２號,24.8680077,121.01851699999999,機械設備業,輸送機械設備製造業,,面板
大陽日酸系統科技股份有限公司湖口廠,新竹縣湖口鄉鳳凰村光復北路７４號,24.8680077,121.01851699999999,機械設備業,未分類其他專用機械設備製造業,,專用生產機械
優陽材料科技股份有限公司,新竹縣湖口鄉勝利村光復北路７６號,24.8680077,121.01851699999999,化學製品業,未分類其他化學製品製造業,,太陽能電池用導電漿
瑞利企業股份有限公司,新竹縣湖口鄉中興村光復北路７３號,24.8680077,121.01851699999999,汽車及零件業,汽車零件製造業,,汽車零件
優美股份有限公司辦公家具總廠,新竹縣湖口鄉中興村光復北路７３號,24.8680077,121.01851699999999,家具業,金屬家具製造業,,複印材料滾筒，辦公家具鋼製辦公桌
全鴻精研股份有限公司,新竹縣湖口鄉中興村光復北路７３號１樓,24.8680077,121.01851699999999,電子零組件業,未分類其他電子零組件製造業,,ａｎｔｉ－ｇｌａｖｅ ｇｌａｓｓ
六合實業社,新竹縣湖口鄉中興村光復北路７３號１樓,24.8680077,121.01851699999999,機械設備業,其他通用機械設備製造業,,沖床
世瑩股份有限公司新竹廠,新竹縣湖口鄉鳳凰村光復北路６８號,24.868660000000002,121.0192,電腦電子及光學品業,其他光學儀器及設備製造業,,其他光學儀器
志同塑膠工業股份有限公司湖口廠,新竹縣湖口鄉鳳山村仁義路６號,24.8682442,121.0102,塑膠製品業,其他塑膠製品製造業,,耐熱保特瓶
新三興股份有限公司,新竹縣湖口鄉鳳山村仁義路８號,24.8682442,121.0102,汽車及零件業,汽車零件製造業,,汽車內裝零組件（汽車電動座椅、車門飾板）
欣銓科技股份有限公司新工三廠,新竹縣湖口鄉鳳山村仁義路９號,24.8682442,121.0102,電子零組件業,半導體封裝及測試業,,晶圓測試加工／ＩＣ測試
權亞石材股份有限公司精密科技廠,新竹縣湖口鄉中興村光復北路６９號,24.86815,121.01898200000001,非金屬礦物製品業,石材製品製造業,花崗石,花崗石精密平臺，花崗石精密構件，檢測設備及量規量具
光頡科技股份有限公司,新竹縣湖口鄉鳳凰村光復北路７０號,24.86815,121.01898200000001,電子零組件業,被動電子元件製造業,,精密電阻、超低阻、電感
民昇真空科技有限公司,新竹縣湖口鄉鳳凰村中華路１２２－２號２樓（部份使用）,24.8764782,121.01123,機械設備業,其他通用機械設備製造業,,電子器材、半導體零組件配件、機器維修
台灣島津產業設備股份有限公司,新竹縣湖口鄉鳳凰村中華路１２２之７號２樓、３樓（部份使用）,24.8764782,121.01123,機械設備業,其他通用機械設備製造業,,渦輪分子泵維修及安裝、氦氣測漏儀、工業用爐維修及安裝、ＰＳ／ＣＶＤ（光電檢測設備）
谷林生技有限公司,新竹縣湖口鄉鳳凰村中華路１２２之７號４樓,24.8764782,121.01123,其他製造業,其他醫療器材及用品製造業,鐵材，零件,動力式穿戴型下肢步行器
鼎鋼機械有限公司,新竹縣湖口鄉鳳凰村中華路１２２之７號４樓（部分使用）,24.8764782,121.01123,機械設備業,其他金屬加工用機械設備製造業,,機械設備零件
華海雷射有限公司,新竹縣湖口鄉鳳凰村中華路１２２之７號４樓（部分使用）,24.8764782,121.01123,機械設備業,其他通用機械設備製造業,,雷射雕刻機，雷射打標機，ＣＮＣ雕刻機，ＣＮＣ加工車床，光纖雷射打標機，雷射切割機，普通車床
昊昇精密有限公司,新竹縣湖口鄉鳳凰村中華路１２２之７號４樓（部份使用）,24.8764782,121.01123,電子零組件業,未分類其他電子零組件製造業,,ｓｐｉｄｅｒ．ｐｒｏｂｅ ｃａｒｄ等
互力精密化學股份有限公司湖口廠,新竹縣湖口鄉鳳凰村２２鄰光復北路７８號,24.8664474,121.01588400000001,化學材料業,合成橡膠原料製造業,,矽橡膠
京旺工業有限公司,新竹縣湖口鄉鳳凰村中華路１２２號２樓,24.8765259,121.011177,金屬製品業,金屬建築組件製造業,,金屬門窗製造
梓名企業有限公司,新竹縣湖口鄉鳳凰村中華路１２２之３號２樓（部分使用）,24.8765259,121.011177,機械設備業,其他通用機械設備製造業,,控制箱．白鐵箱．分電箱．ＳＴ接線箱
全興避震器股份有限公司,新竹縣湖口鄉鳳山村仁義路１０號,24.8684158,121.009781,其他運輸工具零件業,機車零件製造業,,彈簧、避震器
群浤科技股份有限公司仁義廠,新竹縣湖口鄉鳳山村仁義路１０號之１,24.8684158,121.009781,電子零組件業,印刷電路板製造業,,各型印刷電路板
欣興電子股份有限公司仁義廠,新竹縣湖口鄉鳳山村仁義路１０號之１（４樓）（部分使用）,24.8684158,121.009781,電子零組件業,分離式元件製造業,,封裝基板
百傑電子科技股份有限公司,新竹縣湖口鄉鳳山村仁義路１１號１樓,24.8684158,121.009781,電子零組件業,未分類其他電子零組件製造業,,電子漿料、導電漿料
晶兆成科技股份有限公司二廠,新竹縣湖口鄉鳳山村文化路２０號、２０號２、３、４、５、６樓,24.8665066,121.012611,電子零組件業,半導體封裝及測試業,,提供晶圓測試
香澤實業股份有限公司湖口廠,新竹縣湖口鄉鳳山村仁政路１０號,24.867876100000004,121.00986499999999,金屬製品業,金屬表面處理業,,電子零件及五金零件電鍍、鐵帽鍍錫
多聯科技股份有限公司,新竹縣湖口鄉鳳山村仁政路１２號,24.867876100000004,121.00986499999999,化學製品業,未分類其他化學製品製造業,,顯影劑、研磨液、薄膜形成液、洗淨液
捷盟工業股份有限公司,新竹縣湖口鄉鳳山村仁政路９號,24.867876100000004,121.00986499999999,汽車及零件業,車體製造業,,各種廂式保溫車身，箱式冷凍車身，箱式貨車
富泰空調科技股份有限公司新竹工業區二廠,新竹縣湖口鄉鳳凰村光復北路８４號,24.869085300000002,121.020271,機械設備業,輸送機械設備製造業,鈑金、馬達、鋁擠型、風輪風車,自動化倉儲設備、送風過濾單元、空氣浴塵室、高效能空氣過濾網軌道
中國電器股份有限公司新竹廠,新竹縣湖口鄉鳳凰村光復北路８１號,24.869085300000002,121.020271,電力設備業,電燈泡及燈管製造業,,日光燈管、電燈泡、汽車泡
微鑫電子股份有限公司,新竹縣湖口鄉光復北路８１號１樓,24.869085300000002,121.020271,電子零組件業,積體電路製造業,,矽晶背研磨薄化矽晶背蒸鍍矽晶圓重工其他電子零組件
元晶太陽能科技股份有限公司新竹廠,新竹縣湖口鄉勝利村光復北路８５號及８７號,24.869085300000002,121.020271,電子零組件業,太陽能電池製造業,,太陽能電池
晃誼科技股份有限公司湖口一廠,新竹縣湖口鄉鳳凰村光復北路８８號,24.8682671,121.019783,金屬製品業,其他金屬加工處理業,不銹鋼板,不銹鋼風管、不銹鋼管
穩好高分子化學工業股份有限公司光復北路廠,新竹縣湖口鄉勝利村光復北路８０號,24.8704052,121.020927,化學製品業,未分類其他化學製品製造業,,合成漿料．原絲處理油．酯類．ＰＵ合成樹脂
台灣麥德美股份有限公司,新竹縣湖口鄉中興村光復北路７７號,24.8708725,121.02114099999999,化學製品業,未分類其他化學製品製造業,,其它電子工業用化學處理劑
錸德科技股份有限公司新竹二廠,新竹縣湖口鄉中興村光復北路４４、４６、４８號,24.8720169,121.021248,電腦電子及光學品業,資料儲存媒體製造業,,ＣＤ－Ｒ，ＣＤ－ＲＷ，ＤＶＤ，ＩＡ
錸德科技股份有限公司新竹五廠,新竹縣湖口鄉中興村光復北路５０、５０之１號,24.8720169,121.021248,電腦電子及光學品業,資料儲存媒體製造業,,ＣＤ－Ｒ，ＣＤ－ＲＷ，ＤＶＤ，ＩＡ
崇文科技股份有限公司,新竹縣湖口鄉仁政路５號１樓,24.866539000000003,121.01094099999999,機械設備業,未分類其他專用機械設備製造業,,其他專用生產機械加工
友發化工股份有限公司新竹廠,新竹縣湖口鄉鳳山村仁政路２號,24.866539000000003,121.01094099999999,化學材料業,化學原材料製造業,,其他化學製藥
傳奇酒業有限公司,新竹縣湖口鄉鳳山村仁政路３號,24.866539000000003,121.01094099999999,飲料業,啤酒製造業,麥芽,啤酒類
曜瑋興業有限公司,新竹縣湖口鄉鳳山村仁政路５號１、２樓,24.866539000000003,121.01094099999999,電腦電子及光學品業,鐘錶製造業,,時鐘
中升農機股份有限公司,新竹縣湖口鄉鳳山村仁政路６號,24.866539000000003,121.01094099999999,機械設備業,農用及林用機械設備製造業,,農業機械
錸德科技股份有限公司新竹十一廠,新竹縣湖口鄉鳳凰村光復北路７８號,24.8664474,121.018074,電腦電子及光學品業,資料儲存媒體製造業,,ＣＤ－Ｒ，ＣＤ－ＲＷ，ＤＶＤ，ＩＡ
毛寶股份有限公司,新竹縣湖口鄉勝利村實踐路１９號１樓,24.86534,121.01557199999999,化學製品業,清潔用品及化粧品製造業,,洗衣精、冷洗精、柔軟精、洗碗精
保力達股份有限公司新竹廠,新竹縣湖口鄉勝利村實踐路２０號,24.86534,121.01557199999999,藥品及醫用化學品業,西藥製造業,,保力達Ｂ（６００ＣＣ、３００ＣＣ）
台灣德亞瑪股份有限公司新竹廠,新竹縣湖口鄉鳳凰村實踐路２１號,24.86534,121.01557199999999,化學製品業,未分類其他化學製品製造業,,異丙醇、顯影劑
長榮鋼鐵股份有限公司新竹廠,新竹縣湖口鄉鳳凰村光復北路９９號,24.8660259,121.018074,基本金屬業,鋼鐵軋延及擠型業,,竹節鋼筋
台灣田邊製藥股份有限公司新竹廠,新竹縣湖口鄉鳳凰村光復北路９７號,24.866201399999998,121.01851699999999,藥品及醫用化學品業,西藥製造業,,錠（有糖衣）、軟膏、外用液劑、膠囊
錫宬國際股份有限公司湖口廠,新竹縣湖口鄉鳳山村１７鄰仁政路１３號,24.8678169,121.00868200000001,機械維修及安裝業,產業用機械設備維修及安裝業,,電子及半導體生產用機器設備
盛翔紙器股份有限公司,新竹縣湖口鄉鳳山村復興路４號,24.8667583,121.00916299999999,紙漿、紙及紙製品業,瓦楞紙板及紙容器製造業,,紙箱
惠豐化工廠股份有限公司,新竹縣湖口鄉鳳山村復興路６號,24.8667583,121.00916299999999,化學材料業,化學原材料製造業,,偏矽酸鈉、醋酸鈉、氫氟酸、磷酸
裕鑫工業股份有限公司湖口廠,新竹縣湖口鄉鳳山村復興路８號,24.8667583,121.00916299999999,金屬製品業,其他金屬加工處理業,,板金件雷色切割加工
亞泰半導體設備股份有限公司湖口廠,新竹縣湖口鄉鳳山村復興路１０號,24.86719,121.00866699999999,機械設備業,電子及半導體生產用機械設備製造業,電控、機械元件、ＰＰ板材、ＰＵＭＰ、閥件,化學液或化學漿料輸送設備製造、維修、半導體耗材銷售
恩良企業股份有限公司,新竹縣湖口鄉鳳山村復興路１２號,24.86719,121.00866699999999,塑膠製品業,其他塑膠製品製造業,,塑膠製品，絕緣材料
宇智網通股份有限公司新竹廠,新竹縣湖口鄉鳳凰村光復北路９０號,24.8644352,121.016251,電腦電子及光學品業,其他通訊傳播設備製造業,,無線通信機械器材
廣大保利龍股份有限公司,新竹縣湖口鄉鳳凰村光復路３４號,24.86736,121.021507,塑膠製品業,塑膠外殼及配件製造業,,保利龍、紙箱
日鼎股份有限公司新竹廠,新竹縣湖口鄉鳳凰村光復路３６號,24.86736,121.021507,機械設備業,化工機械設備製造業,鋼材、五金,機械及零件
迅能半導體股份有限公司,新竹縣湖口鄉勝利村光復路３２之１號３樓、５樓及３２之２號,24.86736,121.021507,電子零組件業,分離式元件製造業,,蕭特基＆小訊號二極體
大全彩藝工業股份有限公司新竹工廠,新竹縣湖口鄉勝利村光復路２８號,24.86736,121.021507,塑膠製品業,塑膠膜袋製造業,,保麗紙及袋玻璃紙袋熱封鋁箔
鴻谷科技股份有限公司湖口廠,新竹縣湖口鄉勝利村光復路３２之１號、３２之１號４樓、３２之１號５樓、３２之１號６樓,24.86736,121.021507,電子零組件業,半導體封裝及測試業,,積體電路測試
群雅電子股份有限公司湖口廠,新竹縣湖口鄉鳳凰村光復路３２之１號５樓,24.86736,121.021507,電子零組件業,半導體封裝及測試業,,電子零組件
台灣松下多層材料股份有限公司,新竹縣湖口鄉中興村光復路２０之１號,24.868812600000002,121.02253,電子零組件業,印刷電路板製造業,,印刷電路用銅箔基層板（ＰＰ＆ＣＣＬ）
台光電子材料股份有限公司新竹廠,新竹縣湖口鄉鳳山村文化路１４號,24.864481,121.01136799999999,電子零組件業,印刷電路板製造業,,印刷電路板、其他電子零組件
凱爾迪科技股份有限公司,新竹縣湖口鄉波羅村光華路５８３號,24.876075699999998,121.02213300000001,機械設備業,其他通用機械設備製造業,,清洗機設備
宏力生化科技股份有限公司,新竹縣湖口鄉勝利村光復北路９１號,24.863891600000002,121.015961,塑膠製品業,其他塑膠製品製造業,,全生物可分解塑膠粒，生分解塑膠製品（膜袋類、農業資材類）符合ＥＮ１３４３２，ＡＳＴＭＤ６４００標準，並獲歐、美、日、臺認証
德謙企業股份有限公司新竹二廠,新竹縣湖口鄉勝利村２６鄰光復北路９２號,24.863891600000002,121.015961,化學製品業,未分類其他化學製品製造業,,塗料添加物
錸德科技股份有限公司十二廠,新竹縣湖口鄉中興村光復北路４２號２樓,24.8735828,121.02364299999999,電腦電子及光學品業,資料儲存媒體製造業,,ＣＤ－Ｒ，ＣＤ－ＲＷ，ＤＶＤ，ＩＡ
錸德科技股份有限公司,新竹縣湖口鄉中興村光復北路４２號,24.8735828,121.02364299999999,電腦電子及光學品業,資料儲存媒體製造業,,ＣＤ－Ｒ，ＣＤ－ＲＷ，ＤＶＤ，ＩＡ
青春泉食品股份有限公司湖口廠,新竹縣湖口鄉實踐路２２號,24.8635063,121.01332099999999,食品及飼品業,巧克力及糖果製造業,,糖果及烘培食品、飲料、其他食品
昇鑫精密有限公司,新竹縣湖口鄉勝利村工業四路３號１樓、４樓,24.8634167,121.015419,金屬製品業,未分類其他金屬製品製造業,,金屬製品
怡何有限公司,新竹縣湖口鄉勝利村工業四路３號２樓,24.8634167,121.015419,塑膠製品業,其他塑膠製品製造業,,塑膠導電盤
穩好高分子化學工業股份有限公司,新竹縣湖口鄉鳳山村６鄰實踐路３５號、光復北路９６號,24.863098100000002,121.01413000000001,化學製品業,未分類其他化學製品製造業,,合成漿料、原絲處理油、酯類、ＰＵ合成樹脂
大城輪胎機械股份有限公司,新竹縣湖口鄉鳳山村實踐路３３號,24.863098100000002,121.01413000000001,機械設備業,橡膠及塑膠加工用機械設備製造業,,汽修工具、拆胎機
誠遠科技股份有限公司三廠,新竹縣湖口鄉中興村光復北路４２號１、２、３樓（部分使用）,24.872991600000002,121.024147,電子零組件業,半導體封裝及測試業,,積體電器加工、ＩＣ測試
東安開發股份有限公司,新竹縣湖口鄉中興村光復北路４２號５樓,24.872991600000002,121.024147,塑膠製品業,塑膠皮、板及管材製造業,,生產ＰＶＡ Ｂｒｕｓｈ與清洗耗材
台惟工業股份有限公司,新竹縣湖口鄉中興村光復路１４號,24.8717117,121.02869399999999,汽車及零件業,汽車零件製造業,,生產汽、機車前輪傳動軸及等速接頭
愛德萬測試股份有限公司,新竹縣湖口鄉湖南村光復路１５、１５之１號、１５號２樓,24.8717117,121.02869399999999,機械設備業,電子及半導體生產用機械設備製造業,,半導體設備測試
頎邦科技股份有限公司光復廠,新竹縣湖口鄉中興村光復路１２號,24.8717117,121.02869399999999,電子零組件業,半導體封裝及測試業,,半導體
聯合生物製藥股份有限公司ＣＨＯ先導工廠,新竹縣湖口鄉中興村光復北路４５號,24.873848000000002,121.02951000000002,藥品及醫用化學品業,醫用生物製品製造業,,生物新藥（尚在臨床試驗中）
聯亞藥業股份有限公司新竹廠,新竹縣湖口鄉中興村光復北路４５號,24.873848000000002,121.02951000000002,藥品及醫用化學品業,西藥製造業,,１、Ｆｅｎｔａｎｙｌ Ｉｎｊｅｃｔｉｏｎ  ０．０５ｍｇ／ｍＬ ＂ＰＰＣＤ＂ １０ｍＬ ｘ ５ＡＭＰ ２、ＺＥＦＦＩＸ ＴＡＢＳ １００ＭＧ ２８Ｓ ３、Ｆｅｂｕｒｉｃ ８０ｍｇ ＦＣＴ １４Ｓ＊２ ＢＬＳＴ ４、Ｆｅｎｔａｎｙｌ Ｉｎｊ ０．０５ｍｇ／ｍｌ ＂ＰＰＣＤ＂
聯亞生技開發股份有限公司新竹二廠,新竹縣湖口鄉中興村光復北路４５號,24.873848000000002,121.02951000000002,藥品及醫用化學品業,西藥製造業,,ＬＨＲＨ
白金科技股份有限公司湖口廠,新竹縣湖口鄉光復路８號,24.8718872,121.031654,電腦電子及光學品業,照相機製造業,,濾光片
白金科技股份有限公司二廠,新竹縣湖口鄉光復路８號２樓,24.8718872,121.031654,電腦電子及光學品業,照相機製造業,,濾光片
聯合生物製藥股份有限公司,新竹縣湖口鄉中興村２６鄰光復北路４５之１號,24.8740673,121.029785,藥品及醫用化學品業,醫用生物製品製造業,,生物新藥（尚在臨床試驗中）
權亞石材股份有限公司,新竹縣湖口鄉中興村光復北路３８號、４０號,24.8739052,121.03048700000001,非金屬礦物製品業,石材製品製造業,大理石、花崗石,大理石建材、花崗石建材
艾克爾先進科技股份有限公司,新竹縣湖口鄉中興村光復北路３９號,24.8739052,121.03048700000001,電子零組件業,半導體封裝及測試業,,晶圓凸塊
台灣田中貴金屬工業股份有限公司,新竹縣湖口鄉中興村光復北路３７號,24.8739052,121.03048700000001,電力設備業,其他電力設備及配備製造業,,端子
健亞生物科技股份有限公司,新竹縣湖口鄉中興村１９鄰工業一路１號,24.87203,121.026474,藥品及醫用化學品業,醫用生物製品製造業,,西藥、顆粒、膠囊、液劑
國碩科技工業股份有限公司湖口二廠,新竹縣湖口鄉中興村２３鄰工業一路３號、３之１號,24.87203,121.026474,電腦電子及光學品業,資料儲存媒體製造業,,ＷＡＦＥＲ
碩禾電子材料股份有限公司,新竹縣湖口鄉中興村工業一路３號１樓,24.87203,121.026474,化學製品業,未分類其他化學製品製造業,,銀漿
禾米特用材料股份有限公司,新竹縣湖口鄉工業一路３號２樓,24.87203,121.026474,電子零組件業,未分類其他電子零組件製造業,,低溫銀膠
台灣唯綠包裝股份有限公司,新竹縣湖口鄉中興村工業一路５號,24.87116,121.02658799999999,紙漿、紙及紙製品業,瓦楞紙板及紙容器製造業,液體飲料塑膠薄膜底包裝用紙板,包裝紙器
道達爾潤滑油股份有限公司,新竹縣湖口鄉中興村光復北路２６、２８號,24.874012,121.027252,石油及煤製品業,石油及煤製品製造業,,潤滑油
台灣富士電子材料股份有限公司,新竹縣湖口鄉中興村光復北路３０號,24.874012,121.027252,化學製品業,未分類其他化學製品製造業,,顯影劑，光阻劑
岩田友嘉精機股份有限公司,新竹縣湖口鄉中興村光復北路３１號,24.874012,121.027252,金屬製品業,金屬刀具及手工具製造業,鋁、銅,油漆噴槍、容器、塗料幫浦、減壓閥等及相關另組件
旭德科技股份有限公司軟板廠,新竹縣湖口鄉中興村光復北路３２號,24.874012,121.027252,電子零組件業,印刷電路板製造業,,ＴＡＢ、ＣＯＦ、ＩＮＫ
健喬信元醫藥生技股份有限公司健喬廠,新竹縣湖口鄉中興村工業一路６號,24.8709869,121.02555100000001,藥品及醫用化學品業,西藥製造業,,艾斯美特膠囊、咳立靜糖漿、愛克痰顆粒、欣律錠
協祥機械工業股份有限公司新竹二廠,新竹縣湖口鄉湖南村光復北路２３號,24.8749828,121.03131100000002,汽車及零件業,汽車零件製造業,,汽車用引擎、排氣系統、踏板系統
台灣田中貴金屬工業股份有限公司湖口工廠,新竹縣湖口鄉湖南村光復北路２５號,24.8749828,121.03131100000002,基本金屬業,未分類其他基本金屬製造業,,其他金屬製品
展宇科技材料股份有限公司第一廠,新竹縣湖口鄉中興村光復北路２４號,24.8749828,121.03131100000002,化學材料業,塑膠原料製造業,,聚胺基甲酸酯樹脂（ＰＵ）
旭德科技股份有限公司三廠,新竹縣湖口鄉中興村光復北路６５號１樓,24.872684500000002,121.02498600000001,電子零組件業,印刷電路板製造業,,ＬＥＤ
群豐科技股份有限公司Ｃ廠,新竹縣湖口鄉中興村光復北路６５號４樓,24.872684500000002,121.02498600000001,電子零組件業,印刷電路板組件製造業,,ＰＣＢＡ／ ＭＩＣＲＯ ＳＤ卡／ＴＳＯＰ／ＱＦＰ
華立捷科技股份有限公司二廠,新竹縣湖口鄉中興村光復北路６５號２樓,24.8726883,121.02498600000001,電子零組件業,其他光電材料及元件製造業,,光電零組件
台灣貝克休斯股份有限公司,新竹縣湖口鄉中興村光復北路３４號,24.874567000000003,121.032921,金屬製品業,未分類其他金屬製品製造業,,其他金屬製品
台灣富士電子材料股份有限公司二廠,新竹縣湖口鄉中興村光復北路３６之１號,24.874567000000003,121.032921,化學製品業,未分類其他化學製品製造業,,顯影劑，光阻劑
台灣日美股份有限公司,新竹縣湖口鄉中興村光復北路３６號,24.874567000000003,121.032921,基本金屬業,鋁材軋延、擠型及伸線業,,百葉窗用烤漆鋁片
達運精密工業股份有限公司湖口廠,新竹縣湖口鄉光復北路３５號、３５－１號,24.874567000000003,121.032928,電子零組件業,液晶面板及其組件製造業,,光電科技產品及週邊零組件、液晶電視及模組代工
日商松田產業股份有限公司台灣分公司湖口廠,新竹縣湖口鄉中興村光復北路６７號,24.872629999999997,121.0246,金屬製品業,金屬表面處理業,,金屬表面處理加工
儒成工業有限公司一廠,新竹縣湖口鄉鳳凰村光復北路６６號,24.872629999999997,121.0246,汽車及零件業,汽車零件製造業,,汽車零件加工
儒成工業有限公司二廠,新竹縣湖口鄉鳳凰村光復北路６６號,24.872629999999997,121.0246,汽車及零件業,汽車零件製造業,,汽車零件
益得生物科技股份有限公司,新竹縣湖口鄉中興村新竹工業區光復路２０號,24.86881,121.025658,藥品及醫用化學品業,西藥製造業,,呼吸道作用藥
信隆車料工業股份有限公司新竹廠,新竹縣湖口鄉中興村光復北路１８號,24.8752651,121.03280600000001,其他運輸工具零件業,自行車零件製造業,,車料零件（自行車）
健喬信元醫藥生技股份有限公司光復廠,新竹縣湖口鄉湖南村光復北路１９號,24.8752651,121.03280600000001,藥品及醫用化學品業,西藥製造業,,艾斯美特膠囊、咳立靜糖漿、愛克痰顆粒、欣律錠
立達鋼鐵股份有限公司湖口三廠,新竹縣湖口鄉中興村光復路２２，２４號,24.8717575,121.034653,基本金屬業,鋼鐵軋延及擠型業,,鋼鐵、非鐵金屬特殊鋼、不銹鋼
台灣近畿金屬股份有限公司,新竹縣湖口鄉湖南村光復路２５號,24.8717575,121.034653,金屬製品業,金屬建築組件製造業,,金屬鋼板門、帷幕牆板
力褔實業股份有限公司新竹廠,新竹縣湖口鄉湖南村１０鄰光復路２３號,24.8717575,121.034653,金屬製品業,金屬結構製造業,鋁板、鋁擠型、鋁料、鍍鋅鋼板、ＳＵＳ鋼板,帷幕牆、金屬（鋁）門窗、鋼板門
新燕企業股份有限公司,新竹縣湖口鄉湖南村光復北路２１巷６號,24.873062100000002,121.035225,化學製品業,未分類其他化學製品製造業,,真珠岩砂，濾過助劑，保溫材料
台灣得力電化股份有限公司,新竹縣湖口鄉湖南村光復北路２１巷６之３號,24.873062100000002,121.035225,化學製品業,未分類其他化學製品製造業,１．ＥＰ Ａｄｄ． Ｃｏｒｒｅｃｔｏｒ ２．ＮＦ－ＡＣＩＤ Ｂｌｕｅ ３．１０２５ ＢＴＲ Ｃｏｎｃ． １０Ｘ  ４．ＥＰ ＨＣＤ Ａｄｄ． ５０Ｘ,１．Ｇｏｌｄｅｎｅｙｅ Ｓａｔｉｎ Ｎｉｃｋｅｌ Ｃｏｎｃ． ２．Ｔｅｃｈｎｉ Ｓｉｌｖｅｒ ＥＨＳ ３Ｒ ＢＴＲ ３．Ｔｅｃｈｎｉ Ａｃｔｉｖａｔｉｎｇ Ｓａｌｔｓ Ｃｕ８８ ４．Ｅｐ Ａｄｄ． Ｃｏｎｃ ＩＩ
榮技實業股份有限公司,新竹縣湖口鄉湖南村光復北路２１巷６之１號,24.8736153,121.035126,化學製品業,未分類其他化學製品製造業,,水劑理藥劑、酵素
健喬信元醫藥生技股份有限公司信元廠,新竹縣湖口鄉湖南村光復北路２１巷４號,24.874145499999997,121.035141,藥品及醫用化學品業,西藥製造業,,艾斯美特膠囊、咳立靜糖漿、愛克痰顆粒、欣律錠
福星機電工業有限公司湖口廠,新竹縣湖口鄉湖南村光復北路１４號,24.87561,121.035454,機械設備業,橡膠及塑膠加工用機械設備製造業,,輪胎機器製作、輪胎機器零件
添鴻科技股份有限公司光復廠,新竹縣湖口鄉湖南村光復路４－２號,24.8726387,121.03674299999999,化學材料業,化學原材料製造業,,蝕刻液、其他化學製品、其他電子零組件
倫輝實業股份有限公司,新竹縣湖口鄉湖南村光復路１７號,24.8722878,121.0369,電腦電子及光學品業,其他通訊傳播設備製造業,,電梯零組件、自動化零組件、無線區域網路
聯合再生能源股份有限公司新竹一廠,新竹縣湖口鄉湖南村１０鄰光復北路１６號地下室、１樓、２樓（部份使用）、３樓、４樓、５樓、６樓、７樓,24.8747711,121.036423,電子零組件業,太陽能電池製造業,,太陽能電池及模組
聯合再生能源股份有限公司新竹二廠,新竹縣湖口鄉湖南村光復北路１６之２號,24.8747711,121.036423,電子零組件業,太陽能電池製造業,,太陽能電池及模組
錸德科技股份有限公司新竹七廠,新竹縣湖口鄉中興村光復北路１７號,24.8747711,121.036423,電腦電子及光學品業,資料儲存媒體製造業,,ＣＤ－Ｒ，ＣＤ－ＲＷ，ＤＶＤ，ＩＡ
安可光電股份有限公司十七號廠,新竹縣湖口鄉中興村光復北路１７號３樓,24.8747711,121.036423,電子零組件業,其他光電材料及元件製造業,ＳＡＰＰＨＩＲＥ,ＰＡＴＴＥＲＮＥＤ ＳＡＰＰＨＩＲＥ ＳＵＢＳＴＲＡＴＥ
科治新技股份有限公司二廠,新竹縣湖口鄉湖南村光復北路１２之２號４樓,24.8759079,121.036278,電子零組件業,未分類其他電子零組件製造業,,電子及半導體生產設備零件
致佳科技股份有限公司湖口廠,新竹縣湖口鄉湖南村光復北路９、１１號,24.8759079,121.036278,金屬製品業,金屬表面處理業,,專業金屬表面處理
科治新技股份有限公司,新竹縣湖口鄉湖南村１０鄰光復北路１２之２號,24.8759079,121.036278,金屬製品業,金屬表面處理業,,金屬加工處理（塗佈、陽極處理）
欣銓科技股份有限公司新工五廠,新竹縣湖口鄉湖南村１０鄰光復北路１２號６、７樓（部分使用）,24.8759079,121.036278,電子零組件業,半導體封裝及測試業,,晶圓測試加工
瑞峰半導體股份有限公司,新竹縣湖口鄉光復北路１２號５樓,24.8759079,121.036278,電子零組件業,半導體封裝及測試業,,ＲＤＬ加工收入
錸寶科技股份有限公司新竹廠,新竹縣湖口鄉湖南村光復北路１２號,24.8759079,121.036278,電子零組件業,液晶面板及其組件製造業,玻璃、發光材料,有激發光二極體元件及模組
優良化學製藥股份有限公司,新竹縣湖口鄉中興村光復路１０號,24.872242,121.03818500000001,藥品及醫用化學品業,西藥製造業,,西藥，化妝品
艾克爾國際科技股份有限公司新竹廠,新竹縣湖口鄉湖南村光復路１１號,24.872242,121.03818500000001,電子零組件業,半導體封裝及測試業,,ＩＣ購裝測試
沂美企業有限公司新竹廠,新竹縣湖口鄉湖南村光復路９號,24.872242,121.03818500000001,化學製品業,未分類其他化學製品製造業,尿素、芒硝、純鹹、聚乙二醇,紡織染整助劑
華立捷科技股份有限公司漢陽廠,新竹縣湖口鄉勝利村２２鄰光復南路２號,24.8657188,121.02291899999999,電子零組件業,其他光電材料及元件製造業,,光電零組件
中發工業股份有限公司,新竹縣湖口鄉勝利村四維路３號,24.8652573,121.02343799999998,金屬製品業,未分類其他金屬製品製造業,,汽車平衡、桿、彈簧
一興化學工業有限公司,新竹縣湖口鄉鳳凰村四維路２之１號,24.8652573,121.02343799999998,化學製品業,未分類其他化學製品製造業,,清罐劑
祥德科技股份有限公司新竹廠,新竹縣湖口鄉鳳凰村四維路２號,24.8652573,121.02343799999998,化學製品業,未分類其他化學製品製造業,,光碟染料
雅信鑄造股份有限公司二廠,新竹縣湖口鄉勝利村光復南路４號,24.86563,121.022873,基本金屬業,其他基本金屬鑄造業,,精密鑄造零件
亞富科技股份有限公司,新竹縣湖口鄉鳳凰村光復南路５號,24.8654327,121.023048,電子零組件業,半導體封裝及測試業,,半導體
豐云精密股份有限公司,新竹縣湖口鄉新竹工業區光復北路１０號１樓,24.8759079,121.037773,塑膠製品業,其他塑膠製品製造業,,導光板
安可光電股份有限公司,新竹縣湖口鄉湖南村光復北路１０號,24.8759079,121.037773,電子零組件業,其他光電材料及元件製造業,ＧＬＡＳＳ,ＩＴＯ ＧＬＡＳＳ
安可光電股份有限公司二廠,新竹縣湖口鄉湖南村光復北路１０號１樓,24.8759079,121.037773,金屬製品業,金屬表面處理業,塑膠基板,非金屬製品表面處理
矽格股份有限公司湖口廠,新竹縣湖口鄉勝利村四維路１號、１之１號,24.864341699999997,121.024193,電子零組件業,半導體封裝及測試業,,ＩＣ測試及晶圓測試
中華汽車工業股份有限公司新竹廠,新竹縣湖口鄉湖南村１０鄰光復路２號,24.873764,121.041168,汽車及零件業,汽車製造業,,各型車輛引擎，變速箱謥成，大貨車裝配
聯城工業股份有限公司新竹廠,新竹縣湖口鄉湖南村光復路４之１號,24.873764,121.041168,汽車及零件業,汽車零件製造業,,汽車及其零件、機車及其零件
協祥機械工業股份有限公司研發廠,新竹縣湖口鄉湖南村光復路３號,24.873764,121.041168,汽車及零件業,汽車零件製造業,,汽車零件
歐帕生技醫藥股份有限公司,新竹縣湖口鄉光復路１號,24.873764,121.041168,藥品及醫用化學品業,西藥製造業,,西藥品代工
台灣三菱電梯股份有限公司新竹工廠,新竹縣湖口鄉中興村１８鄰光復路６之２號,24.873037300000004,121.03945900000001,機械設備業,輸送機械設備製造業,,電梯、電扶梯、設計、製造
豐裕股份有限公司,新竹縣湖口鄉湖南村１０鄰光復路６之１號,24.873037300000004,121.03945900000001,汽車及零件業,汽車零件製造業,,儀表板、用品箱、扶手、車邊飾條、模具
加力興股份有限公司新竹廠,新竹縣湖口鄉湖南村１０鄰光復路６號,24.873037300000004,121.03945900000001,機械設備業,其他金屬加工用機械設備製造業,,機械（粉未成型機）、機械零件（模具）
佳乳食品股份有限公司,新竹縣湖口鄉湖南村光復路７號,24.873037300000004,121.03945900000001,食品及飼品業,乳品製造業,,燕麥飲、完膳、優酪乳、優格
協祥機械工業股份有限公司新竹廠,新竹縣湖口鄉湖南村光復北路２號,24.87511,121.039833,汽車及零件業,汽車零件製造業,,汽車用（引擎、排氣系統、踏板系統．．．）
台灣彌滿和股份有限公司,新竹縣湖口鄉湖南村光復北路３號,24.87511,121.039833,金屬製品業,金屬刀具及手工具製造業,鋼材,各種規格螺絲攻
華上光電股份有限公司新竹廠,新竹縣湖口鄉湖南村新竹工業區光復北路１號,24.87511,121.039833,電子零組件業,發光二極體製造業,,發光二極體磊晶片、磊晶粒
光磊科技股份有限公司光復廠,新竹縣湖口鄉湖南村光復北路６號,24.876339,121.03870400000001,電子零組件業,其他光電材料及元件製造業,,發光元件、感測元件、系統產品
台灣日亞化學股份有限公司,新竹縣湖口鄉湖南村光復北路６號,24.876339,121.03870400000001,電子零組件業,發光二極體製造業,,發光二極體顯示看板、其他電子零組件
康峰股份有限公司斜管廠,新竹縣湖口鄉湖南村光復北路５號,24.876339,121.03870400000001,紙漿、紙及紙製品業,未分類其他紙製品製造業,,紙管
旭德科技股份有限公司,新竹縣湖口鄉湖南村１０鄰光復北路８號,24.8763428,121.03823100000001,電子零組件業,半導體封裝及測試業,,ＲＦ、ＬＥＤ基板、ＰＢＧＡ、ＭＥＭＳ
佐藤製藥股份有限公司新竹廠,新竹縣湖口鄉湖南村光復北路７號,24.8763428,121.03823100000001,藥品及醫用化學品業,西藥製造業,,西藥、顆粒、錠、軟膏
美純編織有限公司,新竹縣湖口鄉湖鏡村八德路一段６６８號,24.877443300000003,121.051,家具業,木製家具製造業,,編織毛衣，藤製家具及裝設品
育達精密工業有限公司,新竹縣湖口鄉湖鏡村湖口老街５２號,24.877111399999997,121.053627,其他製造業,眼鏡製造業,,眼鏡
愛基實業社,新竹縣湖口鄉長安村南窩路４８１號,24.87174,121.112068,金屬製品業,未分類其他金屬製品製造業,,金屬手工具及模具，其他金屬製品，通用機械設備
清晰科技股份有限公司,新竹縣湖口鄉長安村４鄰南窩路４８９號,24.8762245,121.111717,電子零組件業,印刷電路板製造業,,印刷電路板
久玖酒莊,桃園市楊梅區永寧里老莊路９５０巷９０號,24.876344699999997,121.166641,飲料業,其他酒精飲料製造業,,米
金鞍機械工業股份有限公司龍潭廠,桃園市龍潭區九龍里３１鄰中興路九龍段１２９巷６９號,24.86959,121.169395,機械設備業,食品、飲料及菸草製作用機械設備製造業,,食品加工機械、輸送機械、機械維修及零件
國新鋁業有限公司,新竹縣竹北市新港里西濱路一段１９５巷９號,24.855566,120.945679,金屬製品業,金屬建築組件製造業,,鋁窗
祥印企業股份有限公司,新竹縣竹北市新港里新港三街一段２０號,24.851368,120.943932,橡膠製品業,其他橡膠製品製造業,,橡膠零件
祥印企業股份有限公司,新竹縣竹北市新港里１０鄰新港三街一段２０號,24.851368,120.943932,橡膠製品業,其他橡膠製品製造業,,橡膠零件
添益工業社,新竹縣竹北市新港里港安街一段２６８號,24.856203100000002,120.949196,機械設備業,其他通用機械設備製造業,,其他未列名機械及零件
和記碾米廠,新竹縣竹北市崇義里鳳岡路三段４５０巷９號１樓,24.8613319,120.95751200000001,食品及飼品業,碾榖業,,烘乾稻殼、礱殼、碾米、買賣（零售、批發）
立光玻璃實業股份有限公司一廠,新竹縣竹北市崇義里長青路二段２０３巷６６號,24.858812300000004,120.96035,印刷及儲存媒體複製業,印刷業,,玻璃瓶印刷
菊鶴食品有限公司,新竹縣竹北市崇義里鳳岡路三段３９８號,24.8621826,120.95916000000001,食品及飼品業,調味品製造業,,水果醋
十全特好食品股份有限公司,新竹縣竹北市崇義里鳳岡路三段３９８號,24.8621826,120.95916000000001,食品及飼品業,調味品製造業,,味噌，辣椒醬，水果醋，沙茶醬，黑酢等
信華綠能產業股份有限公司,新竹縣竹北市崇義里長青路二段９９號,24.856348,120.96141100000001,其他運輸工具零件業,自行車製造業,,運動器材零件買賣
正隆股份有限公司竹北廠,新竹縣竹北市大義里長青路二段３００號,24.8620377,120.96066299999998,紙漿、紙及紙製品業,家庭及衛生用紙製造業,,衛生紙、白紙板、擦手紙、面紙
立光玻璃實業股份有限公司二廠,新竹縣竹北市崇義里長青路二段１９７號,24.858341199999998,120.962547,印刷及儲存媒體複製業,印刷業,,玻璃瓶印刷
井親電機股份有限公司,新竹縣竹北市麻園里４鄰麻園五街３３６之２號,24.853360000000002,120.97121399999999,電力設備業,發電、輸電及配電機械製造業,,其他靜止電機品
陞朋精密股份有限公司,新竹縣竹北市大義里鳳岡路三段１７６號,24.862007100000003,120.96500400000001,金屬製品業,金屬模具製造業,,模具
聯毅科技股份有限公司,新竹縣竹北市聯興里環北路三段２２６號１樓,24.8570538,120.97811100000001,電腦電子及光學品業,其他光學儀器及設備製造業,,其他精密儀器及其零組件
匯華電子股份有限公司,新竹縣竹北市大義里鳳岡路二段１８０號,24.8592834,120.97963,電子零組件業,半導體封裝及測試業,,晶圓來料加工研磨、測試、切割
萬集興環保工程股份有限公司竹北廠,新竹縣竹北市大義里鳳岡路二段１５０巷１５０號,24.862525899999998,120.98406999999999,基本金屬業,其他基本金屬鑄造業,,各類電路板，電子零組件，積體電路晶片
科勁有限公司,新竹縣竹北市聯興里１１鄰水防道路一段３９５號,24.85407,120.98928799999999,紙漿、紙及紙製品業,未分類其他紙製品製造業,,紙類加工
潔升塑膠股份有限公司,新竹縣竹北市大眉里７鄰中華路明新巷２弄４號,24.861602800000004,120.990646,塑膠製品業,其他塑膠製品製造業,,塑膠品
潔升塑膠股份有限公司第二廠,新竹縣竹北市大眉里中華路明新巷２弄２號,24.861806899999998,120.990921,其他製造業,玩具及遊戲機製造業,,塑膠製品：嬰兒用品，玩具（賭博性除外）
進坤企業股份有限公司,新竹縣竹北市聯興里聯興三街１３６巷１３９號,24.853345899999997,120.989769,塑膠製品業,其他塑膠製品製造業,,塑膠製品
進坤企業股份有限公司第二廠,新竹縣竹北市聯興里聯興三街１３６巷１５８弄２１號,24.8537712,120.990425,塑膠製品業,其他塑膠製品製造業,,塑膠製品
科威聯股份有限公司,新竹縣竹北市聯興里聯興三街１３６巷７５號１樓,24.852026000000002,120.99011200000001,金屬製品業,金屬模具製造業,,自動機零組件、治具、模具
嘉鋒實業社,新竹縣竹北市麻園里長園二街２４３號,24.8524742,120.979111,紡織業,其他紡織品製造業,,其他紡織
成皓有限公司,新竹縣竹北市大眉里４鄰中華路１２２１號,24.85643,121.00001499999999,紡織業,其他紡紗業,,特多龍紗
福格工業股份有限公司,新竹縣竹北市大眉里１鄰中華路１１８６號,24.855506899999998,121.001152,機械設備業,其他通用機械設備製造業,,機械零件加工
三千藝術雕刻木業有限公司,新竹縣竹北市大眉里中華路１１８７號,24.855506899999998,121.001152,木竹製品製造業,其他木竹製品製造業,,雕刻傢俱、雕刻神像
永太發汽車車體板金股份有限公司,新竹縣竹北市大眉里中華路１１６８號,24.855293300000003,121.0026,汽車及零件業,車體製造業,鐵板、鋼板、白鐵皮,汽車車體打造、各種拖車之製造
銘鑫碾米廠股份有限公司,新竹縣竹北市大眉里中華路１１４３號,24.8548946,121.00228899999999,食品及飼品業,碾榖業,,其他食品、米
九三科技有限公司,新竹縣竹北市大眉里中華路１１３５、１１３７號,24.854795499999998,121.00326499999998,塑膠製品業,其他塑膠製品製造業,,塑膠製品
建興企業社,新竹縣竹北市大眉里１鄰中華路１１３６號２樓,24.854795499999998,121.00326499999998,其他運輸工具零件業,船舶及浮動設施製造業,,救生艇
禎合企業有限公司,新竹縣竹北市大眉里中華路１１２９巷３弄１之１號,24.853395499999998,120.99965700000001,機械設備業,動力手工具製造業,,其他電動手工具
曜捷股份有限公司,新竹縣竹北市大眉里鳳岡路一段２５１巷１１號,24.8559723,120.99468200000001,機械設備業,其他通用機械設備製造業,,其他通用機械設備製造
昭順企業社,新竹縣竹北市大眉里中華路１１０５號,24.85393,121.003464,汽車及零件業,汽車零件製造業,,金屬五金零件、汽車零件
建成機械股份有限公司,新竹縣湖口鄉鳳山村中華路１號,24.8631134,121.004196,金屬製品業,鍋爐、金屬貯槽及壓力容器製造業,,鍋爐、送風機、化工設備
健喬企業股份有限公司新竹廠,新竹縣湖口鄉鳳山村中華路２號,24.8631134,121.004196,機械設備業,其他通用機械設備製造業,,鍋爐機臺買賣
春輝玻璃有限公司湖口廠,新竹縣湖口鄉鳳山村望高樓１２之３６號,24.8638611,120.99425500000001,非金屬礦物製品業,平板玻璃及其製品製造業,,玻璃加工
正大香農產行,新竹縣湖口鄉鳳山村國泰街５號,24.8597126,121.0081,食品及飼品業,調味品製造業,,麻油辣豆乳
台灣荏原精密股份有限公司湖口廠,新竹縣湖口鄉鳳山村１鄰自強路５號,24.8618469,121.007347,機械設備業,電子及半導體生產用機械設備製造業,鑄鐵、橡膠、鋼鐵,真空泵浦維修
台灣積水化成品股份有限公司,新竹縣湖口鄉鳳山村自強路７號,24.8618469,121.007347,化學材料業,塑膠原料製造業,,發泡性聚苯乙烯及聚乙烯共聚樹脂
前鼎光電股份有限公司湖口廠,新竹縣湖口鄉鳳山村自強路３號１、２、３、４、５樓,24.8618469,121.007347,電子零組件業,其他光電材料及元件製造業,,光纖主動元件
宇傑真空科技股份有限公司,新竹縣竹北市聯興里新工六路９號,24.8504143,120.998993,機械設備業,電子及半導體生產用機械設備製造業,,半導體製程設備
寶鏇有限公司,新竹縣竹北市聯興里９鄰寶泰五路１０９號,24.8502254,120.99941299999999,塑膠製品業,其他塑膠製品製造業,,腳墊、把手
東華工業有限公司,新竹縣竹北市聯興里保泰五路１０７號,24.850082399999998,120.99951200000001,金屬製品業,金屬表面處理業,,金屬表面處理、粉體烤漆
銳旺工業有限公司,新竹縣湖口鄉鳳山村榮光路８９巷１７號,24.859704999999998,121.00891899999999,金屬製品業,未分類其他金屬製品製造業,,機械零件、紡織零件及有關模夾具買賣
鉅豐精機股份有限公司,新竹縣湖口鄉鳳山村三民南路１１號,24.864454300000002,120.993393,機械設備業,未分類其他專用機械設備製造業,,機械另件
詮興開發科技股份有限公司湖口廠,新竹縣湖口鄉鳳山村三民南路１５號,24.864454300000002,120.993393,電子零組件業,未分類其他電子零組件製造業,,其他電子零組件、照明設備
恆光實業有限公司,新竹縣湖口鄉鳳山村三民南路１５號,24.864454300000002,120.993393,金屬製品業,其他金屬加工處理業,,其他金屬製品
兆赫電子股份有限公司新竹一廠,新竹縣湖口鄉鳳山村新竹工業區文化路２號,24.860979999999998,121.00866699999999,電腦電子及光學品業,視聽電子產品製造業,,數位有線視訊傳輸系統、數位衛星通訊傳輸系統、數位視訊轉換器產品
恆顥科技股份有限公司湖口廠,新竹縣湖口鄉鳳山村文化路２之１號,24.860979999999998,121.00866699999999,電子零組件業,其他光電材料及元件製造業,,觸控式面板
凌巨科技股份有限公司新竹廠,新竹縣湖口鄉鳳山村文化路２之１號１、３、４、５、６、８、９樓及地下一樓,24.860979999999998,121.00866699999999,電子零組件業,液晶面板及其組件製造業,,彩色濾光片
鈺穠農漁業食品廠,新竹縣竹北市崇義里鳳岡路五段２７９巷６號１樓,24.8494663,120.99897800000001,食品及飼品業,未分類其他食品製造業,,水產處理及其製品
新竹縣竹北市農會鳳岡碾米廠,新竹縣竹北市大義里鳳岡路二段１５１巷９６號,24.8494663,120.99897800000001,食品及飼品業,碾榖業,,糙米
柏芊有限公司,新竹縣竹北市聯興里環北路三段２５６號１樓,24.849475899999998,120.99805500000001,塑膠製品業,塑膠外殼及配件製造業,塑膠製品,塑膠製品
彩翔股份有限公司,新竹縣竹北市聯興里環北路三段２５６號３樓,24.849475899999998,120.99805500000001,印刷及儲存媒體複製業,印刷業,印刷及其輔助,印刷及其輔助
榮創能源科技股份有限公司湖口廠,新竹縣湖口鄉鳳山村工業五路１３號,24.8581352,121.0152,電子零組件業,未分類其他電子零組件製造業,,ＬＥＤ封裝或其他模組
華友材料科技股份有限公司應用高分子製品事業部,新竹縣湖口鄉鳳山村工業五路１５號,24.8581352,121.0152,電力設備業,其他電力設備及配備製造業,,熱收縮套管（單一產品）
住電國際電子材料股份有限公司,新竹縣湖口鄉鳳山村工業五路１９號,24.8581352,121.0152,電子零組件業,積體電路製造業,,砷化鎵基片
大象山食品有限公司,新竹縣湖口鄉鳳山村工業五路２５號,24.8586979,121.01331299999998,食品及飼品業,蔬果加工及保藏業,,脫水種子製品
晃誼科技股份有限公司湖口二廠,新竹縣湖口鄉鳳山村工業五路２１號,24.8586979,121.013176,塑膠製品業,塑膠皮、板及管材製造業,塑膠,塑膠管件
光頡科技股份有限公司湖口二廠,新竹縣湖口鄉鳳山村工業五路２３號,24.8586979,121.013176,電子零組件業,被動電子元件製造業,,電感、精密電阻、超低阻
統煜企業有限公司,新竹縣湖口鄉鳳山村工業五路２５之１號,24.8586979,121.013176,紙漿、紙及紙製品業,未分類其他紙製品製造業,,廢紙批發
中日金屬化工股份有限公司新竹工廠,新竹縣湖口鄉鳳山村光復北路１０６號,24.8594112,121.01366399999999,金屬製品業,金屬表面處理業,塗料、白燈油、防銹添加劑,塗裝加工
必翔電能高科技股份有限公司,新竹縣湖口鄉鳳山村工業五路７號,24.857975,121.016052,電力設備業,電池製造業,,磷酸鐵鋰電池、磷酸鐵鋰電池包、保護電子線路板
台灣帕卡可博股份有限公司新竹工廠,新竹縣湖口鄉鳳山村工業五路８號,24.857975,121.016052,化學製品業,未分類其他化學製品製造業,,ＬＣＧ２２５Ｘ（１１００ＫＧ）、ＬＣＧ２３１－１（１８ＫＧ）、ＬＣＧ４４（１０００ＫＧ）、ＬＣＧ４６（１８ＫＧ）
漢唐科技股份有限公司,新竹縣湖口鄉鳳山村１２鄰工業五路２７號,24.858726500000003,121.012932,電腦電子及光學品業,量測、導航及控制設備製造業,,工業級＜１％ＲＨ超低濕電子乾燥櫃／網路監控軟體與系統
華上光電股份有限公司新竹二廠,新竹縣湖口鄉鳳山村光復北路１１９號,24.8601112,121.0148,電子零組件業,發光二極體製造業,,發光二極體磊晶片、磊晶粒
大可金屬工業股份有限公司,新竹縣湖口鄉鳳凰村光復路５９號,24.85935,121.01628899999999,機械設備業,機械傳動設備製造業,,齒輪
太洋新技股份有限公司新竹工廠,新竹縣湖口鄉鳳凰村光復路６０、６２號,24.85935,121.01628899999999,化學製品業,未分類其他化學製品製造業,,過氧化氫、氨水、異丙醇、硫酸
永大順股份有限公司第二廠,新竹縣湖口鄉鳳凰村光復路６１號,24.85935,121.01628899999999,汽車及零件業,汽車零件製造業,,各種汽，機車零件之塗裝加工
世禾科技股份有限公司光復廠,新竹縣湖口鄉鳳山村１２鄰光復北路１１７號,24.8603973,121.015442,電子零組件業,未分類其他電子零組件製造業,,ＰＡＲＴＳ ＣＬＥＡＭ清洗、ＳＵＳＣＥＰＴＥＲ清洗、ＭＡＳＫ
台灣中央精機股份有限公司,新竹縣湖口鄉鳳山村光復北路１１３號,24.8603973,121.015442,汽車及零件業,汽車零件製造業,,汽車用鋼製輪圈及其零組件，汽車用鋁製輪圈
華友材料科技股份有限公司,新竹縣湖口鄉鳳山村工業五路２號,24.85659,121.017555,電力設備業,電線及電纜製造業,,鍍美絲、黃銅線、鍍錫銅包鐵線、銅包鋼線、鍍錫銅線
華健醫藥生技股份有限公司湖口廠,新竹縣湖口鄉鳳山村工業五路３號,24.85659,121.017555,藥品及醫用化學品業,西藥製造業,,藥品及醫用化學製品（暈得寧貼片、酸痛貼片）
豪成科技股份有限公司,新竹縣湖口鄉鳳山村工業五路１號,24.85659,121.017555,金屬製品業,金屬模具製造業,,金屬製品及模具等
豪成科技股份有限公司新竹廠,新竹縣湖口鄉鳳山村工業五路１號２樓,24.85659,121.017555,金屬製品業,金屬模具製造業,,金屬製品及模具等
豪廷科技股份有限公司湖口廠,新竹縣湖口鄉鳳山村工業五路１號２樓,24.85659,121.017555,金屬製品業,其他金屬加工處理業,,零件清洗
國靖金屬股份有限公司,新竹縣湖口鄉鳳山村新竹工業區光復南路５４號,24.857994100000003,121.018417,金屬製品業,金屬建築組件製造業,,金屬組件
創技工業股份有限公司,新竹縣湖口鄉鳳山村新竹工業區光復南路５６號,24.857994100000003,121.018417,機械設備業,其他金屬加工用機械設備製造業,,研磨機、拋光機
創技工業股份有限公司二廠,新竹縣湖口鄉鳳山村新竹工業區光復南路５９號,24.857994100000003,121.018417,機械設備業,其他金屬加工用機械設備製造業,,研磨機、拋光機
台灣耶馬都惠須龍股份有限公司,新竹縣湖口鄉鳳山村光復南路５３號,24.857994100000003,121.018417,塑膠製品業,其他塑膠製品製造業,,梳子、ＩＮＫ１２００ＪＡＲ、ＩＮＫ１２００ＣＡＰ中栓ＳＰＯＯＮ， ＦＬＯＳＳ
德揚科技股份有限公司,新竹縣湖口鄉鳳山村光復南路５５號,24.857994100000003,121.018417,非金屬礦物製品業,研磨材料製造業,,半導體零件清洗
為同科技股份有限公司,新竹縣湖口鄉鳳山村光復南路５７號,24.857994100000003,121.018417,電子零組件業,未分類其他電子零組件製造業,,矽晶體
瑞耘科技股份有限公司新竹廠,新竹縣湖口鄉鳳山村光復南路５８號,24.857994100000003,121.018417,機械設備業,電子及半導體生產用機械設備製造業,不銹鋼、鋁、鈦,其他機械、半導體、其他電子零組件
漢民科技股份有限公司湖口廠,新竹縣湖口鄉新竹工業區光復南路５７號,24.857994100000003,121.018417,電子零組件業,分離式元件製造業,,其他半導體製造零組件
翔泓科技股份有限公司,新竹縣湖口鄉鳳山村光復南路４７號,24.8584633,121.01866899999999,非金屬礦物製品業,未分類其他非金屬礦物製品製造業,石英、乙炔、氧氣,其他非金屬礦物製品
城東玻璃股份有限公司,新竹縣湖口鄉鳳山村光復南路４８號,24.8584633,121.01866899999999,非金屬礦物製品業,平板玻璃及其製品製造業,,玻璃買賣和加工
奈晶科技股份有限公司,新竹縣湖口鄉鳳山村光復南路４９號,24.8584633,121.01866899999999,金屬製品業,金屬表面處理業,硫酸，硝酸，片鹼,金屬表面處理及熱處理
銀荷光電股份有限公司,新竹縣湖口鄉鳳山村光復南路５０號,24.8584633,121.01866899999999,電力設備業,電池製造業,,鋰鐵電池
創圓科技股份有限公司,新竹縣湖口鄉鳳山村光復南路５１號,24.8584633,121.01866899999999,電子零組件業,分離式元件製造業,,６＂晶圓設計委外代工
台豐印刷電路工業股份有限公司新竹第一工廠,新竹縣湖口鄉鳳山村光復路８１號,24.8600845,121.01825,電子零組件業,印刷電路板製造業,,單面印刷電路板、雙面印刷電路板、多層印刷電路板、銅積層板、ＰＢＧＡ
台豐印刷電路工業股份有限公司新竹第二工廠,新竹縣湖口鄉鳳山村光復路８１號,24.8600845,121.01825,電子零組件業,印刷電路板製造業,,單面印刷電路板、雙面印刷電路板、多層印刷電路板、銅積層板、ＰＢＧＡ
泓格科技股份有限公司,新竹縣湖口鄉鳳山村光復北路１１１號,24.861997600000002,121.01563300000001,電子零組件業,印刷電路板組件製造業,,遠端控制器、工控介面卡及其他產品
威絖科技股份有限公司湖口廠,新竹縣湖口鄉鳳山村光復南路４２號１樓、２樓、５樓,24.8595715,121.018768,金屬製品業,其他金屬加工處理業,,碳箔
菁泉科技股份有限公司,新竹縣湖口鄉勝利村工業四路５號,24.861476899999996,121.017448,機械設備業,其他通用機械設備製造業,,逆滲透模
台灣高絲股份有限公司新竹廠,新竹縣湖口鄉鳳山村工業四路６號,24.861476899999996,121.017448,化學製品業,清潔用品及化粧品製造業,,藥用雪肌精、保濕美容液
寰邦科技股份有限公司,新竹縣湖口鄉勝利村光復路７５、７７號,24.8608112,121.01868400000001,電子零組件業,半導體封裝及測試業,,ＩＣ測試、晶圓測試
博威電子股份有限公司,新竹縣湖口鄉鳳山村光復路７９號,24.8608112,121.01868400000001,塑膠製品業,其他塑膠製品製造業,,光學膜
城東玻璃股份有限公司三廠,新竹縣湖口鄉鳳山村光復南路４３號,24.8595715,121.01938600000001,非金屬礦物製品業,平板玻璃及其製品製造業,玻璃,玻璃買賣和加工
城東玻璃股份有限公司湖口二廠,新竹縣湖口鄉鳳山村光復南路４１號,24.8595715,121.01938600000001,非金屬礦物製品業,平板玻璃及其製品製造業,玻璃,玻璃買賣和加工
和淞科技股份有限公司二廠,新竹縣湖口鄉鳳山村光復南路４１號２樓,24.8595715,121.01938600000001,機械設備業,未分類其他專用機械設備製造業,,機械設備製造及組裝
聯怡耐火陶瓷有限公司,新竹縣湖口鄉鳳山村光復南路４０號,24.8601952,121.01918799999999,非金屬礦物製品業,黏土建築材料製造業,耐火土、氧化鋁、ＭＵＬＬＩＴＥ,高鋁質匣鉢，膜來特質耐火板，高鋁臺板
徠捷股份有限公司,新竹縣湖口鄉勝利村２２鄰工業四路９號,24.862236,121.017372,塑膠製品業,其他塑膠製品製造業,,塑膠製品、塑膠零件
誼虹科技股份有限公司新竹廠,新竹縣湖口鄉鳳山村光復南路３８號,24.8606129,121.01984399999999,電子零組件業,其他光電材料及元件製造業,,光收發模組、光接受元件、光發射元件
弘潔科技股份有限公司,新竹縣湖口鄉鳳山村光復南路３９號,24.8606129,121.01984399999999,電子零組件業,未分類其他電子零組件製造業,,電子生產設備零件加工：洗淨、熔射表面處理
丸正科技股份有限公司,新竹縣湖口鄉鳳山村光復南路３９號１、４樓,24.8606129,121.01984399999999,塑膠製品業,其他塑膠製品製造業,,石英，Ｏ型環
寬紘科技股份有限公司,新竹縣湖口鄉鳳山村光復南路３９號２樓,24.8606129,121.01984399999999,電子零組件業,半導體封裝及測試業,,半導體零件組裝清洗
邦甫科技股份有限公司,新竹縣湖口鄉鳳山村光復南路３９號３樓（部份使用）,24.8606129,121.01984399999999,機械維修及安裝業,產業用機械設備維修及安裝業,,真空乾式ＰＵＭＰ（保養維修）
富泰空調科技股份有限公司新竹工業區一廠,新竹縣湖口鄉鳳山村光復路５８之１號,24.8624935,121.01824199999999,機械設備業,輸送機械設備製造業,鈑金、馬達、鋁擠型、風輪、風車,自動化倉儲設備、送風過濾單元、空氣浴塵室、高效能空氣過濾網、軌道
維綱生物科技股份有限公司新竹一廠,新竹縣湖口鄉鳳山村光復路５８之１號３樓,24.8624935,121.01824199999999,其他製造業,其他醫療器材及用品製造業,,冰、熱敷包
施吉生技應材股份有限公司新竹一廠,新竹縣湖口鄉鳳山村光復路５８之１號３樓,24.8624935,121.01824199999999,其他製造業,其他醫療器材及用品製造業,,電漿表處機、隱形眼鏡生產及實驗設備、其他
奇鈦科技股份有限公司新竹廠,新竹縣湖口鄉勝利村光復路５６號,24.8624935,121.01824199999999,化學製品業,未分類其他化學製品製造業,,ＣＨＩＶＡＣＵＲＥ ＴＰＯ／ＣＨＩＧＵＡＲＤ ５５３０／ＲＥＶＯＮＯＸ ６０８／ＴＲＩＳＰＨＥＮＯＬ
天益齒輪工廠股份有限公司一廠,新竹縣湖口鄉鳳凰村光復路５５之１號,24.8624935,121.01824199999999,機械設備業,機械傳動設備製造業,,齒輪
天益齒輪工廠股份有限公司,新竹縣湖口鄉鳳凰村光復路５７號,24.8624935,121.01824199999999,機械設備業,機械傳動設備製造業,,齒輪
詮達股份有限公司新竹廠,新竹縣湖口鄉勝利村光復路５０號,24.862737699999997,121.01848600000001,藥品及醫用化學品業,西藥製造業,,保力達Ｂ
展宇科技材料股份有限公司第二廠,新竹縣湖口鄉鳳凰村光復路７１號,24.861864100000002,121.01945500000001,化學材料業,塑膠原料製造業,,塑膠膜袋加工
崇越石英製造廠股份有限公司新竹廠,新竹縣湖口鄉鳳山村文化路８號,24.8628483,121.010651,電子零組件業,未分類其他電子零組件製造業,,石英管
允力工業有限公司,新竹縣湖口鄉鳳山村文化路９號,24.8628483,121.010651,機械設備業,其他通用機械設備製造業,,不銹鋼窗、門、冷軋成型機械
鐵聯實業有限公司湖口廠,新竹縣湖口鄉鳳山村文化路３之１號,24.862255100000002,121.009773,汽車及零件業,汽車零件製造業,,汽車及其零件、機車及其零件
力成科技股份有限公司文化一廠,新竹縣湖口鄉鳳山村文化路４號,24.862255100000002,121.009773,電子零組件業,半導體封裝及測試業,,積體電路（ＩＣ）封裝及測試
力成科技股份有限公司文化二廠,新竹縣湖口鄉鳳山村文化路４號２、３、４、５樓,24.862255100000002,121.009773,電子零組件業,半導體封裝及測試業,,積體電路（ＩＣ）封裝及測試
中國砂輪企業股份有限公司新竹廠,新竹縣湖口鄉鳳山村文化路６號,24.862752899999997,121.01007800000001,電腦電子及光學品業,其他光學儀器及設備製造業,,精密模具、刀具
台灣山村光學股份有限公司,新竹縣湖口鄉鳳山村文化路６號１、３、４樓（部份使用）,24.8627567,121.010071,電腦電子及光學品業,其他光學儀器及設備製造業,,光學鏡片－１０８年１月１日始開業
帆宣系統科技股份有限公司,新竹縣湖口鄉勝利村２２鄰光復南路３５號,24.8609562,121.02076699999999,機械設備業,污染防治設備製造業,,研發及生產客製化設備組裝機臺
恩茂科技股份有限公司湖口廠,新竹縣湖口鄉勝利村２２鄰光復南路３５號４樓,24.8609562,121.02076699999999,機械設備業,未分類其他專用機械設備製造業,,其他專用機械產品
誠遠科技股份有限公司,新竹縣湖口鄉鳳凰村光復南路３４號,24.8609562,121.02076699999999,電子零組件業,半導體封裝及測試業,,積體電器加工、ＩＣ測試
瑞士遠東股份有限公司,新竹縣湖口鄉鳳凰村光復南路３６號,24.8609562,121.02076699999999,化學材料業,塑膠原料製造業,,尼龍６切片、尼龍６６切片，其他工程塑膠
台灣普利司通股份有限公司新竹工廠,新竹縣湖口鄉鳳山村文化路１之１號,24.861997600000002,121.008926,橡膠製品業,輪胎製造業,,輪胎
和淞科技股份有限公司新竹廠,新竹縣湖口鄉鳳凰村３６鄰光復南路３３號,24.8611641,121.02094299999999,金屬製品業,金屬表面處理業,,不鏽鋼管ＳＵＳ３１６清洗刨光－停產、控制箱組裝（ＶＭＢ／Ｐ）
沛可股份有限公司,新竹縣湖口鄉鳳凰村光復南路３０號,24.8611641,121.02094299999999,化學製品業,未分類其他化學製品製造業,,金屬表面變色防止劑
王子製藥股份有限公司新竹廠,新竹縣湖口鄉鳳凰村光復南路３２號,24.8611641,121.02094299999999,藥品及醫用化學品業,原料藥製造業,,ＦＵＲＳＵＬＴＩＡＭＩＮＥ
旺矽科技股份有限公司湖口廠,新竹縣湖口鄉鳳凰村光復路４２號１樓,24.8635521,121.0189,電子零組件業,半導體封裝及測試業,,探針卡．晶圓針測機
晟霖實業股份有限公司新竹廠,新竹縣湖口鄉鳳凰村光復路４２號１樓,24.8635521,121.0189,紡織業,人造纖維梭織布業,,胚布、平織布
州巧科技股份有限公司新竹廠,新竹縣湖口鄉鳳凰村光復路４２號１樓、２樓,24.8635521,121.0189,其他運輸工具零件業,未分類其他運輸工具及其零件製造業,,金屬沖壓製品、電動輪椅車
州巧科技股份有限公司新竹二廠,新竹縣湖口鄉鳳凰村光復路４２號２樓,24.8635521,121.0189,金屬製品業,未分類其他金屬製品製造業,,金屬沖壓製品、電動輪椅車
金兆益科技股份有限公司湖口廠,新竹縣湖口鄉光復路４２號４樓,24.8635521,121.0189,電腦電子及光學品業,量測、導航及控制設備製造業,,半導體檢測設備－氣體感測器質譜分析儀
泓格科技股份有限公司二廠,新竹縣湖口鄉勝利村光復路３８號,24.8635521,121.0189,電力設備業,其他電力設備及配備製造業,,家用電器，其他電力設備
久緯股份有限公司新竹廠,新竹縣湖口鄉勝利村光復路４２號,24.8635521,121.0189,紡織業,人造纖維加工絲業,,聚酯加工絲（ＰＯＬＹＥＳＴＥＲ ＤＲＡＷ－ＴＥＸＴＵＲＥＤ ＹＡＲＮ）
中強光電股份有限公司湖口分公司,新竹縣湖口鄉鳳山村文化路５號１樓,24.8629265,121.009285,電腦電子及光學品業,其他光學儀器及設備製造業,,節能產品、影像產品
德謙企業股份有限公司,新竹縣湖口鄉鳳凰村光復南路２８號,24.86249,121.020546,化學製品業,塗料、染料及顏料製造業,,塗料助劑、丙烯酸共聚合樹脂
寶坤化學工業股份有限公司新竹廠,新竹縣湖口鄉鳳凰村光復南路２４號,24.8628845,121.02073700000001,化學製品業,塗料、染料及顏料製造業,,溶劑型塗料、水性塗料、稀釋劑
立達鋼鐵股份有限公司湖口二廠,新竹縣湖口鄉中興村光復路６７號,24.863613100000002,121.02001200000001,基本金屬業,鋼鐵軋延及擠型業,,Ｈ型鋼
凱益股份有限公司,新竹縣湖口鄉勝利村光復南路２２號,24.8627319,121.02101100000002,塑膠製品業,其他塑膠製品製造業,,輸液套延長管塑膠零件
展宇聚氨酯股份有限公司,新竹縣湖口鄉勝利村四維路９號、１１號,24.8614559,121.02215600000001,橡膠製品業,其他橡膠製品製造業,ＭＤＩ、ＡＡ、１４ＢＧ、ＥＧ,其他橡膠製品
遠志工業股份有限公司,新竹縣湖口鄉鳳凰村四維路８號,24.8614559,121.02215600000001,機械設備業,其他通用機械設備製造業,,照明機械
長瀛科技股份有限公司,新竹縣湖口鄉鳳凰村四維路１２號,24.8614559,121.02215600000001,電子零組件業,半導體封裝及測試業,ＩＣ、電子零件、包裝秏材,測試代工服務、測試機臺銷售、客製設備ＯＤＭ
禾邑實業股份有限公司,新竹縣湖口鄉勝利村四維路１０號,24.8614559,121.02215600000001,機械設備業,電子及半導體生產用機械設備製造業,,半導體相關設備機械安裝業、自動控制設備工程業、機械設備裝修零件等其他電機及電子機械材製造業
精密聚合股份有限公司,新竹縣湖口鄉勝利村光復南路２０號,24.8630657,121.02121000000001,化學材料業,塑膠原料製造業,,發光半導體封止用樹脂，ＤＰ類光線擴散劑
台灣信越矽利光股份有限公司,新竹縣湖口鄉鳳凰村光復南路２５號,24.8626442,121.021584,化學材料業,化學原材料製造業,,矽橡膠，液態矽利光，乳化品，粘著劑
瑞林電機股份有限公司,新竹縣湖口鄉鳳凰村四維路２２號,24.862226500000002,121.0221,其他運輸工具零件業,機車零件製造業,,其他金屬製品、其他電子零組件、其他汽機車零組件
友琍國際股份有限公司,新竹縣湖口鄉鳳凰村光復南路１８號,24.86355,121.02123300000001,金屬製品業,未分類其他金屬製品製造業,,金屬製品
榮創能源科技股份有限公司四維廠,新竹縣湖口鄉勝利村２６鄰四維路７－１號,24.8619328,121.022423,電子零組件業,發光二極體製造業,,ＬＥＤ封裝或其他模組
榮璋工業股份有限公司新竹廠,新竹縣湖口鄉鳳凰村四維路２０號,24.86277,121.02216299999999,其他運輸工具零件業,機車零件製造業,,齒輪，螺絲，鉚釘，機械零件（軸承），汽機車零件
上品保利龍股份有限公司,新竹縣湖口鄉鳳凰村光復南路１５號,24.863456699999997,121.02168999999999,塑膠製品業,塑膠皮、板及管材製造業,,保利龍成型品、聚乙烯校加工品
志榮有限公司,新竹縣湖口鄉勝利村光復南路１６號,24.8638,121.021667,機械設備業,未分類其他專用機械設備製造業,,機械零件
聚昌科技股份有限公司,新竹縣湖口鄉勝利村光復南路１６號,24.8638,121.021667,電腦電子及光學品業,量測、導航及控制設備製造業,,精密儀器，機械設備製造銷售
大宇鋼鐵股份有限公司湖口廠,新竹縣湖口鄉鳳凰村四維路５號,24.86219,121.023018,金屬製品業,其他金屬加工處理業,,鋼板裁剪
昌昱科技股份有限公司,新竹縣湖口鄉鳳凰村四維路６號１樓〈部分使用〉２樓、３樓,24.86219,121.023018,金屬製品業,其他金屬加工處理業,粘扣式砂紙、粘扣式膠墊、圓型菜瓜布、ＰＥ包裝袋,半導體設備、光電業設備：清洗－陽極加工
竹大機電股份有限公司,新竹縣湖口鄉鳳凰村光復南路１３及１３之１號,24.863744699999998,121.021957,機械設備業,未分類其他專用機械設備製造業,,各種自動化機械及零件加工，機械零件
原廣科技股份有限公司湖口廠,新竹縣湖口鄉勝利村２２鄰光復南路１４號,24.8639526,121.021774,基本金屬業,未分類其他基本金屬製造業,,銦碇，廢酸銦液加工
聯盛氣體工業股份有限公司新豐工廠,新竹縣湖口鄉勝利村２２鄰光復南路１１號,24.8639469,121.021927,化學材料業,化學原材料製造業,,氮氣
信富鋼鐵股份有限公司第一廠,新竹縣竹北市泰和里沿河街３６號（部分使用）,24.849610000000002,121.013573,基本金屬業,鋼鐵軋延及擠型業,,鋼、鐵板
富政企業有限公司第二廠,新竹縣竹北市泰和里沿河街７８巷５號,24.849498699999998,121.01473999999999,金屬製品業,其他金屬加工處理業,,鋼板裁剪、加工
富政企業有限公司第三廠,新竹縣竹北市泰和里６鄰沿河街７８巷２號,24.849498699999998,121.01473999999999,機械設備業,化工機械設備製造業,,塔槽、容器及相關配備
和暉實業股份有限公司,新竹縣竹北市泰和里泰和路１８４號,24.8496075,121.012695,非金屬礦物製品業,預拌混凝土製造業,,預拌混凝品
崧智科技股份有限公司,新竹縣湖口鄉鳳凰村光復南路１２號,24.8643723,121.02186599999999,電腦電子及光學品業,其他通訊傳播設備製造業,ＩＣ＆ＡＳＩＣ、機構、連接器、電源供應器,交換器（ＳＷＩＴＣＨ）、電顯網路（ＶＤＳＬ）、網路卡（ＡＤＡ）
寬度科技股份有限公司,新竹縣湖口鄉鳳凰村２２鄰四維路１４號,24.8633289,121.02281200000002,金屬製品業,金屬模具製造業,,基本金屬製造
泰中金屬股份有限公司,新竹縣湖口鄉鳳凰村光復南路７號,24.864683199999998,121.022682,基本金屬業,鋼鐵鑄造業,,高強度鑄件合金鋼鑄鋼件
宏昌企業社,新竹市北　區海濱里海濱路５５巷１號,24.8444176,120.926979,印刷及儲存媒體複製業,印刷業,,燙金印刷
源易工業有限公司,新竹市北　區海濱里海濱路５５巷５號,24.8443565,120.92706299999999,塑膠製品業,其他塑膠製品製造業,,化粧品盒、口紅容器、五金零件
南寮製冰廠有限公司,新竹市北　區南寮里南寮街３６號,24.846246700000002,120.92898600000001,其他製造業,其他未分類製造業,,冰塊
欣新商標企業有限公司,新竹市北　區海濱里聖軍路７３號１樓,24.8427,120.929359,其他製造業,其他未分類製造業,商標紙,自黏標籤（貼紙）
萬昌造船股份有限公司,新竹市北　區南寮里東大路四段２３６巷３０號,24.8456345,120.930237,其他運輸工具零件業,未分類其他運輸工具及其零件製造業,,木殼漁船遊艇、玻璃纖維漁船遊艇
永昇製冰廠,新竹市北　區南寮里南寮街１２２號,24.84838,120.928772,其他製造業,其他未分類製造業,,冰塊
川和股份有限公司,新竹市北　區南寮里東大路四段２３６巷３６弄９號,24.846183800000002,120.93061100000001,塑膠製品業,其他塑膠製品製造業,,塑膠（化妝品盒、陽傘零件）
萬機企業股份有限公司,新竹市北　區南寮里南寮街１０８巷１弄１１號,24.8472424,120.93055700000001,其他運輸工具零件業,船舶及浮動設施製造業,,玻璃纖維船艇、木造船艇
欣德昌企業股份有限公司,新竹市北　區南寮里興濱路３２號,24.842571300000003,120.93148799999999,塑膠製品業,其他塑膠製品製造業,,塑膠製品
協星精密工業股份有限公司,新竹市北　區南寮里榮濱路４８巷１２弄３７號,24.8402424,120.93081699999999,金屬製品業,金屬模具製造業,,各種塑膠模具及零件
南海精密工業股份有限公司,新竹市北　區南寮里東大路四段１２８號,24.843021399999998,120.93308300000001,塑膠製品業,其他塑膠製品製造業,,塑膠噴頭
欣源企業社,新竹市北　區海濱里延平路三段４５５巷６７弄６、８、１０、１２號,24.8380432,120.92990900000001,汽車及零件業,汽車零件製造業,,汽車零組件
耀錩工業有限公司,新竹市北　區南寮里中興路１２號,24.8407841,120.933632,金屬製品業,金屬模具製造業,,金屬模具
帆勝股份有限公司,新竹市北　區海濱里延平路三段４５５巷３２號,24.83795,120.93083200000001,其他製造業,其他未分類製造業,,醫療器材（低週波、高週波治療器）
竹利自動化機械有限公司,新竹市北　區南寮里延平路三段６６７巷５５弄１２號,24.8410378,120.93431100000001,機械設備業,其他通用機械設備製造業,機械零件、螺絲、輸送鏈條、珍珠皿,化粧品機械組合、化妝品容器組合
生壯機械有限公司,新竹市北　區舊港里舊港３１號,24.8440285,120.942116,電力設備業,其他家用電器製造業,,洗衣房設備
碩廷有限公司,新竹市北　區舊港里舊港１６號,24.84403,120.942924,金屬製品業,未分類其他金屬製品製造業,,螺絲加工、金屬機件加工、製造
洪記工業有限公司,新竹市北　區南寮里東大路三段５０１號,24.8397617,120.93843799999999,金屬製品業,未分類其他金屬製品製造業,,金屬製品
可達化工廠股份有限公司竹北選礦廠,新竹縣竹北市白地里１３鄰港安街一段８號,24.8440018,120.947624,非金屬礦物製品業,未分類其他非金屬礦物製品製造業,,長石粉
遠揚科技股份有限公司,新竹縣竹北市白地里１３鄰港安街一段１２０巷１２號,24.8456764,120.948105,塑膠製品業,其他塑膠製品製造業,,橡膠製品，模具
協旺機械有限公司,新竹市北　區康樂里東大路三段５３６號,24.8379688,120.941635,機械設備業,其他通用機械設備製造業,,燈泡機具生產及組裝
東玄企業有限公司,新竹市北　區中寮里中清路１９號,24.8392487,120.935745,塑膠製品業,其他塑膠製品製造業,,塑膠殼
順榮塑膠有限公司,新竹市北　區南寮里東大路三段４３９巷６號,24.8375359,120.940575,塑膠製品業,其他塑膠製品製造業,,塑膠零件（瓶、蓋、盒、花等）
裕建和碾米廠,新竹縣竹北市新港里新港三街一段１２６號,24.85054,120.94621299999999,食品及飼品業,碾榖業,,糙米
大晟精機股份有限公司竹北廠,新竹縣竹北市白地里中正西路１９９０巷７號,24.8437977,120.94908899999999,塑膠製品業,塑膠外殼及配件製造業,,塑膠製品、工業用塑膠製品
穩錠實業有限公司竹北廠,新竹縣竹北市白地里中正西路１９９０巷７號１、２、３樓,24.8437977,120.94908899999999,機械設備業,其他金屬加工用機械設備製造業,,金屬製品加工
皇凱實業股份有限公司,新竹市北　區康樂里東大路三段４９２號,24.8372631,120.942673,塑膠製品業,其他塑膠製品製造業,,塑膠製品
萬貳企業社,新竹市北　區康樂里東大路三段４６８號,24.836917899999996,120.943207,機械設備業,未分類其他專用機械設備製造業,,燈泡機零件
宸彥鋼構有限公司,新竹縣竹北市新庄里中正西路１９７３號,24.842926000000002,120.949669,金屬製品業,金屬結構製造業,,其他金屬建築結構及組件
遠揚科技股份有限公司,新竹縣竹北市新港里港安街一段２１９號１樓,24.848299,120.94911200000001,塑膠製品業,其他塑膠製品製造業,,其他金屬製品
弘邁企業有限公司,新竹縣竹北市新港里新港五街一段１８０號１樓,24.850568799999998,120.948296,其他製造業,玩具及遊戲機製造業,,塑膠製品
旭大消防工程設計顧問有限公司,新竹縣竹北市長青路一段１０６號１樓、２樓,24.8442078,120.95626100000001,金屬製品業,其他金屬容器製造業,,消防設備加工
嘉沅工業股份有限公司,新竹縣竹北市白地里中正西路１７２０號,24.84204,120.95641299999998,化學材料業,塑膠原料製造業,,塑膠粒
荃揚企業有限公司,新竹縣竹北市新庄里中正西路１９９５號,24.841739999999998,120.956329,塑膠製品業,其他塑膠製品製造業,,化粧品盒
創碩新技股份有限公司,新竹縣竹北市白地里８鄰中正西路１５９６之３號１樓,24.842433899999996,120.9605,電子零組件業,未分類其他電子零組件製造業,,電子零件批發買賣陽極表面加工處理
馨裕工業股份有限公司,新竹縣竹北市白地里中正西路１５９６之２號,24.842433899999996,120.9605,電子零組件業,未分類其他電子零組件製造業,,其他未分類電子零組件製造
鼎嚮科研股份有限公司竹北廠,新竹縣竹北市白地里中正西路１５９６號,24.842433899999996,120.9605,橡膠製品業,工業用橡膠製品製造業,,橡膠Ｏ型環，門閥
聖金企業社,新竹縣竹北市白地里中正西路１５９６之５號,24.8424683,120.9608,塑膠製品業,其他塑膠製品製造業,,滑軌塑膠零件組
鎮群精密股份有限公司,新竹縣竹北市白地里中正西路１５９６－３號,24.8424683,120.9608,機械設備業,其他金屬加工用機械設備製造業,,ＣＮＣ加工
昌億塑膠股份有限公司,新竹縣竹北市白地里中正西路１５３２巷１９９號,24.8444176,120.96163899999999,塑膠製品業,其他塑膠製品製造業,,塑膠製品
久玄紙器股份有限公司,新竹縣竹北市白地里７鄰中正西路１５８６巷３８弄２５號,24.8439522,120.96221200000001,紙漿、紙及紙製品業,瓦楞紙板及紙容器製造業,瓦楞紙板、瓦楞紙箱、紙盒,瓦楞紙盒、瓦楞紙箱
勤駿興業有限公司,新竹縣竹北市白地里中正西路１５７６號,24.8426666,120.962631,其他製造業,體育用品製造業,,飛輪、固定鐵架、跑步機輪、接頭
勤駿興業有限公司,新竹縣竹北市白地里６鄰中正西路１５３２巷３９號,24.8435,120.96325700000001,金屬製品業,未分類其他金屬製品製造業,,飛輪、固定鐵架、跑步機輪、接頭
東曜工業股份有限公司竹北廠,新竹縣竹北市中正西路１５６２號,24.842674300000002,120.96347800000001,基本金屬業,鋼鐵鑄造業,,其他鑄鐵件
耀淞實業股份有限公司,新竹縣竹北市新庄里中正西路１７８３號１樓,24.84224,120.96373,家具業,木製家具製造業,,原木桌、椅、書櫃等
迪特耐國際有限公司,新竹縣竹北市溪州里中正西路１２０２巷６６號,24.8423119,120.97235900000001,汽車及零件業,汽車零件製造業,,引擎腳墊
遠環企業有限公司,新竹縣竹北市中正西路１２５６號１樓,24.841768300000002,120.972176,基本金屬業,鋁鑄造業,,瓦斯龍頭
閤鑫金屬有限公司,新竹縣竹北市溪州里大灣街３號,24.84214,120.974686,金屬製品業,金屬建築組件製造業,,金屬門窗（框）製造
展林鋁業股份有限公司,新竹縣竹北市溪州里大灣街３號,24.84214,120.974686,金屬製品業,金屬建築組件製造業,,其他鋁製品
大源鋁業股份有限公司,新竹縣竹北市溪州里大灣街３號,24.84214,120.974686,金屬製品業,金屬建築組件製造業,,鋁門窗
德龍行,新竹縣竹北市溪州里新寮街１號,24.8407974,120.975609,食品及飼品業,碾榖業,,白米買賣
進榮科技有限公司,新竹縣竹北市溪州里中正西路１０７３巷３９弄５９號,24.8393135,120.97458600000002,塑膠製品業,塑膠外殼及配件製造業,,模具批發零售、塑膠製品製造
進吉食品有限公司,新竹縣竹北市中正西路１０６６巷２號,24.8412647,120.97701299999999,食品及飼品業,肉類其他加工及保藏業,,各種丸類製品
巧軒食品有限公司,新竹縣竹北市麻園里麻園三路１３２號,24.850360000000002,120.97543300000001,食品及飼品業,烘焙炊蒸食品製造業,,麵包、吐司
隆昌機械廠,新竹縣竹北市麻園里麻園一街７３號,24.844133399999997,120.978279,機械設備業,未分類其他專用機械設備製造業,,機械設備製
達盛機械工程股份有限公司一廠,新竹縣竹北市聯興里聯興二街１００號,24.844593,120.985786,機械設備業,化工機械設備製造業,,化工機械、玻璃窯業機械、除冷箱、研磨機
達盛機械工程股份有限公司二廠,新竹縣竹北市聯興里聯興二街３９號,24.8435249,120.98706100000001,機械設備業,化工機械設備製造業,,化工機械、玻璃窯業機械、除冷箱、研磨機
舒芙特科技材料有限公司,新竹縣竹北市聯興里１５鄰聯興二街２３０號,24.846467999999998,120.98226899999999,塑膠製品業,其他塑膠製品製造業,,ＥＰＥ包裝材料
鍵鴻泡綿有限公司,新竹縣竹北市聯興里新興路２８８號,24.8475246,120.9835,塑膠製品業,其他塑膠製品製造業,氣泡袋、ＥＰＥ、上下蓋、舒服多布等,泡綿
鍵鴻泡綿有限公司,新竹縣竹北市新興路１７７號,24.846281100000002,120.988068,塑膠製品業,其他塑膠製品製造業,,ＥＰＥ包裝材料
渝饌食品有限公司,新竹縣竹北市聯興里聯興二街２２號,24.8432484,120.988068,食品及飼品業,肉類其他加工及保藏業,,牛肉半成品、牛筋半成品、滷菜半成品、醬料半成品
陸聯精密股份有限公司竹北分公司,新竹縣竹北市聯興里聯興二街２０號,24.843220000000002,120.988129,機械設備業,其他金屬加工用機械設備製造業,,精密齒輪刀具
鉅冠科技有限公司,新竹縣竹北市聯興二街７９號,24.841497399999998,120.983627,電子零組件業,分離式元件製造業,,電子零組件
美麒食品有限公司,新竹縣竹北市聯興里中正西路８３９號,24.8415871,120.987305,食品及飼品業,未分類其他食品製造業,,即食餐食、團膳供應
浚統有限公司,新竹縣竹北市聯興里新興路１３５巷１８弄１６號,24.8454,120.98958600000002,基本金屬業,鋼鐵鑄造業,,絲線切割代工
丞輝工業有限公司,新竹縣竹北市聯興里新興路１３５巷１號,24.845621100000002,120.990738,金屬製品業,其他金屬加工處理業,,金屬模具加工
奎欣企業有限公司,新竹縣竹北市溪州里溪州路３４６號,24.8394089,120.985229,金屬製品業,未分類其他金屬製品製造業,,其他金屬製品
富偉科技股份有限公司,新竹縣竹北市新社里新工二路８８號,24.8468,121.00054899999999,電力設備業,其他電力設備及配備製造業,,電力設備製品
恩良企業股份有限公司竹北廠,新竹縣竹北市新社里新工二路８８號,24.8468,121.00054899999999,塑膠製品業,其他塑膠製品製造業,,塑膠製品、絕緣材料
宏日昇生技股份有限公司,新竹縣竹北市新社里新工二路６８號,24.8467941,121.0011,塑膠製品業,塑膠外殼及配件製造業,,１．布口罩生產２．販賣機
青棋五金有限公司,新竹縣竹北市新社里新工二路１６８號,24.846908600000003,120.998337,金屬製品業,未分類其他金屬製品製造業,金屬,金屬製品
新延企業有限公司,新竹縣竹北市新社里新工二路１７２號,24.846908600000003,120.998337,機械設備業,其他通用機械設備製造業,,真空鍍膜機
億聲鋼鐵有限公司,新竹縣竹北市新社里新工二路１７６號１、２樓,24.846908600000003,120.998337,金屬製品業,其他金屬加工處理業,,鋼鐵加工
千百億精密實業有限公司第一廠,新竹縣竹北市新社里新工二路１８２號,24.8470135,120.99807,機械設備業,橡膠及塑膠加工用機械設備製造業,,塑膠射出成型
揚喬科技有限公司新竹廠,新竹縣竹北市新社里１９鄰保泰三路５３號,24.847023,121.001678,機械設備業,未分類其他專用機械設備製造業,,其他專用生產機械及零組件
捷鴻科技股份有限公司,新竹縣竹北市新社里１９鄰新工三路１３１號１樓,24.847627600000003,120.999817,塑膠製品業,其他塑膠製品製造業,,橡塑膠墊片
捷亮科技股份有限公司,新竹縣竹北市新社里新工二路１９８號１－３樓,24.847171799999998,120.997879,機械設備業,其他通用機械設備製造業,,其他專用機械設備，通用機械設備
暘升企業股份有限公司東華廠,新竹縣竹北市新社里新工三路９７號１樓,24.8474674,121.00155600000001,金屬製品業,未分類其他金屬製品製造業,,機械零件
暘升企業股份有限公司二廠,新竹縣竹北市新社里新工三路９７號２樓,24.8474674,121.00155600000001,金屬製品業,未分類其他金屬製品製造業,,零件
致揚科技股份有限公司,新竹縣竹北市新社里新工三路１０１號,24.8474674,121.00155600000001,機械設備業,泵、壓縮機、活栓及活閥製造業,,真空幫浦
歷得科技股份有限公司,新竹縣竹北市泰和里保泰三路７８號,24.847192800000002,121.002052,機械設備業,電子及半導體生產用機械設備製造業,,ＭＯＴＯＲ，ＣＯＮＴＲＯＬＬＥＲ，ＲＯＢＯＴ，ＰＬＣ，ＭＯＤＵＬＥ，ＭＯＩＳＴＵＲＥ ＳＥＮＳＯＲ，ＡＩＲ ＣＹＬＩＮＤＥＲ，ＳＥＲＶＯ，ＡＭＰ，ＢＲＵＳＨＬＥＳＳ
雅特烘焙股份有限公司,新竹縣竹北市新社里新工二路２號、２號２、３、４樓,24.846529999999998,121.00273100000001,食品及飼品業,烘焙炊蒸食品製造業,,糖果及烘焙食品
龍竹企業股份有限公司,新竹縣竹北市新社里新工三路７２號１、２、４樓,24.8479671,121.000114,電子零組件業,未分類其他電子零組件製造業,,連接器
龍呈國際科技有限公司,新竹縣竹北市新社里新工三路７２號３樓,24.8479671,121.000114,電子零組件業,未分類其他電子零組件製造業,,電子零件
北城機械股份有限公司,新竹縣竹北市新社里新工三路６８號,24.847970999999998,121.000229,金屬製品業,金屬模具製造業,鐵材,模具
福聯食品有限公司,新竹縣竹北市新社里新工三路８０號,24.848032,120.999847,食品及飼品業,未分類其他食品製造業,,食品原料
英永宜精密材料有限公司,新竹縣竹北市新社里新工三路５６號,24.8479671,121.000854,金屬製品業,未分類其他金屬製品製造業,其他金屬製品,其他金屬製品
祥芫科技有限公司,新竹縣竹北市新社里新工三路１１０號１樓、２樓、４樓,24.8480549,120.99895500000001,電子零組件業,半導體封裝及測試業,,Ｆｌａｓｈ測試
祥利科技股份有限公司,新竹縣竹北市新社里新工三路１１０號３樓,24.8480549,120.99895500000001,電子零組件業,半導體封裝及測試業,,２６００３２ＩＣ測試（記憶卡ｍｉｃｒｏＳＤ、ＴＳＯＰ、隨身碟ＵＦＤ）
靖洋科技股份有限公司,新竹縣竹北市泰和里保泰三路８０號,24.8474617,121.00208300000001,電子零組件業,未分類其他電子零組件製造業,,電子零組件製造業
三德精密科技股份有限公司竹北廠,新竹縣竹北市新社里保泰五路９６號,24.848188399999998,120.999908,金屬製品業,其他金屬加工處理業,金屬材料,零件加工
台灣培毅股份有限公司竹北廠,新竹縣竹北市新社里１９鄰新工三路５３號,24.8469315,121.00275400000001,化學製品業,未分類其他化學製品製造業,,醋酸鎂、培毅Ｂ６１１、培毅Ｃ８１５、培毅Ｂ２０２、Ｃ３１８
竹陞科技股份有限公司,新竹縣竹北市新社里保泰六路１號、１號２、３樓,24.8475742,120.997429,電腦電子及光學品業,其他光學儀器及設備製造業,,２７０００９工業電腦２７３０９９其他電子量測儀器
國禧包裝企業股份有限公司竹北廠,新竹縣竹北市新社里新工三路２６號,24.847929999999998,121.001648,紙漿、紙及紙製品業,瓦楞紙板及紙容器製造業,,紙箱
鈺盛科技股份有限公司,新竹縣竹北市新社里新工二路２２６號,24.847696300000003,120.9972,機械設備業,電子及半導體生產用機械設備製造業,,銑床加工
宇銓科技股份有限公司,新竹縣竹北市新社里新工三路９６號,24.8484917,120.99893200000001,金屬製品業,金屬模具製造業,,夾治具設計製作、精密零件加工
聯瑩工藝企業有限公司二廠,新竹縣竹北市新社里環北路三段２１９號１樓,24.84894,120.99906200000001,其他製造業,其他未分類製造業,,聖誕飾品
聯瑩工藝企業有限公司一廠,新竹縣竹北市新社里環北路三段２１９號２、３樓,24.84894,120.99906200000001,其他製造業,其他未分類製造業,,聖誕飾品
聯瑩工藝企業有限公司第三廠,新竹縣竹北市新社里環北路三段２２５號２．３．４樓,24.848907500000003,120.998779,其他製造業,其他未分類製造業,,聖誕飾品
沂德開發股份有限公司,新竹縣竹北市新社里環北路三段１６３號,24.848860000000002,121.00135800000001,金屬製品業,未分類其他金屬製品製造業,,管件加工，節能閥等
友鮮國際有限公司,新竹縣竹北市新社里環北路三段１６１號,24.848835,121.001442,食品及飼品業,肉類其他加工及保藏業,,牛肉．羊肉
奇鋒五金有限公司,新竹縣竹北市新社里環北路三段３１５號,24.848670000000002,120.996872,金屬製品業,螺絲、螺帽及鉚釘製造業,,其他金屬製品
上誠材料科技有限公司,新竹縣竹北市聯興里環北路三段２８０號,24.8495159,120.997368,塑膠製品業,其他塑膠製品製造業,,塑膠製品
鐵鑫汽車車體有限公司,新竹縣竹北市泰和里中華路６７８號,24.8474255,121.005455,汽車及零件業,車體製造業,,汽車車體打造
杭陞股份有限公司,新竹縣竹北市泰和里中華路６８２號,24.847581899999998,121.00538600000002,電力設備業,其他電力設備及配備製造業,,未列名電工器材
銓鑫工業有限公司,新竹縣竹北市泰和里中華路６８０號,24.847581899999998,121.00538600000002,汽車及零件業,車體製造業,,各種汽車車體及拖車車體
胤通電子企業股份有限公司,新竹縣竹北市泰和里泰和路６號,24.844305,121.00619499999999,電腦電子及光學品業,其他電腦週邊設備製造業,,碳粉匣
水仙子生技有限公司新竹廠,新竹縣竹北市泰和里中華路６５６號,24.846885699999998,121.005821,飲料業,非酒精飲料製造業,,純水
三福氣體股份有限公司竹北廠,新竹縣竹北市泰和里泰和路２之１號,24.8441525,121.00621799999999,化學材料業,化學原材料製造業,,氣體生產及分裝
慈佑醫學科技股份有限公司,新竹縣竹北市泰和里中華路６９０號３樓,24.8480549,121.005325,其他製造業,其他醫療器材及用品製造業,,氧生機
佳霖科技股份有限公司泰和廠,新竹縣竹北市泰和里泰和路２１號１、２樓,24.844778100000003,121.006454,電腦電子及光學品業,量測、導航及控制設備製造業,,真空零組件
家徵工程工業股份有限公司,新竹縣竹北市泰和里中華路６７６巷１７號,24.8464813,121.00619499999999,機械設備業,其他金屬加工用機械設備製造業,,沖床
合雄工業社,新竹縣竹北市泰和里中華路６９６號,24.8482933,121.00524899999999,機械設備業,採礦及營造用機械設備製造業,,水泥拌合機
惠群麵包廠,新竹縣竹北市泰和里中華路５９４之１號,24.8457623,121.006386,食品及飼品業,烘焙炊蒸食品製造業,,麵包、土司
國榮塑膠企業社,新竹縣竹北市竹義里新民街１６號,24.8407059,121.004768,塑膠製品業,塑膠膜袋製造業,,塑膠袋裁剪黏合
台灣沛晶股份有限公司,新竹縣竹北市泰和里中華路６７６巷１６號,24.8462925,121.006523,電子零組件業,積體電路製造業,花架、銀膠、金線、膠餅、玻璃、鏡頭組裝軟板,構裝ＩＣ、其他ＣＭＯＳ數位式ＩＣ（含晶片）
興祥機械工程股份有限公司,新竹縣竹北市泰和里中華路９８７號,24.849512100000002,121.00453200000001,金屬製品業,金屬刀具及手工具製造業,,鋼片、鐵片
百越精密有限公司,新竹縣竹北市泰和里中華路６７６巷２３號,24.8465538,121.006546,金屬製品業,金屬模具製造業,,金屬模具
啟資企業有限公司,新竹縣竹北市泰和里２３鄰泰和路５９號１樓,24.8451862,121.006821,金屬製品業,金屬熱處理業,,金屬加工處理，金屬加工用機械設備
晟祥金屬股份有限公司,新竹縣竹北市泰和里中華路９９３號,24.849691399999998,121.004379,基本金屬業,鋼鐵鑄造業,,各種鑄鋼品
久番機電有限公司,新竹縣竹北市泰和里中華路６７６巷２１弄１號,24.846870000000003,121.006607,機械設備業,食品、飲料及菸草製作用機械設備製造業,機械零件,科技產品機械設備
泰昌鋼鐵材料行,新竹縣竹北市泰和里中華路６７６巷２１弄３號,24.846870000000003,121.006607,金屬製品業,其他金屬加工處理業,,加工鋼鐵基本材料
億昕有限公司,新竹縣竹北市泰和里中華路１００１號２樓,24.849927899999997,121.004356,成衣及服飾品業,成衣製造業,,成衣製造
益福不銹鋼材有限公司,新竹縣竹北市泰和里中華路６７６巷２１弄６號,24.846989999999998,121.00664499999999,金屬製品業,未分類其他金屬製品製造業,,不銹鋼板
煌隆精機股份有限公司第二廠,新竹縣竹北市泰和里中華路６７６巷２１弄９號,24.846989999999998,121.00664499999999,機械設備業,其他通用機械設備製造業,,其他機械
鑫昌鋼鐵企業有限公司,新竹縣竹北市泰和里１９鄰中華路６７６巷２１弄５號,24.846989999999998,121.00664499999999,金屬製品業,其他金屬加工處理業,,鐵材加工
益昌鐵材工廠,新竹縣竹北市泰和里中華路６７６巷３７號,24.846426,121.00688899999999,金屬製品業,其他金屬加工處理業,,其他金屬加工處理
楷豐科技股份有限公司,新竹縣竹北市泰和里中華路６７６巷１８號１樓,24.8460331,121.00731699999999,機械設備業,電子及半導體生產用機械設備製造業,,半導體零件
亞洲電材股份有限公司,新竹縣竹北市泰和里中華路６７６巷１８號４樓,24.8460331,121.00731699999999,化學製品業,未分類其他化學製品製造業,,其他電子零組件
榮昭工科股份有限公司,新竹縣竹北市中華路６７６巷１８號３樓,24.8460331,121.00731699999999,電子零組件業,未分類其他電子零組件製造業,,Ｔｏｕｃｈ Ｐａｎｅｌ貼合代工
勇盛醬園,新竹縣竹北市泰和里中和街２０１巷２０號１樓,24.8478737,121.00666799999999,食品及飼品業,調味品製造業,,醬油製造
台灣岩崎電氣股份有限公司,新竹縣竹北市泰和里中和街２０１巷１６號,24.848000000000003,121.006767,電力設備業,電燈泡及燈管製造業,,水銀燈泡管
鑫旺機械工程有限公司,新竹縣竹北市泰和里１０鄰泰和路８１號,24.8454781,121.00763700000002,機械設備業,未分類其他專用機械設備製造業,,其他生產專用機械及零組件
科盛企業有限公司,新竹縣竹北市泰和里泰和路７９號,24.8454781,121.00763700000002,其他運輸工具零件業,未分類其他運輸工具及其零件製造業,,托吊車配件
竹門企業社,新竹縣竹北市泰和里２２鄰中和街２０１巷１４號,24.848077800000002,121.006813,非金屬礦物製品業,平板玻璃及其製品製造業,,玻璃製品
勝筌精密塑膠鋼模製造有限公司,新竹縣竹北市泰和里泰和路７５號,24.8455048,121.007668,金屬製品業,金屬模具製造業,,塑膠品
祥喨鋼鐵有限公司,新竹縣竹北市泰和里泰和路８９之５號,24.8456745,121.007668,金屬製品業,其他金屬加工處理業,,鋼板裁剪、加工
雙郁機械工程有限公司,新竹縣竹北市泰和里２２鄰中和街２０１巷１２號,24.8481388,121.006851,金屬製品業,金屬模具製造業,,沖床機械
穎創有限公司,新竹縣竹北市泰和里中和街２０１巷２７號,24.8479137,121.007019,機械設備業,未分類其他專用機械設備製造業,,（１）治夾具（２）機器設備
東恭工程企業有限公司,新竹縣竹北市泰和里中和街２０１巷２５號,24.84798,121.007065,金屬製品業,未分類其他金屬製品製造業,,風管製造工程
建清塑膠工業社,新竹縣竹北市泰和里中和街２０１巷８號,24.8482742,121.00695800000001,塑膠製品業,塑膠膜袋製造業,,塑膠袋
上格製冷設備有限公司,新竹縣竹北市泰和里２２鄰中和街１９１巷３９號,24.8473358,121.00741599999999,機械維修及安裝業,產業用機械設備維修及安裝業,,冷凍空調裝修
立盈科技股份有限公司,新竹縣竹北市泰和里中和街１９１巷３１號２樓、３樓、４樓,24.8473358,121.00741599999999,電子零組件業,未分類其他電子零組件製造業,,其他電子零組件，其他電力設備，通用機械設備
溪州工業有限公司,新竹縣竹北市泰和里中和街１９１巷３５號,24.8473358,121.00741599999999,金屬製品業,金屬表面處理業,,金屬製品電鍍、粉體烤漆
同一工業有限公司,新竹縣竹北市泰和里中和街２０１巷６號,24.8483639,121.007034,金屬製品業,未分類其他金屬製品製造業,,機器內部管路
裕京華科技有限公司,新竹縣竹北市泰和里中和街２０１巷２１號,24.8481789,121.00721000000001,金屬製品業,未分類其他金屬製品製造業,,半導體設備零件加工、車銑磨零件加工、機器設立製造、機器立組
鴻助紙器股份有限公司,新竹縣竹北市泰和里２２鄰中和街１９１巷２３號,24.8476257,121.007645,紙漿、紙及紙製品業,瓦楞紙板及紙容器製造業,,瓦楞紙箱
宏鼎實業股份有限公司,新竹縣竹北市泰和里中和街２０１巷２號,24.848501199999998,121.007195,金屬製品業,金屬刀具及手工具製造業,,齒輪、機械零組件、電動工具零組件
明遠精密科技股份有限公司,新竹縣竹北市泰和里中和街１９１巷３１號１樓,24.847494100000002,121.008026,機械維修及安裝業,產業用機械設備維修及安裝業,,ＤＣ ＰＳ，ＥＴＯ，Ｍｉｃｒｏｗａｖｅ，Ｍｏｔｏｒ／Ｄｒｉｖｅｒ，ＯｔｈｅｒＯｚｏｎｅ，ＰＡ Ｔｕｂｅ，ＲＦＧ，ＲＰＳ，Ｏｔｈｅｒ業務買賣
竹碩精密股份有限公司,新竹縣竹北市泰和里中和街２０１巷１７號,24.848575600000004,121.0075,塑膠製品業,其他塑膠製品製造業,,塑膠射出之外殼及其零件
聯合機電技術顧問股份有限公司,新竹縣竹北市泰和里中和街１９９號１樓,24.848894100000003,121.007507,機械維修及安裝業,產業用機械設備維修及安裝業,,水電、消防、空調設計規劃施工。高低壓電氣設備檢驗維護
啟洋科技工程股份有限公司,新竹縣竹北市泰和里中和街１９９號５樓,24.848894100000003,121.007507,機械設備業,未分類其他專用機械設備製造業,,水電，消防、空調及無塵室設計規劃施工監造
禾昌企業股份有限公司,新竹縣竹北市泰和里中和街２０３號,24.848894100000003,121.007507,金屬製品業,其他金屬加工處理業,,特殊鋼材裁剪加工，一般鋼材裁剪加工
超勤工業股份有限公司,新竹縣竹北市泰和里２２鄰中和街１９１巷２５號,24.8481045,121.00796499999998,紙漿、紙及紙製品業,瓦楞紙板及紙容器製造業,,紙箱
偉茗盛有限公司,新竹縣竹北市泰和里中和街１９１巷１１號,24.848470000000002,121.008247,電力設備業,發電、輸電及配電機械製造業,,配電箱、無熔絲開組裝
德晶科技股份有限公司,新竹縣竹北市泰和里２２鄰中和街１９１巷５號,24.848589999999998,121.008324,電子零組件業,其他光電材料及元件製造業,４”ＰＷ  ＷＡＦＥＲ４”ＰＷ  ＷＡＦＥＲ,４”ＰＳＳ ＷＡＦＥＲ４”ＰＳＳ ＷＡＦＥＲ
山太士股份有限公司竹北廠,新竹縣竹北市泰和里中和街１９１巷１５弄１號１樓,24.8483315,121.008568,電子零組件業,其他光電材料及元件製造業,,工業膠帶、光學薄膜、光學材料
精冠科技股份有限公司,新竹縣竹北市泰和里新泰路３３號３樓,24.841032000000002,121.00853000000001,電腦電子及光學品業,其他通訊傳播設備製造業,,通信機械器材、視聽電子產品、ＵＳＢＡＤＡＰＴＥＲ連接器、ＨＥ
協泰車體鈑金廠有限公司,新竹縣竹北市泰和里中和街１９１巷６號,24.848957100000003,121.008354,汽車及零件業,車體製造業,,貨車車體打造
精準醫材股份有限公司,新竹縣竹北市泰和里新泰路３１號８樓之１,24.840511300000003,121.00839199999999,其他製造業,眼鏡製造業,,矽水膠鏡片
力致科技股份有限公司,新竹縣竹北市泰和里新泰路３１號２樓,24.840511300000003,121.00839199999999,電腦電子及光學品業,其他電腦週邊設備製造業,,電腦及其週邊設備
聲博科技股份有限公司,新竹縣竹北市泰和里新泰路３１號５樓,24.840511300000003,121.00839199999999,電腦電子及光學品業,輻射及電子醫學設備製造業,,超音波換能器、超音波相關測試設備
捷準科技股份有限公司,新竹縣竹北市泰和里１２鄰新泰路３１號６樓,24.840511300000003,121.00839199999999,電腦電子及光學品業,量測、導航及控制設備製造業,,ＣＮＣ、ＣＯＮＴＲＯＬ、ＫＩＴ、控制器
豪逸達精密股份有限公司,新竹縣竹北市新泰路３１號５樓之１,24.840511300000003,121.00839199999999,電腦電子及光學品業,其他光學儀器及設備製造業,,鏡頭組裝（來料加工）
承威實業有限公司,新竹縣竹北市泰和里６鄰博愛街７１１巷３５號,24.844577800000003,121.01441200000001,紙漿、紙及紙製品業,瓦楞紙板及紙容器製造業,,免洗餐具
聯成玻璃工業股份有限公司,新竹縣竹北市泰和里博愛街７１１巷３３號,24.8444138,121.014778,非金屬礦物製品業,平板玻璃及其製品製造業,,玻璃加工品
永源玻璃企業有限公司,新竹縣竹北市泰和里博愛街７１１巷２４弄１９、２１號,24.8451233,121.014946,非金屬礦物製品業,平板玻璃及其製品製造業,,玻璃製品
巧瑋國際有限公司,新竹縣竹北市泰和里博愛街７１１巷２４弄１６號,24.8450813,121.0151,食品及飼品業,未分類其他食品製造業,麵粉、糖,鬆餅粉
勤龍裝潢工程有限公司,新竹縣竹北市泰和里６鄰博愛街７１１巷２４弄２５號,24.845438,121.01513700000001,家具業,其他非金屬家具製造業,,非金屬家具及裝設品
立曜有限公司竹北廠,新竹縣竹北市泰和里博愛街７１１巷２４弄２７號,24.8455257,121.01514399999999,機械設備業,其他金屬加工用機械設備製造業,,機械零組件
克鼎精密工業有限公司,新竹縣竹北市泰和里博愛街７１１巷２４弄３０號２樓,24.8454781,121.01545700000001,電子零組件業,未分類其他電子零組件製造業,,電子零組件
微芯科技有限公司,新竹縣竹北市泰和里博愛街７１１巷２４弄２９、３１號１、２樓,24.84563,121.01531200000001,電子零組件業,未分類其他電子零組件製造業,,電子組件
鈦鉿機械股份有限公司,新竹縣竹北市泰和里博愛街７１１巷４弄３號,24.8446,121.01578500000001,機械設備業,其他通用機械設備製造業,,機械、五金零件
朝翔科技股份有限公司,新竹縣竹北市泰和里５鄰博愛街７１１巷４弄５號１樓,24.8446,121.01578500000001,金屬製品業,其他金屬加工處理業,,加工零件
佳宸工程有限公司,新竹縣竹北市博愛街７１１巷９號１樓,24.8439751,121.015495,金屬製品業,金屬建築組件製造業,,廠房新建．鐵件．浪板施工
大薪竹廣告工程有限公司,新竹縣竹北市泰和里博愛街７１１巷５號,24.843895,121.01554099999998,金屬製品業,其他金屬加工處理業,,金屬製品
飛驊機械有限公司竹北廠,新竹縣竹北市泰和里沿河街３２號,24.84605,121.01426699999999,機械設備業,其他通用機械設備製造業,,機械零組件加工
永熙股份有限公司,新竹縣竹北市泰和里博愛街７１１巷４弄２６號１樓,24.8446426,121.01608300000001,食品及飼品業,調味品製造業,,其他食品
唐華鋼業股份有限公司,新竹縣竹北市泰和里沿河街３６號１樓（部分使用）,24.8462448,121.01428200000001,金屬製品業,其他金屬加工處理業,,鋼鐵材之裁剪
大新竹廣告工程有限公司竹北廠,新竹縣竹北市泰和里博愛街７１１巷４弄３０號,24.8448772,121.016205,金屬製品業,未分類其他金屬製品製造業,,金屬製品
台曜塑膠工業有限公司,新竹縣竹北市泰和里博愛街７１１巷４弄１１號,24.84517,121.01619,塑膠製品業,塑膠膜袋製造業,,真空盒發泡布．靜電袋、塑膠袋
旺矽科技股份有限公司台元二廠,新竹縣竹北市竹北里台元街３２號２樓之１、２樓之２,24.843135800000002,121.014771,電子零組件業,半導體封裝及測試業,,探針卡．晶圓針測機
清盈科技股份有限公司,新竹縣竹北市泰和里沿河街４０號,24.8465633,121.014328,電子零組件業,其他光電材料及元件製造業,,ＩＲ、ＡＲ、ＤＭ、ＣＭＯＳ（均屬表面鍍膜）
