FactoryName,Addr,lat,lng,MiddleIndustry,DetailIndustry,Material,ProductName
成興能源有限公司,苗栗縣苑裡鎮房裡里１０鄰１１９之５號,24.4357319,120.630623,木竹製品製造業,其他木竹製品製造業,,木質顆粒燃料
旭威企業社,苗栗縣苑裡鎮山柑里６鄰６５之６５號,24.435586899999997,120.630829,木竹製品製造業,合板及組合木材製造業,,加工合板
大欣石材股份有限公司,臺中市大甲區福德里順帆路１２３號,24.430038500000002,120.62561799999999,非金屬礦物製品業,石材製品製造業,,大理石地磚
和勇科技有限公司二廠,臺中市大甲區福德里順帆路１２２之３號,24.430038500000002,120.62561799999999,金屬製品業,金屬刀具及手工具製造業,,其他金屬製品
高鐵工業股份有限公司,臺中市大甲區福德里順帆路１５２號,24.4288616,120.62746399999999,汽車及零件業,汽車零件製造業,,汽車及其零件、機車及其零件
普聯國際股份有限公司大甲廠,臺中市大甲區西岐里順帆路１２７號,24.4279652,120.626076,機械設備業,化工機械設備製造業,,壓料機，碎料機，真空吸料機，真空吸塵器
聯輯企業有限公司,苗栗縣苑裡鎮房裡里南房７２之６號,24.4324112,120.64153300000001,金屬製品業,螺絲、螺帽及鉚釘製造業,,螺絲、金屬零件
百歐仕科研股份有限公司苑裡廠,苗栗縣苑裡鎮房裡里９鄰南房９６之６號,24.43618,120.63723,食品及飼品業,未分類其他食品製造業,,其他未分類食品製造
霖谷金屬製品有限公司,苗栗縣苑裡鎮房裡里南房９７之１號１樓,24.436815300000003,120.637375,金屬製品業,螺絲、螺帽及鉚釘製造業,,螺絲、鞋釘
士承股份有限公司,苗栗縣苑裡鎮房裡里１鄰南房７號,24.4334164,120.64711000000001,其他運輸工具零件業,自行車零件製造業,,自行車零件製造
垂坤食品有限公司苑裡廠,苗栗縣苑裡鎮房裡里１鄰南房３之２號１、２、３樓,24.433670000000003,120.64733100000001,食品及飼品業,肉類其他加工及保藏業,,肉類處理及其製品
斌倫開發實業有限公司,苗栗縣苑裡鎮房裡里１鄰南房１之７號,24.433670000000003,120.64733100000001,其他製造業,體育用品製造業,,高爾夫球袋及腳架
泰興工業社,苗栗縣苑裡鎮房裡里１鄰南房１之９號,24.433670000000003,120.64733100000001,非金屬礦物製品業,未分類其他非金屬礦物製品製造業,,砂土
明杉塑膠工業股份有限公司,苗栗縣苑裡鎮房裡里１鄰南房１之１號,24.433670000000003,120.64733100000001,皮革毛皮製品業,行李箱及手提袋製造業,,塑膠製手提袋
成淞企業有限公司,苗栗縣苑裡鎮房裡里１鄰南房１之２號,24.433670000000003,120.64733100000001,金屬製品業,金屬表面處理業,,其他金屬製品
明冠企業社,苗栗縣苑裡鎮房裡里１鄰南房１之３號,24.433670000000003,120.64733100000001,機械設備業,其他通用機械設備製造業,,其他機械零件
驊峻工業股份有限公司,苗栗縣苑裡鎮房裡里１鄰南房１之５號,24.433670000000003,120.64733100000001,金屬製品業,金屬刀具及手工具製造業,,小五金
富都輪胎行,苗栗縣苑裡鎮房裡里１鄰南房３號,24.433670000000003,120.64733100000001,橡膠製品業,輪胎製造業,,輪胎
敏志塑膠工業股份有限公司,苗栗縣苑裡鎮房裡里４鄰北房４５之１號,24.434760999999998,120.647552,塑膠製品業,其他塑膠製品製造業,,塑膠圍兜、手提袋、背袋、帆布手提袋
六三八汽車電機有限公司,苗栗縣苑裡鎮房裡里６鄰南房６９之１３號,24.4300289,120.64533999999999,汽車及零件業,汽車零件製造業,,電機修理
利德來企業股份有限公司,苗栗縣苑裡鎮房裡里６鄰南房６９之２６號,24.4300289,120.64533999999999,汽車及零件業,車體製造業,,拖車車體之製造，一般車身之打造，一般機械
耐用水泥製品股份有限公司,苗栗縣苑裡鎮房裡里６鄰南房６９之３號,24.4300289,120.64533999999999,非金屬礦物製品業,預拌混凝土製造業,,預拌混凝土、預力電桿
協成企業社,苗栗縣苑裡鎮房裡里６鄰南房６９之１６號,24.4300289,120.64533999999999,汽車及零件業,汽車零件製造業,,排氣管、小型汽車板金
興亞水泥製品工廠股份有限公司,苗栗縣苑裡鎮房裡里６鄰南房６９之１號,24.4300289,120.64533999999999,非金屬礦物製品業,水泥及混凝土製品製造業,,預力基椿、預力電桿、預鑄人孔
鋐國企業股份有限公司,苗栗縣苑裡鎮房裡里６鄰南房６９之２０號,24.4300289,120.64533999999999,汽車及零件業,車體製造業,,汽車車體及拖車製造
振富車體廠,苗栗縣苑裡鎮房裡里６鄰南房６９之２４號,24.4300289,120.64533999999999,汽車及零件業,車體製造業,,汽車車體及拖車製造
麗傢俬家具有限公司,苗栗縣苑裡鎮房裡里６鄰南房６９之１２號,24.4300289,120.64533999999999,家具業,木製家具製造業,,非金屬家具、木材製品傢俱
詮緯有限公司,苗栗縣苑裡鎮房裡里１０鄰南房６９之１９號１樓,24.4300289,120.64533999999999,其他運輸工具零件業,自行車零件製造業,,自行車及其零件組
墨達思精密工業股份有限公司苑裡廠,苗栗縣苑裡鎮房裡里１鄰順天街１５號,24.43223,120.648071,其他運輸工具零件業,自行車零件製造業,,鋁製品加工，腳踏零件加工等
鋐光實業股份有限公司苑裡廠,苗栗縣苑裡鎮房裡里１鄰南房１０之２號,24.4323139,120.64841499999999,其他運輸工具零件業,自行車零件製造業,,自行車及其零件製造．其他金屬製品製造等
美而耐皮箱有限公司,苗栗縣苑裡鎮海岸里６鄰海岸５２之７號,24.441801100000003,120.643127,皮革毛皮製品業,行李箱及手提袋製造業,,塑膠製行李箱
基昇工業股份有限公司,臺中市大甲區建興里如意路２８－１號,24.4146042,120.615936,金屬製品業,金屬表面處理業,,烤漆
冠盛企業社,臺中市大甲區福德里４鄰順帆路１２２－２號,24.423727,120.62738799999998,金屬製品業,金屬刀具及手工具製造業,,其他金屬手工具製造
嘉錩環保工程有限公司,臺中市大甲區西岐里順帆路９７、９７－１、９７－２號１樓,24.4196,120.62898999999999,金屬製品業,金屬模具製造業,,籃球框、金屬零件
金勝機械股份有限公司,臺中市大甲區西岐里順帆路８１號,24.41934,120.629227,金屬製品業,未分類其他金屬製品製造業,,鋁管加工、凡而毛胚
翊鴻工業社二廠,臺中市大甲區福德里順帆路１２２－６號,24.4241543,120.628532,其他運輸工具零件業,自行車零件製造業,,去漆加工
峰易科技工業有限公司二廠,臺中市大甲區西岐里如意路３７巷１３號,24.42035,120.620453,金屬製品業,金屬刀具及手工具製造業,,金屬手工具及模具
億展科技有限公司,臺中市大甲區銅安里長壽路２８之１２號,24.421087300000003,120.632507,金屬製品業,螺絲、螺帽及鉚釘製造業,,螺絲
勇泰國際有限公司,臺中市大甲區西岐里如意路３３巷１號,24.4178772,120.62073500000001,金屬製品業,未分類其他金屬製品製造業,,其他金屬製品
金允成企業股份有限公司一廠,臺中市大甲區西岐里順帆路５１巷３號１樓,24.415735199999997,120.629967,其他運輸工具零件業,自行車零件製造業,,自行車及其零件
品冠紙業股份有限公司,臺中市大甲區建興里如意路４６號,24.416317000000003,120.61998700000001,紙漿、紙及紙製品業,瓦楞紙板及紙容器製造業,,瓦楞紙板、瓦楞紙箱
金允成企業股份有限公司,臺中市大甲區西岐里順帆路４１號,24.415487300000002,120.63153100000001,其他運輸工具零件業,自行車零件製造業,,自行車前叉管
名展科技有限公司,臺中市大甲區銅安里長壽路９５號,24.425639999999998,120.63346899999999,機械設備業,泵、壓縮機、活栓及活閥製造業,,其他金屬製品，通用機械設備
合富鐵工廠,臺中市大甲區銅安里長壽路３９號,24.4203835,120.64013700000001,金屬製品業,金屬模具製造業,,管模、紡輪、直立模
尚舜科技有限公司工廠,臺中市大甲區銅安里中山路二段１３０１號,24.4193573,120.64245600000001,金屬製品業,未分類其他金屬製品製造業,,其他金屬製品
立泰水泥製品廠股份有限公司,苗栗縣苑裡鎮新復里４鄰５０號,24.4198475,120.6437,非金屬礦物製品業,水泥及混凝土製品製造業,,預鑄人孔、水泥管、手孔、污水人孔、回線
凱舜科技有限公司,臺中市大甲區銅安里長壽路１５６號,24.423824300000003,120.638947,其他運輸工具零件業,自行車零件製造業,,自行車零件（叉骨、靠背架、貨架）
郭誼豐鐵工廠,臺中市大甲區銅安里長壽路５９號,24.4222164,120.63752,機械設備業,化工機械設備製造業,,儲料設備、輸送機
樺舜企業有限公司二廠,苗栗縣苑裡鎮新復里９鄰新復１２４之１３號,24.4258881,120.64020500000001,其他運輸工具零件業,自行車零件製造業,,自行車零件加工業
偉聖塑膠實業股份有限公司,臺中市大甲區銅安里中山路二段１１７３號,24.4161224,120.642311,塑膠製品業,其他塑膠製品製造業,,各種塑膠射出成型製品，不定型之製品
發發發室內裝修有限公司,苗栗縣苑裡鎮新復里６鄰７６號１樓,24.4193363,120.646942,金屬製品業,金屬建築組件製造業,,金屬結構及建築組件
坤億興實業有限公司,苗栗縣苑裡鎮新復里新復４７號,24.4157085,120.644669,金屬製品業,金屬模具製造業,,球閥零件加工
瑞能精密工業股份有限公司,苗栗縣苑裡鎮新復里８鄰新復１０７之１號,24.42567,120.646294,機械設備業,輸送機械設備製造業,,通用機械設備
協辰電機有限公司一廠,苗栗縣苑裡鎮新復里新復１０１之５號,24.423439000000002,120.64862099999999,電力設備業,發電、輸電及配電機械製造業,,發電、輸電、配電機械，通用機械設備
錦昌鐵工廠,臺中市大甲區孟春里臨江路９４之１號,24.41161,120.61441,金屬製品業,金屬建築組件製造業,,鐵門，鐵窗，鐵欄杅，鐵厝，水槽
協昌電機股份有限公司,臺中市大甲區孟春里臨江路９６號,24.41161,120.61441,機械設備業,泵、壓縮機、活栓及活閥製造業,,抽水機配屬附件
金鼎立工業股份有限公司,臺中市大甲區建興里臨江路１６０號,24.4118271,120.61464699999999,塑膠製品業,其他塑膠製品製造業,,塑膠家庭用製品
大丰砂石股份有限公司大安廠,臺中市大甲區建興里臨江路１８５巷３６號,24.413135500000003,120.607079,非金屬礦物製品業,石材製品製造業,,砂、碎石
堉盛股份有限公司二廠,臺中市大甲區龍泉里臨江路１４８－１０號,24.40559,120.62305500000001,其他運輸工具零件業,自行車零件製造業,,金屬電鍍、板金、烤漆處理
三大欣業有限公司,臺中市大甲區建興里臨江路１５０巷１５號,24.41224,120.623222,金屬製品業,金屬結構製造業,,鐵架
旭佑金屬工業有限公司,臺中市大甲區龍泉里臨江路１３２巷２號,24.4017467,120.63076799999999,機械設備業,其他通用機械設備製造業,,通用機械設備，金屬家具
欣宜鐵工廠有限公司,臺中市大甲區西岐里順帆路２９之４號,24.4114132,120.63346100000001,金屬製品業,未分類其他金屬製品製造業,,鐵架鐵棟
富麒機械有限公司,臺中市大甲區西岐里順帆路２９號,24.4114132,120.63346100000001,機械設備業,其他通用機械設備製造業,,雜項修善、維修
百泰紙業有限公司西岐廠,臺中市大甲區西岐里中山路二段９２１之１０號,24.408596,120.642395,紙漿、紙及紙製品業,瓦楞紙板及紙容器製造業,,各種紙器（紙箱）裝配
新能化工股份有限公司,臺中市大甲區日南里幼獅工業區幼六路９號,24.405948600000002,120.64312,化學材料業,化學原材料製造業,,硫酸鎳、氯化鎳
巨大機械工業股份有限公司日南廠,臺中市大甲區龍泉里順帆路１９、１９－５號,24.40857,120.637695,其他運輸工具零件業,自行車製造業,,自行車及配件（自行車、原物料、商品）
巨大機械工業股份有限公司日南二廠,臺中市大甲區龍泉里順帆路１９－８、１９－９號,24.40857,120.637695,其他運輸工具零件業,自行車零件製造業,,自行車及其零件
巨大機械工業股份有限公司日南一廠,臺中市大甲區龍泉里順帆路１９號,24.40857,120.637695,其他運輸工具零件業,自行車零件製造業,,自行車及其零件
英隆針織股份有限公司幼獅廠,臺中市大甲區日南里幼獅路１號,24.40938,120.64371499999999,成衣及服飾品業,成衣製造業,,針織及鉤針織毛衣
新龍工業有限公司,臺中市大甲區龍泉里順帆路１５巷１號,24.405160000000002,120.638275,金屬製品業,未分類其他金屬製品製造業,,五金另件、夾片、固定片、馬口鐵
七海工業股份有限公司,臺中市大甲區日南里幼獅路３號,24.4091129,120.644249,化學材料業,塑膠原料製造業,,ＰＶＣ塑膠料、ＡＢＳ塑膠料、ＡＥＳ塑膠料、ＨＤＰＥ塑膠料、ＬＤＰＥ塑膠料、ＯＰＰ塑膠料、ＰＡ塑膠料、ＰＣ塑膠料、ＰＥ塑膠料、ＰＯＭ塑膠料、ＰＰ塑膠料、ＰＳ塑膠料
達飛工業有限公司,臺中市大甲區西岐里順帆路２８號,24.40863,120.637123,機械設備業,未分類其他專用機械設備製造業,,各種機械（專用機械），五金零件
台吉興業有限公司大甲廠,臺中市大甲區西岐里順帆路３０號,24.408603699999997,120.636948,家具業,木製家具製造業,,木材加工
吉雅工業有限公司二廠,臺中市大甲區西岐里順帆路３０號,24.408603699999997,120.636948,塑膠製品業,其他塑膠製品製造業,,塑膠製品、滑鼠墊、靠墊
天利達企業股份有限公司,臺中市大甲區日南里幼獅路５號,24.4086876,120.64508799999999,電子零組件業,未分類其他電子零組件製造業,,導電矽膠片
源永豐食品股份有限公司,臺中市大甲區日南里幼獅路７號,24.4085751,120.645248,食品及飼品業,麵條及粉條類食品製造業,,麵乾、麵線
騰煇企業有限公司,臺中市大甲區日南里工一路１０號,24.4096889,120.644791,非金屬礦物製品業,水泥及混凝土製品製造業,,歐式石柱雕花
詮勝國際股份有限公司,臺中市大甲區日南里工一路１１號,24.4096889,120.644791,皮革毛皮製品業,行李箱及手提袋製造業,,背包、提袋
上瑋工業有限公司大甲廠,臺中市大甲區日南里幼獅路１３號,24.40841,120.64553799999999,木竹製品製造業,其他木竹製品製造業,,藤傢俱，烘藤機，圓藤分開機，藤
大甲永和機械工業股份有限公司二廠,臺中市大甲區日南里工一路１５號,24.409879999999998,120.645149,金屬製品業,其他金屬加工處理業,,金屬管件，接頭，彎頭，三通大小頭
順鈦企業股份有限公司,臺中市大甲區日南里工一路１２號,24.4092,120.645706,機械設備業,其他金屬加工用機械設備製造業,,ＣＮＣ車床加工
新美商標織造廠有限公司幼獅廠,臺中市大甲區日南里工一路１４號,24.4092,120.645706,紡織業,紡織製成品製造業,,絲織商標，胸章，帶類商標
利洲機械工業股份有限公司,臺中市大甲區西岐里順帆路３６號,24.409111,120.635857,機械設備業,其他通用機械設備製造業,,滑座
鈦揚企業股份有限公司,臺中市大甲區日南里工一路１６號,24.4091454,120.64608,金屬製品業,金屬表面處理業,,真空熱處理．ＣＵＤ鍍鈦．ＰＵＤ鍍鈦．沖模具製造
和昌隆工業股份有限公司,臺中市大甲區日南里幼一路６號,24.409187300000003,120.6466,金屬製品業,金屬熱處理業,,電著加工、皮膜處理、噴砂加工、其他金屬、熱處理加工
誌陽企業股份有限公司本廠,臺中市大甲區幼獅路１７號,24.4077759,120.64685800000001,皮革毛皮製品業,行李箱及手提袋製造業,,塑膠皮箱、航空箱（拉桿箱）
林朋科技股份有限公司二廠,臺中市大甲區日南里青年路１１７號,24.40446,120.64580500000001,電子零組件業,分離式元件製造業,,二極管、晶片、晶粒、成品
廣源造紙股份有限公司台中廠,臺中市大甲區日南里工一路１、２號及工五路５、７號、工三路１５號,24.4119682,120.64484399999999,紙漿、紙及紙製品業,紙板製造業,,造紙、單面塗布白紙板、灰紙板
達航科技股份有限公司精工廠,臺中市大甲區日南里工一路２１號,24.4085331,120.647026,電子零組件業,印刷電路板製造業,,印刷電路板加工、印刷電路板鑽孔機
關友股份有限公司二廠,臺中市大甲區日南里工一路２４號,24.4085331,120.647026,機械設備業,泵、壓縮機、活栓及活閥製造業,,閥類製品、瓦斯鋼瓶閥
冠銓鍛造工業股份有限公司,臺中市大甲區日南里青年路１１５之１號,24.404466600000003,120.64609499999999,金屬製品業,未分類其他金屬製品製造業,,其他金屬製品
粉圓水泥製品廠股份有限公司,臺中市大甲區龍泉里渭水路４０之１號,24.404825199999998,120.63526200000001,非金屬礦物製品業,水泥及混凝土製品製造業,,水泥管、水泥柱預鑄人孔、手孔
粉圓水泥製品廠股份有限公司二廠,臺中市大甲區龍泉里渭水路４０之１號,24.404825199999998,120.63526200000001,非金屬礦物製品業,水泥及混凝土製品製造業,,水泥及其製品
常廣股份有限公司,臺中市大甲區日南里工一路２９號,24.40914,120.647263,其他製造業,其他醫療器材及用品製造業,,醫療器材及設備
大濟製藥廠股份有限公司,臺中市大甲區日南里工三路１６號,24.40989,120.647057,藥品及醫用化學品業,中藥製造業,,酸痛葯布
閎邦化工實業股份有限公司,臺中市大甲區日南里幼獅路１９號,24.4074574,120.64753,化學材料業,塑膠原料製造業,,環氧樹脂、硬化劑、稀釋劑
有通藝景股份有限公司大甲廠,臺中市大甲區日南里工三路１８號,24.409624100000002,120.6474,機械設備業,其他通用機械設備製造業,,金屬材料
成名實業股份有限公司,臺中市大甲區日南里工五路３號,24.4119663,120.645973,化學製品業,未分類其他化學製品製造業,,硬脂酸鋅、硬脂酸鈣、硬脂酸鋇、硬脂酸鎂
紅櫻花食品股份有限公司,臺中市大甲區龍泉里中山路二段９０３之１號,24.401247,120.641792,食品及飼品業,烘焙炊蒸食品製造業,,奶油酥餅、Ｑ餅、鳳梨酥
瑞宥工程有限公司一廠,臺中市大甲區龍泉里中山路二段９０７－１６號,24.4011879,120.64104499999999,金屬製品業,金屬結構製造業,,鋼構
興鋐緯有限公司,臺中市大甲區日南里幼獅路２１號,24.4072647,120.647896,金屬製品業,金屬表面處理業,,金屬製品噴漆及表面處理
龍雲鑄造股份有限公司機械廠,臺中市大甲區日南里工三路２０號,24.4095058,120.647728,基本金屬業,鋼鐵鑄造業,,凡而、逆止閥
關友股份有限公司大甲廠,臺中市大甲區日南里工一路２８號、幼三路１號,24.408260000000002,120.648026,機械設備業,泵、壓縮機、活栓及活閥製造業,,閥類製品、瓦斯鋼瓶閥
三弘木業有限公司,臺中市大甲區日南里幼獅路２５號,24.4072,120.64805600000001,家具業,木製家具製造業,,家具及製設品製造
連乙鑄造股份有限公司二廠,臺中市大甲區日南里工一路３３號,24.408716199999997,120.648293,機械設備業,泵、壓縮機、活栓及活閥製造業,,五金鑄件
永生塑膠工業股份有限公司,臺中市大甲區日南里工一路３５號,24.408716199999997,120.648293,皮革毛皮製品業,行李箱及手提袋製造業,,旅行箱，書包，手提袋，手提箱
紘福不銹鋼工業有限公司,臺中市大甲區日南里工二路１之２號,24.4059925,120.648178,家具業,金屬家具製造業,,不鏽鋼廚具
麗閥精密有限公司,臺中市大甲區日南里工二路１之７號,24.4059925,120.648178,機械設備業,泵、壓縮機、活栓及活閥製造業,,金屬製品、金屬製品製造業
陽明電機股份有限公司台中廠,臺中市大甲區日南里工二路５號,24.4059925,120.648178,電腦電子及光學品業,量測、導航及控制設備製造業,,檢測器、計數器、防盜器
浩盛精密有限公司,臺中市大甲區日南里工二路１之６號,24.4059925,120.648178,機械設備業,其他通用機械設備製造業,,機械零件加工
台灣赫可製造股份有限公司二廠,臺中市大甲區龍泉里中山路二段９０３號,24.4007168,120.64245600000001,機械設備業,金屬切削工具機製造業,,金屬加工用機械、專用生產機械、通用機械設備、其他機械
台灣赫可製造股份有限公司,臺中市大甲區龍泉里中山路二段８９９號,24.4007168,120.64245600000001,機械設備業,金屬切削工具機製造業,,金屬加工用機械
巨大機械工業股份有限公司龍泉廠,臺中市大甲區龍泉里中山路二段９０１號,24.4007168,120.64245600000001,其他運輸工具零件業,自行車製造業,,自行車配件＜自行車、原物料、商品＞
吉雅工業有限公司一廠,臺中市大甲區龍泉里中山路二段８９９之１號,24.4007168,120.64245600000001,塑膠製品業,其他塑膠製品製造業,,滑鼠墊、靠墊
彩麗國際化粧品股份有限公司,臺中市大甲區日南里幼獅路３７號,24.408441500000002,120.64868200000001,化學製品業,清潔用品及化粧品製造業,,眼線筆，眼線液，睫毛膏
冠億齒輪股份有限公司幼三廠,臺中市大甲區日南里幼三路３號２樓,24.4080811,120.64881899999999,機械設備業,動力手工具製造業,,氣動工具、電動工具、專業製造、金屬手工業
冠億精密鑄造工業股份有限公司,臺中市大甲區日南里幼三路３號,24.4078827,120.64888,基本金屬業,鋼鐵鑄造業,,８５３錘ＫＩ商標（脫蠟＋退火）．１４６８前殼．１４７９前殼（脫蠟）．８５７昇降ＫＩ商標（脫蠟＋退火）
益有機械股份有限公司,臺中市大甲區日南里幼三路６號,24.4086533,120.649414,基本金屬業,鋼鐵鑄造業,,鑄件
日南紡織股份有限公司,臺中市大甲區日南里幼獅路２９號,24.4068947,120.64954399999999,紡織業,棉毛紡紗業,,棉紗、人造棉紗、棉混紡紗
川揚精密工業有限公司,臺中市大甲區日南里幼五路２８號,24.40703,120.655289,金屬製品業,未分類其他金屬製品製造業,鋁料,鋁製品銑床加工
餐御宴食品有限公司幼獅廠,臺中市大甲區日南里工七路２６號,24.406633399999997,120.654228,食品及飼品業,未分類其他食品製造業,,其他食品
鴻宇興科技有限公司大甲廠,臺中市大甲區日南里幼五路２２號,24.406496,120.654129,石油及煤製品業,石油及煤製品製造業,,清潔用品、石油及煤製品
五昌製罐企業有限公司二廠,苗栗縣苑裡鎮新復里１８號之２,24.4088421,120.654106,金屬製品業,其他金屬容器製造業,,馬口鐵空罐
五昌製罐企業有限公司,苗栗縣苑裡鎮新復里２鄰１８號,24.4088421,120.654106,金屬製品業,其他金屬容器製造業,,馬口鐵空罐
詠証製罐五金企業有限公司二廠,苗栗縣苑裡鎮新復里新復１８號,24.4088421,120.654106,金屬製品業,未分類其他金屬製品製造業,,把手、五金零件
詠証製罐五金企業有限公司三廠,苗栗縣苑裡鎮新復里新復１８之９號,24.409072899999998,120.654228,金屬製品業,未分類其他金屬製品製造業,,把手、五金零件
超聯科技股份有限公司,臺中市大甲區日南里工七路２８號,24.40586,120.654762,塑膠製品業,塑膠皮、板及管材製造業,,塑膠製品
容宇有限公司,臺中市大甲區日南里工七路５之１號１樓,24.4067078,120.653732,其他運輸工具零件業,自行車零件製造業,,自行車零件
維鎂科技工業有限公司二廠,臺中市大甲區日南里工七路５號１樓,24.4067059,120.653732,塑膠製品業,塑膠外殼及配件製造業,,軸心、塑膠臺身、塑膠蓋子、鋁合金臺身、鋁錠、鎂錠、鋼珠、珠碗
維格工業股份有限公司二廠,臺中市大甲區日南里工七路５號１樓,24.4067059,120.653732,其他運輸工具零件業,自行車零件製造業,,自行車零件（腳踏）
詠証製罐五金企業有限公司,苗栗縣苑裡鎮新復里２鄰１８之６號,24.409198800000002,120.654068,金屬製品業,未分類其他金屬製品製造業,,把手、掛鎖、自動架、五金零件
其泰企業股份有限公司,臺中市大甲區日南里幼五路７號,24.406435000000002,120.653572,印刷及儲存媒體複製業,印刷輔助業,,地址簿、日記本、帳簿
三鵬企業股份有限公司,苗栗縣苑裡鎮新復里２鄰新復１８之１１號,24.40887,120.65343500000002,機械設備業,未分類其他專用機械設備製造業,,空氣污染防治設備
侑芳食品廠,臺中市大甲區日南里工七路１６號,24.406907999999998,120.652969,食品及飼品業,未分類其他食品製造業,,便當
永信藥品工業股份有限公司生技食品廠,臺中市大甲區日南里工九路２７之１號,24.40513,120.655052,藥品及醫用化學品業,西藥製造業,,人用藥品、動物藥品、食品、化妝品
侑芳企業股份有限公司,臺中市大甲區日南里工七路１２號,24.407037699999997,120.65264099999999,食品及飼品業,未分類其他食品製造業,,便當
維格工業股份有限公司,臺中市大甲區日南里工七路３號,24.4078865,120.652534,其他運輸工具零件業,自行車零件製造業,,自行車零件（腳踏）
極湛科技股份有限公司,臺中市大甲區日南里工九路２３號,24.405089999999998,120.65428899999999,其他製造業,玩具及遊戲機製造業,,遙控車、遙控車配件
富凱工業社二廠,苗栗縣苑裡鎮田心里４鄰田心３９之６號,24.406671499999998,120.658524,其他運輸工具零件業,自行車零件製造業,,自行車零件
永信藥品工業股份有限公司台中幼獅廠,臺中市大甲區日南里工九路２７號、工七路９號,24.404878600000004,120.654655,藥品及醫用化學品業,西藥製造業,,人用藥品、食品、動物藥品、化妝品
台鉅精機廠有限公司,臺中市大甲區日南里工九路１３號,24.4058628,120.65309099999999,機械設備業,木工機械設備製造業,,帶鋸機
井田生化科技股份有限公司,臺中市大甲區日南里工九路９號,24.40621,120.652672,藥品及醫用化學品業,西藥製造業,,順安維他錠、維他命Ｂ２錠、活性維生素Ｂ６膠囊、美康錠
井田生化科技股份有限公司食品廠,臺中市大甲區日南里工九路９號（食品廠）,24.40621,120.652672,食品及飼品業,未分類其他食品製造業,,其他食品
睿益工業股份有限公司,臺中市大甲區日南里工九路１６號,24.4052,120.65361000000001,金屬製品業,金屬熱處理業,,熱處理加工、自行車車架
台灣味群工業股份有限公司,臺中市大甲區日南里工七路６號,24.407178899999998,120.652107,食品及飼品業,乳品製造業,,調味品製造業、國際貿易、代加工
錦輝製線企業股份有限公司,臺中市大甲區日南里工九路１２號,24.406,120.652405,紡織業,人造纖維紡紗業,,繡花線，工業用線
友懋金屬股份有限公司大甲廠,臺中市大甲區日南里工九路７號,24.406618100000003,120.651955,基本金屬業,鋁材軋延、擠型及伸線業,,鋁材加工
旺欉鋁業有限公司,臺中市大甲區日南里東二街３１號,24.40543,120.65857700000001,基本金屬業,鍊鋁業,,鋁材、鋁窗、鋁門、配件
榮憶橡膠工業股份有限公司二廠,臺中市大甲區日南里東二街２９號,24.4051781,120.65862299999999,橡膠製品業,工業用橡膠製品製造業,,橡膠製品、油封、緩衝墊、輪胎、護套
竣淵科技股份有限公司,臺中市大甲區日南里工九路３３號,24.4038715,120.655624,金屬製品業,金屬表面處理業,,金屬表面處理及熱處理
高僑自動化科技股份有限公司,臺中市大甲區日南里工七路１號,24.4080162,120.65142800000001,機械設備業,其他通用機械設備製造業,,自動化機器設備，微型鑽頭
鈦鈿工業股份有限公司,臺中市大甲區日南里幼獅路４９、５１號,24.4045448,120.653084,機械設備業,機械傳動設備製造業,,各種軸承
冠億齒輪股份有限公司幼獅廠,臺中市大甲區幼獅工業區幼獅路５０號,24.4045448,120.653084,機械設備業,動力手工具製造業,,氣動工具、電動工具、專業製造、金屬手工業
健康化學製藥股份有限公司,臺中市大甲區日南里幼四路１２號,24.407512699999998,120.651375,藥品及醫用化學品業,西藥製造業,,西藥（粉劑，顆粒，錠，糖衣錠）
昌益金屬科技有限公司二廠,苗栗縣苑裡鎮田心里田心５０之８號,24.4089775,120.65958400000001,金屬製品業,其他金屬容器製造業,,球塞和金屬加工
仟揚工業有限公司,苗栗縣苑裡鎮田心里田心５０之９號,24.40886,120.659653,金屬製品業,未分類其他金屬製品製造業,,中軸零組件加工、Ｒ－Ｚ軸心、不銹鋼球
莫俐特國際股份有限公司,臺中市大甲區日南里幼獅路４７號２樓,24.4050388,120.65223700000001,機械設備業,其他通用機械設備製造業,,其他金屬製品，通用機械設備
先端精材股份有限公司,臺中市大甲區日南里幼六路２０號,24.4036121,120.65513600000001,基本金屬業,其他基本金屬鑄造業,,其他基本金屬鑄造
馬光化學工業股份有限公司,臺中市大甲區日南里東二街２５號,24.4049473,120.65896599999999,化學材料業,化學原材料製造業,,ＭＫ－ＤＰＤＰ
德裕興業有限公司,臺中市大甲區日南里東二街２７號,24.4049473,120.65896599999999,金屬製品業,未分類其他金屬製品製造業,,配電箱，法蘭片，機械零件，花窗零件，合金
北晶科技有限公司大甲廠,臺中市大甲區日南里工九路１之１號,24.407003399999997,120.65106999999999,金屬製品業,金屬模具製造業,,軟式／硬式印刷電路板模具
環瑋健康科技國際企業股份有限公司,臺中市大甲區日南里幼獅路４１號,24.4057426,120.651367,其他製造業,體育用品製造業,,運動車、劃船器、單輪車、溜冰車、手推車
同泰電子科技股份有限公司東二廠,臺中市大甲區日南里東二街２８號,24.4051456,120.659714,電子零組件業,印刷電路板製造業,,軟性印刷電路板
原清吉實業有限公司田心廠,苗栗縣苑裡鎮田心里５鄰田心５０之３號１樓,24.411171,120.65866899999999,電力設備業,其他電力設備及配備製造業,,電工器材
東昕企業有限公司苗栗廠,苗栗縣苑裡鎮新復里２鄰新復１６之９號１樓,24.41132,120.65264099999999,金屬製品業,其他金屬加工處理業,,花鼓、輪組
永日化學工業股份有限公司台中幼獅廠,臺中市大甲區日南里幼獅路５９、６１號,24.403059,120.65493000000001,藥品及醫用化學品業,原料藥製造業,,待克菲那納、二〔（二、三二甲基苯基）氨基〕苯甲酸、膨速ＳＳＧ
林朋科技股份有限公司,臺中市大甲區日南里東二街２２號,24.404410000000002,120.659264,電子零組件業,分離式元件製造業,,二極管、晶片、晶粒、成品
井田國際醫藥廠股份有限公司,臺中市大甲區日南里幼獅路３２號,24.4059563,120.65075700000001,藥品及醫用化學品業,西藥製造業,,其他西藥製劑
友迦工業股份有限公司日南廠,臺中市大甲區日南里幼獅路３３號,24.4059563,120.65075700000001,基本金屬業,鋼鐵鑄造業,,軸承座及其附屬零件
王子實業社,臺中市大甲區日南里幼獅路３５號,24.4059563,120.65075700000001,化學製品業,清潔用品及化粧品製造業,,化粧品
友嘉實業股份有限公司日南廠,臺中市大甲區日南里幼獅路３３號１樓,24.4059563,120.65075700000001,金屬製品業,未分類其他金屬製品製造業,,其他金屬製品，通用機械設備
聯誠金屬工業股份有限公司,臺中市大甲區日南里東六街２３號,24.404583,120.659668,機械設備業,其他通用機械設備製造業,,不銹鋼鑄材
阿妹床業有限公司,臺中市大甲區日南里工九路４０號,24.4027672,120.656525,家具業,金屬家具製造業,,床墊
阿妹企業社台中廠,臺中市大甲區日南里工九路４０號,24.4027672,120.656525,家具業,其他非金屬家具製造業,,床墊
大甲永和機械工業股份有限公司三廠,臺中市大甲區工九路４２號,24.40276,120.656525,金屬製品業,其他金屬加工處理業,,石化工業用塑膠、金屬管件、彎頭、三通
香港商弘太自行車有限公司台灣分公司,臺中市大甲區日南里幼獅路６３－１號,24.402526899999998,120.65535700000001,其他運輸工具零件業,自行車零件製造業,,自行車幅條
龍雲鑄造股份有限公司,臺中市大甲區日南里幼獅路６３號,24.402505899999998,120.655746,基本金屬業,鋼鐵鑄造業,,不銹鋼及碳鋼鑄件、不銹鋼及碳鋼球閥
景順實業股份有限公司,臺中市大甲區日南里幼獅路６５號,24.402505899999998,120.655746,家具業,金屬家具製造業,,鋼鐵，金屬家具
佐登妮絲國際股份有限公司幼獅廠,臺中市大甲區日南里幼獅路２８號,24.405651100000004,120.650314,化學製品業,清潔用品及化粧品製造業,,化妝品
久玖實業股份有限公司,臺中市大甲區日南里東二街１９號,24.4038143,120.65959199999999,其他運輸工具零件業,自行車零件製造業,,自行車零件管加工
通霄鋼纜股份有限公司,臺中市大甲區日南里東二街２０號,24.4038143,120.65959199999999,金屬製品業,其他金屬加工處理業,,鋼絲加熱加工，鉛線加熱加工
美商瑞盟亞洲股份有限公司台灣分公司,臺中市大甲區日南里東二街２１號,24.4038143,120.65959199999999,其他製造業,樂器製造業,,爵士鼓面
美商恆旭實業股份有限公司台灣分公司,臺中市大甲區日南里工二路１０號,24.4031372,120.65248100000001,食品及飼品業,未分類其他食品製造業,,檸檬茶粉，薏仁粉片，茶包
輪鋒工業股份有限公司,臺中市大甲區日南里工九路４５號,24.4024467,120.657211,機械設備業,其他通用機械設備製造業,,自行車零件（主軸另件，前叉另件）
多益實業有限公司,臺中市大甲區日南里東二街１７號,24.40341,120.6594,紡織業,棉毛紡紗業,,紗
功勝凡而工業股份有限公司台中廠,臺中市大甲區日南里幼獅路６８號,24.4021358,120.655823,基本金屬業,鋼鐵鑄造業,,閥零件
大甲永和機械工業股份有限公司,臺中市大甲區日南里幼獅路６９號,24.4021358,120.655823,金屬製品業,未分類其他金屬製品製造業,,石化工業用金屬管件，接頭彎頭，三通，大小
巨毅金屬工業股份有限公司,臺中市大甲區日南里工九路５２號,24.4021759,120.657036,金屬製品業,金屬熱處理業,,零件，軸心，熱處理
大甲永和機械工業股份有限公司五廠,臺中市大甲區日南里幼獅路５５號、工九路２２號,24.402002300000003,120.655273,金屬製品業,其他金屬加工處理業,,金屬管件、接頭、彎頭、等其他金屬製品
廣居國際股份有限公司,臺中市大甲區日南里幼獅路５６號,24.402002300000003,120.655273,金屬製品業,金屬建築組件製造業,,鋁擠型、鋁門窗
善騰太陽能源股份有限公司大甲廠,臺中市大甲區日南里東二街１８號,24.403478600000003,120.65995,電力設備業,其他家用電器製造業,,熱泵熱水器、太陽能熱水器
整合股份有限公司大甲廠,臺中市大甲區日南里東二街１８號,24.403478600000003,120.65995,金屬製品業,未分類其他金屬製品製造業,鐵、鋁、不銹鋼、銅等,儀器架、箱及其零件等製造
台中瑞興織嘜有限公司,臺中市大甲區日南里工二路６之１號,24.4041557,120.65052800000001,紡織業,其他紡織品製造業,,紡織品（布類標籤）
昆達工業股份有限公司,臺中市大甲區日南里東六街１７號,24.403945899999997,120.66053799999999,橡膠製品業,工業用橡膠製品製造業,,橡膠迫緊（油封）
久津實業股份有限公司大甲廠,臺中市大甲區日南里東六街１８號,24.403945899999997,120.66053799999999,飲料業,非酒精飲料製造業,,果汁純果汁，飲料
隆明工業科技有限公司,臺中市大甲區日南里工四路１０號,24.401926,120.65349599999999,金屬製品業,螺絲、螺帽及鉚釘製造業,,螺絲．螺帽製造
伍珍穀粉有限公司,臺中市大甲區日南里工二路６號,24.4041786,120.65016899999999,食品及飼品業,磨粉製品製造業,,玉米粉
台灣時規皮帶股份有限公司,臺中市大甲區日南里工九路５８號,24.401773499999997,120.65731799999999,橡膠製品業,工業用橡膠製品製造業,,時規皮帶、多溝皮帶、各種傳動皮帶
巨全金屬工業股份有限公司二廠,臺中市大甲區日南里東二街１３號,24.4027767,120.659729,機械設備業,泵、壓縮機、活栓及活閥製造業,,各種閥類及其配件、管類配件、精密機械零件
樺茂科技股份有限公司,臺中市大甲區日南里工四路７號,24.4019032,120.65300800000001,化學材料業,化學原材料製造業,,化學材料
友倫工業股份有限公司二廠,臺中市大甲區日南里東六街３０號,24.403655999999998,120.660843,其他運輸工具零件業,自行車零件製造業,,腳踏車零件加工製造
全昌股份有限公司,臺中市大甲區日南里幼獅路７３號,24.4014168,120.65684499999999,基本金屬業,鋼鐵鑄造業,,鑄鐵
義興衡器廠有限公司幼獅廠,臺中市大甲區日南里幼獅路７５號,24.4014168,120.65684499999999,電腦電子及光學品業,其他光學儀器及設備製造業,,電子秤、砝碼
科林實業股份有限公司,臺中市大甲區日南里東六街２２號,24.4038086,120.66111799999999,化學材料業,塑膠原料製造業,,增稠劑，彈性水泥樹脂
凱鍶鎂股份有限公司,臺中市大甲區日南里東二街１６號,24.4026031,120.66004199999999,塑膠製品業,其他塑膠製品製造業,,塑膠製品
寶集實業有限公司,臺中市大甲區日南里東二街１５號,24.4026031,120.66004199999999,紡織業,染整業,,纖維紗、纖維紗染整
比歐化學有限公司,臺中市大甲區日南里工二路２９之１號,24.4011345,120.655243,化學製品業,清潔用品及化粧品製造業,,洗髮精、沐浴乳、香皂
鈦鈿工業股份有限公司展二廠,臺中市大甲區日南里工二路７號,24.401096300000003,120.655174,機械設備業,機械傳動設備製造業,,各種軸承
久鎮實業股份有限公司,臺中市大甲區日南里東二街９號,24.40209,120.659576,機械設備業,泵、壓縮機、活栓及活閥製造業,,瓦斯開關調整器．瓦斯器具．空油壓開關．五金零件
璨均企業有限公司,苗栗縣苑裡鎮新復里３鄰新復３９之６號,24.412941,120.65111499999999,塑膠製品業,其他塑膠製品製造業,,安全帽、車架、碳布
璨均企業有限公司,苗栗縣苑裡鎮新復里新復３９之６號,24.412941,120.65111499999999,其他製造業,其他未分類製造業,,安全帽、碳布
穎錩實業股份有限公司,臺中市大甲區日南里工二路３１號,24.400907500000002,120.655441,機械設備業,泵、壓縮機、活栓及活閥製造業,,各種閥及水龍頭零件
睿億貿易有限公司,臺中市大甲區日南里東六街１６號,24.4032936,120.661194,其他製造業,樂器製造業,,樂品產品
建升精密股份有限公司,臺中市大甲區日南里東三街１０號,24.4028625,120.660843,金屬製品業,金屬模具製造業,,模具
立靖實業股份有限公司,臺中市大甲區日南里東三街７號,24.4028625,120.660843,金屬製品業,未分類其他金屬製品製造業,,不銹鋼包層鋼管、不銹鋼管配件
榮憶橡膠工業股份有限公司日南廠,臺中市大甲區日南里東三街８號,24.4028625,120.660843,橡膠製品業,工業用橡膠製品製造業,,護套、緩衝墊、油封、迫緊
同泰電子科技股份有限公司青年廠,臺中市大甲區日南里青年路１２３號,24.4032383,120.6499,電子零組件業,印刷電路板製造業,,電子零組件製造業
寶翰股份有限公司,臺中市大甲區日南里東二街１２號,24.4023,120.66021,塑膠製品業,塑膠膜袋製造業,,自動包裝膜、自動包裝袋、衛生手套、購物袋
大山塑膠股份有限公司工廠,臺中市大甲區日南里幼五路３號,24.402720000000002,120.650352,塑膠製品業,其他塑膠製品製造業,,塑膠條
凱思德股份有限公司,臺中市大甲區日南里東二街６號,24.401844,120.659851,塑膠製品業,其他塑膠製品製造業,,塑膠製品
連乙鑄造股份有限公司,臺中市大甲區日南里東二街７號,24.401844,120.659851,機械設備業,泵、壓縮機、活栓及活閥製造業,,五金鑄件
賀聯工業股份有限公司,臺中市大甲區日南里東三街２號,24.403370000000002,120.6617,汽車及零件業,汽車零件製造業,,機械及零組件
亞洛德有限公司,臺中市大甲區日南里東六街１１號,24.402883499999998,120.661331,塑膠製品業,其他塑膠製品製造業,,ＴＰＥ （ｐｌａｓｔｉｃ ｇｒａｎｕｌｅｓ）
鋐輪工業股份有限公司,臺中市大甲區日南里東二街１０號,24.40192,120.66018700000001,其他運輸工具零件業,自行車製造業,,自行車零件（曲柄，齒盤，大五通零件）
新萊應材科技有限公司大甲二廠,臺中市大甲區日南里東六街１０號,24.40254,120.661148,金屬製品業,未分類其他金屬製品製造業,,食品用不銹鋼管配件
北裕塑膠工業股份有限公司大甲廠,臺中市大甲區日南里青年路１２５號,24.402372399999997,120.650139,塑膠製品業,塑膠皮、板及管材製造業,,塑膠製品
展奕金屬企業有限公司,臺中市大甲區日南里青年路１２６號,24.402372399999997,120.650139,金屬製品業,未分類其他金屬製品製造業,,金屬製品等
明璟實業有限公司,臺中市大甲區日南里青年路１２７號,24.402372399999997,120.650139,塑膠製品業,其他塑膠製品製造業,,塑膠製品
新可大國際股份有限公司一廠,臺中市大甲區日南里東二街３號,24.401510000000002,120.659943,其他運輸工具零件業,自行車零件製造業,,自行車腳踏
順得興工業有限公司,臺中市大甲區日南里東二街５號,24.401510000000002,120.659943,塑膠製品業,其他塑膠製品製造業,,色料、塑膠粒
新加坡商阿克蘇諾貝爾股份有限公司台灣分公司,臺中市大甲區日南里幼六路９－２號,24.4008255,120.65258,化學材料業,化學原材料製造業,,矽溶膠
友倫工業股份有限公司,臺中市大甲區日南里青年路１２１號,24.4026337,120.649643,其他運輸工具零件業,自行車零件製造業,,自行車及其零件
震旦行股份有限公司家具廠,臺中市大甲區日南里幼七路１３號,24.400196100000002,120.655396,家具業,金屬家具製造業,,檔案櫃，屏風，椅子，辦公桌，側櫃，保管箱
順昂實業有限公司,臺中市大甲區日南里東二街８號,24.4016514,120.660454,金屬製品業,金屬表面處理業,,機械零件電著加工
新萊應材科技有限公司大甲廠,臺中市大甲區日南里東九街７號,24.403038000000002,120.662025,金屬製品業,未分類其他金屬製品製造業,,食品用不銹鋼管配件
勤旺輕金屬科技股份有限公司,臺中市大甲區日南里東九街８號,24.403038000000002,120.662025,基本金屬業,鋁材軋延、擠型及伸線業,鋁,鋁、其他機械
層層包裝事業股份有限公司,臺中市大甲區日南里幼獅路７６號,24.40032,120.657425,紙漿、紙及紙製品業,未分類其他紙製品製造業,,熱封玻璃紙，熱封鋁箔紙，貼合膠膜紙，塑膠
光營產業機械股份有限公司,臺中市大甲區日南里東六街５號,24.4024639,120.661621,機械設備業,輸送機械設備製造業,,堆高機零件
坤泉企業有限公司,臺中市大甲區日南里東六街７號,24.4024639,120.661621,其他運輸工具零件業,自行車零件製造業,,自行車及其零件
訊鼎電子股份有限公司幼獅廠,臺中市大甲區日南里青年路１２２號,24.4020424,120.649658,電腦電子及光學品業,其他通訊傳播設備製造業,,電視分配器、分岐器、訊號放大器
慶泰樹脂化學股份有限公司,臺中市大甲區日南里工二路５０號,24.3998451,120.65628799999999,化學製品業,塗料、染料及顏料製造業,,聚胺脂防水塗料、地板塗料、面漆、底漆
元鴻應用材料股份有限公司幼獅廠,臺中市大甲區日南里東九街５號,24.4026241,120.662231,化學製品業,未分類其他化學製品製造業,,環氧樹脂硬化劑
葛瑞士國際人造石材股份有限公司,臺中市大甲區日南里東二街１號,24.4009113,120.660133,非金屬礦物製品業,石材製品製造業,,石材製品
廣源造紙股份有限公司台中二廠,臺中市大甲區日南里幼獅路８１、８１之１號,24.399974800000003,120.657928,紙漿、紙及紙製品業,紙板製造業,,灰紙皮、白紙板上光加工、塗布白紙板
金隆化學工業股份有限公司幼獅廠,臺中市大甲區日南里幼獅路８２號,24.399974800000003,120.657928,化學材料業,塑膠原料製造業,?喃甲醇、福美林、石碳酸、結合劑,酚醛樹脂、鑄造樹脂、呋喃樹脂、硬化劑、固態ＩＣ樹脂、液態ＩＣ
久鼎機械股份有限公司,臺中市大甲區日南里青年路１３５號,24.3999348,120.65320600000001,機械設備業,污染防治設備製造業,,水洗設備、廢料回收設備、造粒機、擠乾機、塑膠押出機
信宥有限公司,苗栗縣苑裡鎮新復里１鄰新復６之２號,24.41561,120.654518,機械設備業,泵、壓縮機、活栓及活閥製造業,馬達．線圈軸、磁鐵,通用機械設備
鋐輪工業股份有限公司二廠,臺中市大甲區日南里東六街１號,24.40159,120.66143799999999,其他運輸工具零件業,自行車零件製造業,鋼棒－鐵板,直腿－曲柄心軸等
榮翔科技有限公司,臺中市大甲區日南里東一街１６號,24.401006699999996,120.66066000000001,金屬製品業,其他金屬加工處理業,,金屬加工處理
丙辛酉環保企業股份有限公司,臺中市大甲區日南里東一街１７號,24.401006699999996,120.66066000000001,其他製造業,珠寶及金工製品製造業,,金箔、銀廢料、鈀黑、銀塊
澄朗興業有限公司,臺中市大甲區日南里東一街１８號,24.401006699999996,120.66066000000001,化學製品業,未分類其他化學製品製造業,,藥品、清潔用品、其他化學製藥、污染防治設
億昇倉儲企業股份有限公司大甲潤滑油一廠,臺中市大甲區日南里東一街１５之１號,24.401006699999996,120.66066000000001,石油及煤製品業,石油及煤製品製造業,,潤滑油
三圓水泥製品廠有限公司,臺中市大甲區日南里東一街１５號,24.401006699999996,120.66066000000001,非金屬礦物製品業,水泥及混凝土製品製造業,,水泥管，Ｃ型管，水泥板
千億企業社,苗栗縣苑裡鎮社苓里社苓１２９之１２號,24.4084072,120.66896100000001,金屬製品業,未分類其他金屬製品製造業,,氣動工具零件
廣輝五金工業社,苗栗縣苑裡鎮田心里田心２之５號,24.4080963,120.668327,金屬製品業,未分類其他金屬製品製造業,鍍鋅錏型鋼、鐵板、熱軋鋼板、鋼板,中套管、鐵蓋、座墊支架、齒盤
精威工業社,苗栗縣苑裡鎮田心里田心３之１１號,24.40883,120.667786,機械設備業,泵、壓縮機、活栓及活閥製造業,,開關閥
昇昌企業社,苗栗縣苑裡鎮田心里田心５之７號,24.41166,120.66713700000001,其他運輸工具零件業,自行車零件製造業,,其他自行車零件
嵩新工業股份有限公司,苗栗縣苑裡鎮社苓里１０鄰社苓１１８號,24.403425199999997,120.673996,家具業,金屬家具製造業,,金屬家具，五金零件，家具配件（皮革，玻璃）
尚峯鋁門行,苗栗縣苑裡鎮社苓里１３鄰１４５之１號１樓,24.402608899999997,120.675087,金屬製品業,金屬建築組件製造業,,鋁門窗
淞友利股份有限公司,苗栗縣苑裡鎮社苓里１２鄰社苓１３４號,24.404562,120.6771,機械設備業,其他通用機械設備製造業,,手工具、機械設備
樺舜企業有限公司,苗栗縣苑裡鎮社苓里８鄰社苓９１之６號,24.4020863,120.67523999999999,其他運輸工具零件業,自行車零件製造業,,其他自行車零件
昌益金屬科技有限公司,苗栗縣苑裡鎮山柑里９鄰１０５號,24.402774800000003,120.66403999999999,金屬製品業,其他金屬容器製造業,,油漆桶
財德企業社二廠,臺中市大安區頂安里中山北路３５９巷５號,24.394275699999998,120.5979,金屬製品業,未分類其他金屬製品製造業,,金屬加工處理
財德企業社,臺中市大安區頂安里中山北路３６３巷２２號,24.394125,120.599152,金屬製品業,未分類其他金屬製品製造業,,不銹鋼製品加工
大安甘醇股份有限公司,臺中市大安區頂安里中山北路３３０號１－２樓,24.3929462,120.59953300000001,飲料業,其他酒精飲料製造業,,蒸餾酒、白酒、再製酒、米酒、料理米酒
佑展塑膠廠股份有限公司大安廠,臺中市大安區頂安里中山北路３６６號,24.39397,120.600075,塑膠製品業,其他塑膠製品製造業,,塑膠
明瑟工業有限公司,臺中市大安區頂安里東西一路７０巷２號,24.392673499999997,120.60070800000001,其他運輸工具零件業,自行車零件製造業,,各種塑膠製品（自行車零件）
萬茂有限公司,臺中市大安區頂安里中山北路３８８號,24.395225500000002,120.60100600000001,塑膠製品業,其他塑膠製品製造業,,塑膠製品
大舜鴻企業股份有限公司,臺中市大安區頂安里東西一路６０巷３號,24.393102600000002,120.60163100000001,機械設備業,其他通用機械設備製造業,,機械零件
東吳科技工業股份有限公司,臺中市大安區頂安里安溪路６１號,24.3902988,120.616409,金屬製品業,螺絲、螺帽及鉚釘製造業,,五金零件
和佳工業股份有限公司,臺中市大安區頂安里東西二路１３８之８號１樓,24.387697199999998,120.609558,汽車及零件業,汽車零件製造業,,汽機車用之汽門、導管、汽門座機械零件
立順禮品社,臺中市大安區頂安里東西二路１２８號,24.3874855,120.61010700000001,化學製品業,未分類其他化學製品製造業,,其他製品蠟燭
嘉茂生鮮有限公司,臺中市大安區頂安里東西二路１７２號,24.3880253,120.60758999999999,食品及飼品業,屠宰業,,雞肉
昌鉦實業股份有限公司,臺中市大安區頂安里安溪路４５號,24.388614699999998,120.6178,家具業,金屬家具製造業,,綱製傢具桌，綱製傢具椅，綱製框，綱製圈
東發企業社工廠,臺中市大甲區龍泉里渭水路３５號,24.3970261,120.638947,塑膠製品業,塑膠膜袋製造業,,編織袋、太空袋（ＰＰ材質）
金勇傑精密科技股份有限公司,臺中市大甲區龍泉里北堤西路２９７號１樓,24.389593100000003,120.635521,金屬製品業,未分類其他金屬製品製造業,,金屬加工
昇憶工業股份有限公司,臺中市大甲區龍泉里北堤西路２９８號１樓,24.3896255,120.63546799999999,其他製造業,體育用品製造業,,籃球架
信岳織造廠股份有限公司,臺中市大甲區日南里中山路二段９１６巷２１號,24.39912,120.645981,紡織業,其他紡織品製造業,,織帶
郭天送呢帽有限公司,臺中市大甲區孟春里經國路２３７５巷６２號,24.3893986,120.64672900000001,成衣及服飾品業,服飾品製造業,,塑膠帽、呢龍帽、呢絨帽、其他帽
漢鑫實業有限公司,臺中市大甲區日南里經國路２６８０號１樓,24.3942642,120.64916200000002,金屬製品業,金屬模具製造業,,滑塊加工代工、模具加工代工
泰億工業股份有限公司幼獅廠,臺中市大甲區日南里幼九路７號,24.393911399999997,120.655441,其他製造業,樂器製造業,,各種樂器之五金附屬零件
壯佳果股份有限公司幼獅廠,臺中市大甲區日南里幼九路６號,24.393911399999997,120.655441,紙漿、紙及紙製品業,瓦楞紙板及紙容器製造業,,防油紙袋輕包裝紙袋
陸昌化工股份有限公司幼獅廠,臺中市大甲區日南里工十路３３號,24.395011899999997,120.655304,化學材料業,化學原材料製造業,,氧化鋅、氧化銅、氯化鋅
翊弘金屬業股份有限公司,臺中市大甲區日南里幼九路１３號,24.3953819,120.656136,金屬製品業,未分類其他金屬製品製造業,,不銹鋼球
正能紙器工業股份有限公司大甲廠,臺中市大甲區日南里幼九路１２號,24.3953819,120.656136,紙漿、紙及紙製品業,瓦楞紙板及紙容器製造業,,瓦楞紙板，紙箱，紙盒
五豐水泥製品股份有限公司二廠,臺中市大甲區日南里黎明路３８３號,24.39591,120.65753899999999,非金屬礦物製品業,預拌混凝土製造業,,水泥及水泥製品
野寶科技股份有限公司,臺中市大甲區日南里幼九路１６號,24.3962288,120.65765400000001,其他運輸工具零件業,自行車零件製造業,,自行車車架、避震器、避震前叉、折疊自行車
其佑企業有限公司二廠,臺中市大甲區日南里中山路二段７４３之２號,24.392849,120.65261100000001,其他製造業,體育用品製造業,,健身器材坐墊、自行車坐墊
永信藥品工業股份有限公司台中幼獅二廠,臺中市大甲區日南里工六路２９號,24.3970451,120.65468600000001,藥品及醫用化學品業,西藥製造業,,人用藥品、動物藥品、食品、化妝品
永信藥品工業股份有限公司台中幼獅三廠,臺中市大甲區日南里工六路２６、工十路１２－１號,24.3969669,120.653976,藥品及醫用化學品業,西藥製造業,,人用藥品、動物藥品、食品、化妝品
源力企業有限公司,臺中市大甲區日南里黎明路３之１２號,24.392457999999998,120.659012,金屬製品業,螺絲、螺帽及鉚釘製造業,,基礎螺絲
其佑企業有限公司,臺中市大甲區日南里黎明路１之５３號,24.392457999999998,120.659012,其他製造業,體育用品製造業,,健身器材座墊、自行車座墊
隆紳股份有限公司,臺中市大甲區日南里幼七路１號,24.397077600000003,120.653259,其他運輸工具零件業,自行車零件製造業,,前叉接頭、車架接頭、溝爪、五通管
伸豐工具股份有限公司幼獅廠,臺中市大甲區日南里幼七路２號,24.397077600000003,120.653259,機械設備業,動力手工具製造業,,工具、油壓工具
源力企業有限公司,臺中市大甲區幸福里黎明路２－５３號,24.390668899999998,120.657036,金屬製品業,螺絲、螺帽及鉚釘製造業,,基礎螺絲
固新皮件工業股份有限公司,臺中市大甲區日南里日南路１之３３號１樓,24.391914399999997,120.652275,皮革毛皮製品業,其他皮革及毛皮製品製造業,,皮革、毛皮及其製品
陸昌化工股份有限公司青年廠,臺中市大甲區日南里青年路１５９號,24.398017899999996,120.655449,化學材料業,化學原材料製造業,,氧化鋅，氧化銅，氯化鋅
大永統工業有限公司,臺中市大甲區幸福里中山路二段５７９號,24.3903046,120.65387,紡織業,紡織製成品製造業,,運動器材（座墊、護膝、護肘）、自行車零件
拓斯麗馳機械股份有限公司,臺中市大甲區日南里幼九路１８號,24.39761,120.65788300000001,機械設備業,金屬切削工具機製造業,,臥式鏜銑加工中心機
台灣麗馳科技股份有限公司,臺中市大甲區日南里幼九路１８號,24.39761,120.65788300000001,機械設備業,金屬切削工具機製造業,,銑床、車床
茂雄金屬股份有限公司大甲廠,臺中市大甲區日南里幼九路２０號,24.39761,120.65788300000001,汽車及零件業,汽車零件製造業,,汽機車五金零件、鍍鋅鐵配件
聖億電工有限公司大甲廠,臺中市大甲區日南里幼七路３號,24.3979454,120.653931,機械設備業,其他通用機械設備製造業,,機械零件加工等
上層企業股份有限公司,臺中市大甲區日南里幼七路５號,24.3979454,120.653931,金屬製品業,未分類其他金屬製品製造業,,鋁箔相關製品
英鼎工業股份有限公司,臺中市大甲區日南里幼九路１１－１號,24.3978577,120.657555,機械設備業,泵、壓縮機、活栓及活閥製造業,,凡而，閥類，機械零件等毛胚鑄造加工
巨全金屬工業股份有限公司,臺中市大甲區日南里幼九路１１號,24.3978577,120.657555,機械設備業,泵、壓縮機、活栓及活閥製造業,,各種閥類及其配件，管類配件，精密機械零件
功億工業股份有限公司台中二廠,臺中市大甲區日南里幼九路９號,24.3978577,120.657555,機械設備業,泵、壓縮機、活栓及活閥製造業,,通用機械設備、其他金屬製品
訊億電子股份有限公司,臺中市大甲區日南里幼七路７號,24.39817,120.654343,電腦電子及光學品業,視聽電子產品製造業,,電腦、通信及視聽電子
凌葳有限公司,臺中市大甲區日南里工六路２７號,24.398037,120.65354199999999,電子零組件業,其他光電材料及元件製造業,,雷射雕刻加工
品岳科技股份有限公司二廠,臺中市大甲區日南里工十路８之２號,24.3972187,120.652184,其他運輸工具零件業,自行車零件製造業,,自行車把手
品岳科技股份有限公司,臺中市大甲區日南里工十路８號,24.39722,120.652184,其他運輸工具零件業,自行車零件製造業,,自行車車把
建榮造漆廠股份有限公司,臺中市大甲區日南里工十路８－１號,24.39722,120.652184,化學製品業,塗料、染料及顏料製造業,,木器用油漆、防水材料、香蕉水
昌益塑膠有限公司,臺中市大甲區日南里工十路１０之２號,24.39722,120.652184,塑膠製品業,其他塑膠製品製造業,,ＰＶＣ內襯
台灣赫可製造股份有限公司三廠,臺中市大甲區日南里工十路１０號,24.39722,120.652184,機械設備業,金屬切削工具機製造業,,金屬加工用機械設備
東碱股份有限公司台中廠,臺中市大甲區日南里工十路１２號,24.39722,120.652184,化學材料業,化學原材料製造業,氯化鉀，硫酸，石灰石,硫酸鉀，鹽酸，液體氯化鈣
祥旺食品工業股份有限公司,臺中市大甲區日南里工十路７號,24.397726100000003,120.65241999999999,食品及飼品業,未分類其他食品製造業,,蛋皮、野菜適通
聖順機械股份有限公司,臺中市大甲區日南里工六路２５號,24.398310000000002,120.65340400000001,機械設備業,其他通用機械設備製造業,,機械零件加工
千郁企業有限公司,臺中市大甲區幸福里黎明路２６之１號,24.39601,120.660271,金屬製品業,未分類其他金屬製品製造業,,零件加工
榮成閥業股份有限公司,臺中市大甲區幸福里黎明路２６之３號,24.39601,120.660271,金屬製品業,未分類其他金屬製品製造業,,鋼球
竣淵科技股份有限公司二廠,臺中市大甲區日南里工四路２２號,24.398885699999997,120.655464,金屬製品業,金屬表面處理業,,金屬表面處理
慶泰樹脂化學股份有限公司二廠,臺中市大甲區日南里工二路５８、５８之１、６０號,24.398695,120.6573,化學製品業,塗料、染料及顏料製造業,,防水塗料、面漆、底漆
穩合實業股份有限公司台中廠,臺中市大甲區日南里工六路２２號,24.398223899999998,120.652718,化學製品業,未分類其他化學製品製造業,,燃料油添加劑
慶昌齒輪企業有限公司幼獅廠,臺中市大甲區日南里工十路５號,24.3979836,120.652138,機械設備業,機械傳動設備製造業,,齒輪
裕珍馨食品股份有限公司幼獅廠,臺中市大甲區日南里工十路６號,24.3975258,120.65156599999999,食品及飼品業,烘焙炊蒸食品製造業,,奶油酥餅、中式糕餅、麵包
聯誠金屬工業股份有限公司二廠,臺中市大甲區日南里工六路２１號,24.3986568,120.653046,機械設備業,其他通用機械設備製造業,,其他金屬製品
岠燁工業股份有限公司,臺中市大甲區日南里工六路１９號,24.3986568,120.653046,汽車及零件業,汽車零件製造業,,精密鑄造：１．機械零件２．食品機械零件３．機車、汽車零件
國嘉製藥工業股份有限公司幼獅三廠,臺中市大甲區日南里工十路２號,24.3981457,120.65168,藥品及醫用化學品業,西藥製造業,,賜得健、痛嘉音、痰舒、咳舒
隴億科技股份有限公司,臺中市大甲區日南里工十路３號,24.3981457,120.65168,其他運輸工具零件業,自行車零件製造業,,自行車及其零件（鋁管）
瑩信工業股份有限公司,臺中市大甲區日南里工二路４１號,24.3994389,120.657249,其他運輸工具零件業,自行車零件製造業,,自行車零件（碳纖維製造）
偉兒達工業股份有限公司,臺中市大甲區日南里青年路１４６、１４６之１、１４６之２號,24.3992748,120.653107,其他運輸工具零件業,自行車零件製造業,,前叉、車架、車手、車首頭、座管
功億工業股份有限公司台中廠,臺中市大甲區日南里工六路１３號,24.399187100000002,120.65219099999999,機械設備業,泵、壓縮機、活栓及活閥製造業,,凡而（各類閥）
台姿記工業股份有限公司,臺中市大甲區日南里工十路１號,24.398672100000002,120.65126000000001,金屬製品業,金屬表面處理業,,電鍍
三晃股份有限公司大甲廠,臺中市大甲區日南里青年路１４０號,24.399883300000003,120.6528,化學製品業,未分類其他化學製品製造業,,阻燃劑
北裕塑膠工業股份有限公司大甲二廠,臺中市大甲區日南里青年路１３９號,24.399883300000003,120.6528,塑膠製品業,塑膠皮、板及管材製造業,,塑膠製品
昇頎實業股份有限公司,臺中市大甲區日南里幼六路１號,24.398674,120.650795,電力設備業,其他家用電器製造業,,熱水器、烤肉爐、瓦斯桶開關、金屬家具及裝設品、育樂用品
佑益烤漆工業股份有限公司三廠,臺中市大甲區日南里幼六路５號,24.4001122,120.651711,金屬製品業,金屬表面處理業,,金屬製品噴烤漆
正鵬工業股份有限公司,臺中市大甲區日南里工六路１號,24.399867999999998,120.65106200000001,金屬製品業,未分類其他金屬製品製造業,,金屬類研磨加工
新加坡商矽比科亞洲有限公司寶琳分公司大甲廠,臺中市大甲區日南里工六路６號,24.400135000000002,120.65030700000001,非金屬礦物製品業,未分類其他非金屬礦物製品製造業,,石英粉
美商瑞盟亞洲股份有限公司台灣分公司二廠,臺中市大甲區日南里工六路９號,24.400135000000002,120.65030700000001,其他製造業,樂器製造業,,敲擊樂器
日億實業股份有限公司,苗栗縣苑裡鎮山柑里６鄰山柑路５９號,24.394920000000003,120.67175300000001,紡織業,人造纖維梭織布業,,布
林家工業社,苗栗縣苑裡鎮山柑里１鄰４之６號,24.393585199999997,120.67298899999999,金屬製品業,未分類其他金屬製品製造業,,五金加工
順詮精機股份有限公司,苗栗縣苑裡鎮山柑里１鄰５號,24.394000000000002,120.67338600000001,機械設備業,金屬切削工具機製造業,,金屬加工用機械
新象傢俱企業社苑裡一廠,苗栗縣苑裡鎮山柑里２鄰山柑１２之３號１樓,24.3921547,120.67293500000001,家具業,其他非金屬家具製造業,,沙發
歐聖科技股份有限公司,臺中市大甲區幸福里長安路６４之２號,24.3909283,120.66925800000001,塑膠製品業,其他塑膠製品製造業,,１．反光標、２．硫化標、３．Ｒ膠遮噴標、４．水標
華陽工程行,苗栗縣苑裡鎮山柑里６鄰山柑６５之４７號１樓,24.397195800000002,120.673157,金屬製品業,金屬建築組件製造業,,金屬結構及建築組件
富軫工業股份有限公司,苗栗縣苑裡鎮山柑里山柑６５之１號,24.397184399999997,120.67346200000001,家具業,金屬家具製造業,,鐵桌腳、沙發腳
上泓傢俱有限公司,苗栗縣苑裡鎮山柑里６鄰山柑６５之４８號,24.39771,120.673515,家具業,木製家具製造業,,五金配件、辦公傢俱
帝禕工業有限公司,苗栗縣苑裡鎮南勢里１４鄰南勢１６９之２號,24.3985176,120.67251599999999,機械設備業,其他金屬加工用機械設備製造業,,電腦車床控制動盤、基礎螺絲、工具機用刀桿座
順詮精機股份有限公司三廠,苗栗縣苑裡鎮山柑里１鄰１之５號左邊,24.390926399999998,120.67491899999999,機械設備業,金屬切削工具機製造業,,金屬加工用機械
金威鋁業有限公司,苗栗縣苑裡鎮社苓里社苓３６之８號,24.395835899999998,120.676216,金屬製品業,金屬刀具及手工具製造業,,鋁合金、手工具
泰錡金屬工程有限公司苑裡廠,苗栗縣苑裡鎮社苓里３鄰社苓３６之７號,24.396074300000002,120.676147,金屬製品業,金屬表面處理業,,不鏽鋼材
合盛精密有限公司二廠,苗栗縣苑裡鎮社苓里３鄰社苓３６之１０號,24.3954849,120.676437,金屬製品業,未分類其他金屬製品製造業,,ＣＮＣ加工
頂新電機企業有限公司,苗栗縣苑裡鎮社苓里９鄰１０９號１樓,24.3994122,120.67406499999998,電力設備業,配線器材製造業,,開關，電力供應錶等
宥勝精密工業有限公司,苗栗縣苑裡鎮山柑里１鄰山柑２之５號,24.3896027,120.67639199999999,金屬製品業,其他金屬加工處理業,,鐳射雕刻、車床加工
順詮精機股份有限公司二廠,苗栗縣苑裡鎮山柑里１鄰２之１號,24.3887825,120.67696399999998,機械設備業,金屬切削工具機製造業,,金屬加工用機械
順詮精機股份有限公司一廠,苗栗縣苑裡鎮山柑里１鄰２之１號對面,24.3887825,120.67696399999998,機械設備業,金屬切削工具機製造業,,金屬加工用機械
芳昇塑膠工業社二廠,苗栗縣苑裡鎮泰田里５鄰泰田８２之２６號,24.393896100000003,120.689095,塑膠製品業,其他塑膠製品製造業,,塑膠製品
丹堤生物科技有限公司,苗栗縣苑裡鎮泰田里５鄰８１之８號,24.3938828,120.689651,化學製品業,清潔用品及化粧品製造業,,桔淨營養霜、全方位膠原面膜
台灣袋業企業有限公司苗栗廠,苗栗縣苑裡鎮社苓里２鄰社苓２１之５號,24.3956852,120.67997,塑膠製品業,塑膠膜袋製造業,,塑膠袋製造
協舫股份有限公司,苗栗縣苑裡鎮泰田里泰田１０５之６號,24.397289999999998,120.68946100000001,金屬製品業,螺絲、螺帽及鉚釘製造業,,螺絲、五金零件
誠信工安有限公司,苗栗縣苑裡鎮社苓里１鄰８之５號,24.39923,120.68351000000001,紙漿、紙及紙製品業,家庭及衛生用紙製造業,,口罩
鐙軒製冰工廠,苗栗縣苑裡鎮社苓里２鄰社苓２２號,24.396686600000002,120.679955,食品及飼品業,乳品製造業,,雪糕，芋仔冰，冰棒
合成香舖,苗栗縣苑裡鎮泰田里泰田１２４之７號,24.4006538,120.6873,紙漿、紙及紙製品業,未分類其他紙製品製造業,,金紙
特勤工業有限公司,苗栗縣苑裡鎮泰田里９鄰泰田１２４號,24.4006538,120.6873,汽車及零件業,汽車零件製造業,,汽車零件
信宏企業社,苗栗縣苑裡鎮玉田里４鄰玉田５４之８號,24.3878,120.688286,金屬製品業,未分類其他金屬製品製造業,,機械零件及加工
億光電子工業股份有限公司苗栗廠,苗栗縣苑裡鎮玉田里國光巷３５號,24.3886318,120.680168,電子零組件業,發光二極體製造業,,發光二極體指示燈、顯示器
代佳電機股份有限公司,苗栗縣苑裡鎮泰田里５鄰泰田７６號,24.3915482,120.692245,電力設備業,配線器材製造業,,馬達成品（線圈）
特勤工業有限公司二廠,苗栗縣苑裡鎮泰田里９鄰泰田１２４之６號,24.4012985,120.686829,汽車及零件業,汽車零件製造業,,其他未列名汽車零組件
新城精密工業股份有限公司苑裡廠,苗栗縣苑裡鎮玉田里６鄰國光巷３９號,24.3885269,120.679657,電力設備業,發電、輸電及配電機械製造業,,伺服馬達
合利精機有限公司,苗栗縣苑裡鎮泰田里９鄰泰田１３５之５號,24.4014816,120.684,機械設備業,其他金屬加工用機械設備製造業,,金屬加工用機械加工
佾岳股份有限公司,苗栗縣苑裡鎮玉田里４鄰玉田５９之６號,24.386589999999998,120.684807,橡膠製品業,其他橡膠製品製造業,,乳膠手套
泳慶工業股份有限公司分廠,臺中市大安區海墘里大安港路１２０６巷１６號,24.38035,120.585724,塑膠製品業,其他塑膠製品製造業,,塑膠
上川事業股份有限公司,臺中市大安區海墘里中山北路６７號,24.37959,120.58645600000001,其他運輸工具零件業,自行車零件製造業,,自行車腳踏、自行車車手豎桿、自行車座墊束子
臺中市大安區農會碾米工廠海墘分工廠,臺中市大安區海墘里大安港路１１５１號,24.3791924,120.586906,食品及飼品業,碾榖業,,糙米、農糧署委託公糧
連醇酒業有限公司,臺中市大安區海墘里大安港路１０８２之１號,24.378656399999997,120.58917199999999,飲料業,其他酒精飲料製造業,,白酒、蒸餾酒
宏益科技材料股份有限公司,臺中市大安區海墘里大安港路１０８２號,24.378656399999997,120.589256,化學製品業,未分類其他化學製品製造業,,接著劑
皇瑋科技企業有限公司大安廠,臺中市大安區海墘里大安港路１０７３號,24.3783321,120.5894,其他運輸工具零件業,自行車零件製造業,,自行車配件
泓瑋實業股份有限公司,臺中市大安區海墘里大安港路１０７９巷１３號,24.3776169,120.589157,其他運輸工具零件業,自行車零件製造業,,腳踏車零件
泓瑋實業股份有限公司二廠,臺中市大安區海墘里大安港路１０７９巷１３號,24.3776169,120.589157,其他運輸工具零件業,自行車零件製造業,,腳踏車零件
臺久企業股份有限公司二廠,臺中市大安區海墘里東西六路二段２０１號,24.3795071,120.589928,化學製品業,未分類其他化學製品製造業,,蠟
順州工業社,臺中市大安區海墘里中山北路１巷７２號,24.372692100000002,120.583252,塑膠製品業,其他塑膠製品製造業,,ＰＰ塑膠
臺久企業股份有限公司,臺中市大安區海墘里東西六路二段１９３號,24.3794,120.59056899999999,化學製品業,未分類其他化學製品製造業,,蠟
長宥工業股份有限公司,臺中市大安區福住里東西五路二段２２０巷７號,24.3825588,120.59562700000001,機械設備業,未分類其他專用機械設備製造業,,篩網
崧佑工業有限公司二廠,臺中市大安區福住里南北八路１５２巷臨１號,24.3819866,120.599228,塑膠製品業,其他塑膠製品製造業,,塑膠
宸暐金屬工業股份有限公司,臺中市大安區海墘里大安港路９４２號,24.375877399999997,120.59605400000001,基本金屬業,鋼鐵鑄造業,,翻砂鑄件
易晟機械工業有限公司,臺中市大安區永安里東西四路４００巷６號,24.3853378,120.59496299999999,機械設備業,其他通用機械設備製造業,,各種機械零件加工
聯利塑膠廠二廠,臺中市大安區福住里東西六路二段１００號,24.3775082,120.60120400000001,塑膠製品業,塑膠膜袋製造業,,塑膠袋
程盛機械股份有限公司,臺中市大安區福住里東西五路二段２２０巷９號,24.3799686,120.602295,機械設備業,未分類其他專用機械設備製造業,,磨漿機、分離機、去污機、機械另件
宏萁科技股份有限公司,臺中市大安區福住里東西五路二段２２０巷９號,24.3799686,120.602295,機械設備業,未分類其他專用機械設備製造業,,機械零件
明璟製模社,臺中市大安區海墘里南北九路７３號,24.3781,120.5915,金屬製品業,金屬模具製造業,,模具
冠霖鋼模股份有限公司,臺中市大安區永安里東西四路二段４００巷１２號,24.3856335,120.595009,金屬製品業,金屬模具製造業,,模具
寶鈿不銹鋼有限公司,臺中市大安區西安里東西七路二段１５２之２號,24.37501,120.598373,金屬製品業,鍋爐、金屬貯槽及壓力容器製造業,,不銹鋼水塔
捷和有限公司,臺中市大安區福住里東西五路二段１６０號,24.3798676,120.60314199999999,機械設備業,其他通用機械設備製造業,,連板、機械另件
皇瑋科技企業有限公司,臺中市大安區海墘里１１鄰南北八路１０１巷８之１號,24.3748951,120.59423100000001,其他運輸工具零件業,自行車零件製造業,,自行車配件
泳慶工業股份有限公司,臺中市大安區西安里大安港路９２６號,24.374360999999997,120.59816000000001,塑膠製品業,其他塑膠製品製造業,,各種塑膠成品射出
高宏工具有限公司,臺中市大安區西安里大安港路９３５號,24.37428,120.597923,金屬製品業,金屬刀具及手工具製造業,,工具箱．套筒
興合精密工業有限公司二廠,臺中市大安區西安里南北八路９８之２號,24.374136,120.596672,機械設備業,其他通用機械設備製造業,,其他金屬製品，通用機械設備
宙宏企業有限公司,臺中市大安區西安里南北八路９８之６號,24.374136,120.596764,金屬製品業,金屬刀具及手工具製造業,,工具組
興合精密工業有限公司,臺中市大安區西安里南北八路９８號,24.374136,120.596764,機械設備業,其他通用機械設備製造業,,生爪
信成碾米工廠,臺中市大安區福住里南北七路１２１號,24.37604,120.60219599999999,食品及飼品業,碾榖業,,穀類乾燥及碾穀
三福碾米工廠,臺中市大安區永安里東西三路２６６號,24.3862858,120.60148600000001,食品及飼品業,碾榖業,,有關之稻殼，糙米，白米
潔安環保工程有限公司大安廠,臺中市大安區海墘里東西八路二段１７６號,24.37482,120.591431,塑膠製品業,其他塑膠製品製造業,,塑膠製品製造業
瑩益企業有限公司二廠,臺中市大安區福住里南北七路１４１巷１７號,24.3784466,120.60509499999999,塑膠製品業,塑膠皮、板及管材製造業,,塑膠
強朧股份有限公司,臺中市大安區永安里東西四路二段１８１號,24.3809128,120.61030600000001,金屬製品業,未分類其他金屬製品製造業,,銅鈸、銅鼓、鐵鼓、鼓框等
詮順企業社,臺中市大安區永安里南北六路１７８號,24.3805676,120.60986299999999,塑膠製品業,其他塑膠製品製造業,,模具
敬能企業有限公司,臺中市大安區永安里南北六路２１３巷１２號,24.3832645,120.60938999999999,電腦電子及光學品業,視聽電子產品製造業,,揚聲器裝配加工、家用音響裝配加工
越欣印刷企業有限公司一廠,臺中市大安區海墘里東西八路二段２２２－３號,24.3773842,120.615,印刷及儲存媒體複製業,印刷業,,貼紙、貼標
卜赫馬有限公司,臺中市大安區海墘里１１鄰東西八路二段１９０號,24.3773842,120.615,其他運輸工具零件業,自行車製造業,,自行車、車架、零件
原同紙業股份有限公司一廠,臺中市大安區頂安里東西二路６３號,24.38431,120.61493700000001,紙漿、紙及紙製品業,未分類其他紙製品製造業,,紙箱，紙盒，紙管
賓仕捲門企業有限公司一廠,臺中市大安區福住里東西五路４３巷１６號,24.376308399999996,120.61539499999999,金屬製品業,金屬建築組件製造業,,捲門
良榮股份有限公司二廠,臺中市大安區福住里東西六路二段６１號,24.3758068,120.6077,金屬製品業,金屬模具製造業,,塑膠成型模具
侑鋒實業有限公司,臺中市大安區福住里東西五路一段４３２號１樓,24.377187699999997,120.616676,其他運輸工具零件業,自行車零件製造業,,踏板
宏菖企業有限公司工廠,臺中市大安區頂安里東西二路５２巷１２號,24.385332100000003,120.6155,金屬製品業,未分類其他金屬製品製造業,,電著加工
昆湖企業股份有限公司,臺中市大安區頂安里頂大安東西二路５２巷１１號,24.385501899999998,120.61531799999999,金屬製品業,金屬表面處理業,,加工電著
大甲車業有限公司,臺中市大安區永安里東西四路一段８０巷３號,24.379854199999997,120.61891899999999,其他運輸工具零件業,自行車零件製造業,,自行車裝配，自行車零組件加工，五金零件加工
大榮建築鋼架股份有限公司,臺中市大甲區德化里東西六路一段４０７、４０９號,24.374212300000003,120.61539499999999,金屬製品業,金屬結構製造業,,廠房鋼結構
敬能企業有限公司大安廠,臺中市大安區西安里東西七路７０號,24.3736954,120.60831499999999,電腦電子及光學品業,視聽電子產品製造業,,揚聲器裝配加工、家用音響裝配加工
民峰實業股份有限公司大安一廠,臺中市大安區頂安里東西三路１０號,24.381002399999996,120.630875,非金屬礦物製品業,石材製品製造業,,預拌混凝土、水泥制品
民峰實業股份有限公司大安預拌混凝土廠,臺中市大安區頂安里東西三路１２號,24.381002399999996,120.630875,非金屬礦物製品業,預拌混凝土製造業,,預拌混凝土、水泥制品
系格工業股份有限公司,臺中市大安區頂安里東西三路３號,24.379848499999998,120.63176000000001,金屬製品業,金屬刀具及手工具製造業,,塑膠製品、手工具
利盛紙業股份有限公司大安廠,臺中市大安區永安里南北四路１０７號,24.3781185,120.620888,紙漿、紙及紙製品業,瓦楞紙板及紙容器製造業,,紙箱、紙盒、彩盒
通用瀝青工業股份有限公司三十甲工廠,臺中市大安區頂安里東西三路６號,24.3803673,120.631927,非金屬礦物製品業,未分類其他非金屬礦物製品製造業,,石油類
仕昌企業社,臺中市大甲區德化里東西五路一段３１３號,24.37595,120.621323,金屬製品業,金屬刀具及手工具製造業,,農具
宏菖企業有限公司,臺中市大安區頂安里４鄰南北四路３５１巷２０號,24.3848858,120.62030800000001,金屬製品業,未分類其他金屬製品製造業,,電著加工
世輪企業股份有限公司,臺中市大甲區德化里南北三路２５７巷３號,24.3735867,120.62546499999999,其他運輸工具零件業,自行車零件製造業,,自行車零件加工
營碩機械工業股份有限公司大甲二廠,臺中市大甲區孟春里８鄰臨江路７１－６號,24.384449,120.64571399999998,機械設備業,輸送機械設備製造業,,輸送機械
進利樹脂殼模砂心製造廠,臺中市大甲區孟春里臨江路８８之１號,24.3838425,120.647377,機械設備業,機械傳動設備製造業,,樹脂殼模（砂心）
富凱工業社,臺中市大甲區孟春里通天路１８５巷８號,24.3808117,120.654335,其他運輸工具零件業,自行車零件製造業,,自行車零件
鼎馥紙器股份有限公司,臺中市大甲區太白里通天路１４５號,24.3802948,120.656807,紙漿、紙及紙製品業,瓦楞紙板及紙容器製造業,,紙箱、紙盒、彩色盒
勝森建築板模有限公司,臺中市大甲區孟春里中山路二段３２１之２號,24.3828,120.655708,木竹製品製造業,其他木竹製品製造業,,板模
巨蓁實業有限公司,臺中市大甲區孟春里中山路二段１４３號１樓,24.3787937,120.653679,其他運輸工具零件業,自行車零件製造業,,自行車輪圈
盛沅企業有限公司,臺中市大甲區孟春里中山路二段３２３號,24.3832645,120.655594,塑膠製品業,其他塑膠製品製造業,,高週波加工
威輪工業股份有限公司,臺中市大甲區孟春里中山路二段３２５號,24.3832645,120.655594,其他運輸工具零件業,自行車製造業,,特種變速自行車及各種自行車裝配
光泰文具股份有限公司,臺中市大甲區孟春里中山路二段５７號,24.3769188,120.65275600000001,其他製造業,文具製造業,,筆記本
良宜精密工業股份有限公司,臺中市大甲區孟春里中山路二段５６號,24.37685,120.652718,機械設備業,橡膠及塑膠加工用機械設備製造業,,加工
蒼億科技有限公司,臺中市大甲區孟春里經國路１９２１巷２６號,24.3826141,120.65093200000001,金屬製品業,金屬模具製造業,,模具
巨翔金屬股份有限公司,臺中市大甲區幸福里長安路福祥巷５８號,24.3819923,120.66053000000001,金屬製品業,鍋爐、金屬貯槽及壓力容器製造業,,高壓氣瓶
博承精密工業有限公司,臺中市大甲區太白里通天路１１８之１號,24.375841100000002,120.65657,金屬製品業,金屬刀具及手工具製造業,,電腦銑床加工
歐德美工業有限公司,臺中市大甲區幸福里長安路安利巷６０號,24.3824959,120.660866,其他運輸工具零件業,自行車零件製造業,,車架、前叉、自行車零件
台灣琦麗樹脂化工股份有限公司大甲廠,臺中市大甲區幸福里長安路安利巷８０號,24.38176,120.66120900000001,化學製品業,塗料、染料及顏料製造業,,ＰＵ塗料
台灣琦麗樹脂化工股份有限公司二廠,臺中市大甲區幸福里長安路安利巷６８號,24.3827648,120.660995,化學製品業,塗料、染料及顏料製造業,,ＰＵ塗料
尚雍企業有限公司,臺中市大甲區幸福里長安路安利巷５０號,24.3832474,120.661,金屬製品業,金屬表面處理業,,金屬電鍍板金
鎂輪工業股份有限公司,臺中市大甲區幸福里長安路２－１號、安利巷５１號,24.3832474,120.661,其他運輸工具零件業,自行車零件製造業,,金屬家具及裝設品、汽車及其零件、機車及其零件、自行車及其零件
日莆企業有限公司第一工廠,臺中市大甲區太白里通天路１４１之３號,24.3811855,120.661873,其他運輸工具零件業,自行車零件製造業,,自行車前叉，車架及零件
旭生自行車工業股份有限公司,臺中市大甲區太白里通天路１３９號,24.3811855,120.661873,其他運輸工具零件業,自行車零件製造業,,自行車車架
睿穎電機有限公司,臺中市大甲區太白里通天路１４１之１２號,24.3811855,120.661873,機械設備業,泵、壓縮機、活栓及活閥製造業,,沈水馬達
世万機械工業股份有限公司,臺中市大甲區幸福里長安路安利巷８８號,24.382204100000003,120.66165900000001,汽車及零件業,汽車零件製造業,,五通、輪圈、車架
治水企業股份有限公司,臺中市大甲區孟春里經國路１７５６號,24.378067,120.649658,金屬製品業,金屬結構製造業,,金屬建築結構及組件、金屬線製品製造
旭生自行車工業股份有限公司一廠,臺中市大甲區幸福里長安路安利巷１００號,24.3821926,120.661957,其他運輸工具零件業,自行車零件製造業,,自行車及零件
劉義豐碾米廠,臺中市大甲區太白里通天路１１５號,24.375158300000002,120.658859,食品及飼品業,碾榖業,稻殼,米
劉義豐碾米廠二廠,臺中市大甲區太白里１鄰通天路１１５號,24.37515,120.658905,食品及飼品業,碾榖業,稻穀,糙米
瑩信工業股份有限公司二廠,臺中市大甲區幸福里長安路安利巷９５號,24.3824577,120.66221599999999,其他運輸工具零件業,自行車零件製造業,,自行車及其零件
翔鵬科技股份有限公司,臺中市大甲區幸福里長安路安利巷９５號,24.3824577,120.66221599999999,其他運輸工具零件業,自行車零件製造業,,輪圈加工
一心工業有限公司,臺中市大甲區幸福里東明路１３９號１樓,24.3840218,120.66181200000001,汽車及零件業,汽車零件製造業,,車架、輪圈
鴻安紡織廠股份有限公司,臺中市大甲區太白里通天路５３號,24.3763924,120.66223899999999,紡織業,人造纖維梭織布業,,棉布
一心工業有限公司二廠,臺中市大甲區幸福里東明路１３９之３號,24.383678399999997,120.662994,其他運輸工具零件業,自行車零件製造業,,車架
巨輪工業股份有限公司,臺中市大甲區太白里通天路７８號,24.373064000000003,120.65853100000001,其他運輸工具零件業,自行車零件製造業,,自行車裝配及其零件裝配
創麗機械工業有限公司,臺中市大甲區幸福里東明路１３３號,24.38223,120.66963999999999,機械設備業,流體傳動設備製造業,,空壓機附件、空壓機、乾燥機、氣壓系統零組件、真空泵浦
台灣力母股份有限公司一廠,臺中市大甲區幸福里東明路１４４－１號,24.385192899999996,120.67003600000001,其他運輸工具零件業,未分類其他運輸工具及其零件製造業,,其他運輸工具及其零件
台灣力母股份有限公司,臺中市大甲區幸福里東明路１４４號,24.385642999999998,120.67024199999999,其他運輸工具零件業,未分類其他運輸工具及其零件製造業,,輪椅及其零件
詠祥儀器有限公司大甲分廠,臺中市大甲區幸福里東明路１０５號,24.37718,120.675018,其他製造業,其他醫療器材及用品製造業,,消毒器材及儀器
伸安泰工業股份有限公司東明廠,臺中市大甲區幸福里東明路１４８之２號,24.3844223,120.66578700000001,金屬製品業,其他金屬加工處理業,,金屬加工處理
來大企業有限公司,苗栗縣苑裡鎮玉田里７鄰１０１之３號,24.383071899999997,120.68476100000001,機械設備業,未分類其他專用機械設備製造業,,其他專用機械設備
嵩新工業股份有限公司二廠,苗栗縣苑裡鎮玉田里玉田１１９之５號,24.3805332,120.68804899999999,家具業,金屬家具製造業,,金屬家具：茶幾桌、咖啡桌、置物架、椅子
臺崙實業有限公司,苗栗縣苑裡鎮玉田里７鄰玉田１００之１７號,24.3834171,120.683571,家具業,金屬家具製造業,,活動櫃
阡騏實業有限公司,苗栗縣苑裡鎮玉田里８鄰玉田１１２之２號,24.3775,120.687477,紙漿、紙及紙製品業,瓦楞紙板及紙容器製造業,,瓦楞紙箱製造
茗富金屬有限公司,苗栗縣苑裡鎮玉田里４鄰玉田４７之１號,24.385614399999998,120.688759,金屬製品業,金屬彈簧及線製品製造業,,不銹鋼線、鋼線
日南紡織股份有限公司東明廠,臺中市大甲區幸福里東明路８２之１號,24.3769188,120.67840600000001,紡織業,棉毛紡紗業,,棉紗、人造棉紗、棉混紡紗
菘洋精密工業社,臺中市大安區龜壳里中山南路６６７號１樓,24.3667412,120.586,機械設備業,其他金屬加工用機械設備製造業,,機械零件加工
錠威鞋業有限公司,臺中市大安區龜壳里中山南路７８０號,24.366436,120.586479,皮革毛皮製品業,鞋類製造業,,塑膠鞋底
昇陽實業廠,臺中市大安區龜殼里中山南路６２７、６２９號,24.364683199999998,120.58645600000001,機械設備業,食品、飲料及菸草製作用機械設備製造業,,食品機械
民上機械廠股份有限公司大安廠,臺中市大安區龜殼里中山南路６３１號,24.364683199999998,120.58645600000001,機械設備業,機械傳動設備製造業,,機械零件
力貫科技有限公司,臺中市大安區龜壳里溪洲路２００號,24.364685100000003,120.586731,金屬製品業,金屬建築組件製造業,,防煙垂壁
大明捲門材料有限公司,臺中市大安區龜殼里中山南路６２５號,24.3641014,120.586487,金屬製品業,金屬建築組件製造業,,捲門材料
企柏機械工業股份有限公司,臺中市大安區龜殼里中山南路８２０號,24.369932199999997,120.586548,金屬製品業,金屬刀具及手工具製造業,,機械零組件、高爾夫練習器、傳動元件、汽機車零件
勝煌股份有限公司二廠,臺中市大安區龜壳里溪洲路１３９號,24.3648548,120.5872,金屬製品業,其他金屬加工處理業,,鋼管加工、鑄件加工、鋁框加工
大統不銹鋼捲門有限公司,臺中市大安區龜壳里溪洲路１９１號,24.3645153,120.587051,金屬製品業,金屬建築組件製造業,,不銹鋼捲門材料
欣泰科技有限公司,臺中市大安區龜殼里中山南路７４０巷５號,24.364294100000002,120.586945,金屬製品業,未分類其他金屬製品製造業,,機械銅鐵類
劦資木業有限公司大安廠,臺中市大安區龜壳里中山南路８０２巷１５號,24.3693962,120.587227,木竹製品製造業,合板及組合木材製造業,,纖維板、各類板面塗裝
靖昌科技有限公司,臺中市大安區龜殼里中山南路８０２巷１９號,24.3693333,120.58748600000001,基本金屬業,未分類其他基本金屬製造業,,滑塊加工
群琮工業有限公司一廠,臺中市大安區龜壳里中山南路８０２巷３號,24.3691349,120.58776100000001,機械設備業,紡織、成衣及皮革生產用機械設備製造業,,紡織機械分配板
源瓏實業有限公司,臺中市大安區龜殼里中山南路８０２巷２號,24.3691349,120.58776100000001,家具業,其他非金屬家具製造業,,（昇降桌、椅子、公文櫃、餐桌）家具
騰藝企業股份有限公司,臺中市大安區龜壳里溪洲路１７６號,24.3655872,120.588104,其他運輸工具零件業,自行車零件製造業,,套筒組
展曳車體有限公司二廠,臺中市大安區龜殼里龜殼路２００之８號,24.361063,120.584457,汽車及零件業,車體製造業,,半拖車
崧佑工業有限公司大安廠,臺中市大安區海墘里東西九路２４３號,24.37304,120.58681499999999,塑膠製品業,其他塑膠製品製造業,,塑膠
崧佑工業有限公司一廠,臺中市大安區海墘里東西九路２４３號,24.37304,120.58681499999999,塑膠製品業,其他塑膠製品製造業,,塑膠
一全工業股份有限公司,臺中市大安區海墘里東西九路２６８號,24.373455,120.58649399999999,塑膠製品業,其他塑膠製品製造業,,塑膠製品
佳鴻醫療儀器廠有限公司,臺中市大安區西安里南北八路５７巷３８號,24.370266,120.59358999999999,其他製造業,其他醫療器材及用品製造業,,醫療器材
勝煌股份有限公司,臺中市大安區龜壳里溪洲路１００號,24.36259,120.594025,金屬製品業,其他金屬加工處理業,,鋼管加工、鑄件加工、鋁框加工
正桓工業有限公司三廠,臺中市大安區西安里東西八路二段１２２號,24.3721218,120.59768700000001,金屬製品業,未分類其他金屬製品製造業,,機械模具、玻璃、玻璃製品
正桓工業有限公司二廠,臺中市大安區西安里東西八路二段１１６號,24.3723278,120.59796100000001,非金屬礦物製品業,石材製品製造業,,機械模具、玻璃、玻璃製品
千志精密工業有限公司,臺中市大安區西安里大安港路８３０號,24.37128,120.600342,機械設備業,其他金屬加工用機械設備製造業,,機械另件加工
欣誠機械工業股份有限公司,臺中市大安區西安里大安港路８４９號,24.3717155,120.60001399999999,機械設備業,其他通用機械設備製造業,,機械零件加工、製造
聯利塑膠廠,臺中市大安區西安里東西八路二段７２號,24.3712883,120.60118100000001,塑膠製品業,塑膠膜袋製造業,,塑膠袋
巨展精密有限公司,臺中市大安區松雅里大安港路６８８號,24.3642712,120.602531,機械設備業,金屬切削工具機製造業,,ＣＮＣ車床
玉聖實業有限公司,臺中市大安區松雅里大安港路６７２號,24.3633785,120.601952,成衣及服飾品業,服飾品製造業,,紡織品，服飾品，皮革、毛皮及其製品
達展科技股份有限公司,臺中市大安區西安里大安港路７９８號,24.3694324,120.6028,機械設備業,其他金屬加工用機械設備製造業,,其他未分類專用機械設備製造
碁特國際股份有限公司,臺中市大安區西安里大安港路７９８號,24.3694324,120.6028,機械設備業,其他通用機械設備製造業,,內藏式主軸
群美商標股份有限公司,臺中市大安區龜壳里溪洲路４０號,24.3608074,120.5978,塑膠製品業,其他塑膠製品製造業,,商標、塑膠射出加工
寶保實業有限公司,臺中市大安區西安里大安港路６６７號,24.3631039,120.60202,紡織業,染整業,,染整加工
欣和塑膠工業有限公司,臺中市大安區龜壳里溪洲路２９號,24.3605843,120.59805300000001,塑膠製品業,塑膠皮、板及管材製造業,,各種塑膠加工
凱睿企業社,臺中市大安區西安里東西八路二段５６號１樓,24.371067,120.602478,金屬製品業,金屬模具製造業,,其他金屬製品，金屬加工用機械設備，通用機械設備
協盛紡織有限公司,臺中市大安區松雅里大安港路６５５號,24.3627777,120.60268400000001,紡織業,其他紡織品製造業,,天撚紗
利文塑膠織造股份有限公司,臺中市大安區松雅里大安港路６５３號,24.362613699999997,120.60268400000001,塑膠製品業,其他塑膠製品製造業,,遮光網
柏凱精密工業有限公司,臺中市大安區龜壳里溪洲路３１號,24.3595829,120.59845,金屬製品業,未分類其他金屬製品製造業,,機械、鋼鐵
丞銀科技股份有限公司,臺中市大安區西安里東西八路二段３９之１號１樓,24.3703957,120.60453799999999,金屬製品業,螺絲、螺帽及鉚釘製造業,,螺絲．螺帽．及鉚釘製造
至翔工業有限公司二廠,臺中市大安區西安里東西八路二段１８號,24.36946,120.6122,機械設備業,輸送機械設備製造業,,輸送機
耿勝工業有限公司,臺中市大安區西安里東西九路５３號１樓,24.366737399999998,120.607727,機械設備業,未分類其他專用機械設備製造業,,破碎機、粉碎機、抓碎機
嘉億織造廠,臺中市大甲區德化里南北四路６號,24.3645363,120.61761499999999,紡織業,其他紡織品製造業,,棉紗帶、尼龍帶，彩色帶，包邊帶
聯今鋼鐵有限公司大甲廠,臺中市大甲區德化里東西七路一段４０５號,24.3708,120.616776,金屬製品業,未分類其他金屬製品製造業,,萬能角鋼、倉儲架
加寶工業股份有限公司,臺中市大甲區德化里東西八路一段３３７巷５號,24.366117499999998,120.619514,其他運輸工具零件業,自行車零件製造業,,自行車及其零件
祥杰順科技股份有限公司,臺中市大甲區德化里東西八路一段３３７巷１號,24.3670464,120.61968200000001,其他運輸工具零件業,自行車零件製造業,,腳踏車車架噴烤漆加工
鉿豐鋼模股份有限公司,臺中市大甲區德化里南北四路２９８巷３號,24.370160000000002,120.619331,金屬製品業,金屬模具製造業,,模具
黑芙尼有限公司,臺中市大甲區德化里南北四路２９６號,24.3703938,120.61936200000001,其他運輸工具零件業,自行車零件製造業,,金屬手工具及模具、３１３自行車及其零件
基鈿工業股份有限公司,臺中市大甲區江南里東西八路一段１０９、１１１號,24.3660374,120.62552600000001,機械設備業,未分類其他專用機械設備製造業,,其他專用機械設備
利盛紙業股份有限公司,臺中市大甲區德化里東西八路一段３２０號,24.366857500000002,120.623962,紙漿、紙及紙製品業,瓦楞紙板及紙容器製造業,,紙箱，紙盒
溥源電機股份有限公司,臺中市大甲區江南里東西七路一段３１０號,24.36921,120.626236,機械設備業,其他金屬加工用機械設備製造業,,專用生產機械、電力機械器材
財進電機股份有限公司溥源廠,臺中市大甲區江南里東西七路３１２號,24.36952,120.625992,機械設備業,其他通用機械設備製造業,,變壓器、減速機
鎧偉機械工業股份有限公司,臺中市大甲區江南里南北三路２６０號,24.37036,120.62544299999999,金屬製品業,金屬刀具及手工具製造業,,金屬手工具
崧賀工業有限公司,臺中市大甲區江南里南北二路６號,24.3657761,120.6299,金屬製品業,金屬彈簧及線製品製造業,,鋼線框（皮包箱用）
新武國際企業有限公司,臺中市大甲區江南里南北二路１２號,24.36891,120.63049299999999,電力設備業,電線及電纜製造業,,保溫線、耐熱線
穎利股份有限公司,臺中市大甲區德化里農安路１６６巷３號,24.3620968,120.626465,金屬製品業,金屬模具製造業,,模具，五金零件
金佑工業股份有限公司分廠,臺中市大甲區德化里和平路４３３號,24.362308499999997,120.624458,其他運輸工具零件業,自行車零件製造業,,其他金屬製品、汽車及其零件、機車及其零件、自行車及其零件
永安欣業有限公司二廠,臺中市大甲區德化里東西六路一段２８５號,24.371883399999998,120.626907,金屬製品業,金屬建築組件製造業,,建築零件
勇安國際有限公司,臺中市大甲區德化里７鄰東西六路一段３６０號,24.371883399999998,120.626907,金屬製品業,金屬結構製造業,,五金零件加工
王記農產品實業有限公司,臺中市大甲區德化里東西八路一段３９８巷３２號,24.368389999999998,120.620857,食品及飼品業,蔬果加工及保藏業,,土雞、土鵝、雞腳、肉雞
大軫工業股份有限公司分廠,臺中市大甲區德化里和平路４２９號,24.362146399999997,120.62442,其他運輸工具零件業,自行車零件製造業,,自行車零件、套管、惰輪軸、鐵管
永進興不銹鋼有限公司,臺中市大甲區奉化里賢仁路１１１號,24.3620415,120.623627,金屬製品業,其他金屬加工處理業,,鋼鐵片（管）
巨易機械工業有限公司,臺中市大甲區江南里東西八路一段１２５號,24.3645763,120.632149,機械設備業,未分類其他專用機械設備製造業,,機械零件組件
協豐碾米工廠,臺中市大甲區德化里農安路２００號,24.361383399999998,120.62336,食品及飼品業,碾榖業,,白米，糙米
奧立璞企業股份有限公司,臺中市大甲區江南里東西八路一段１４０號,24.364931100000003,120.632484,塑膠製品業,其他塑膠製品製造業,,ＰＥ板
龍昜有限公司二廠,臺中市大甲區江南里東西六路一段２１６號,24.3710384,120.63171399999999,其他運輸工具零件業,自行車零件製造業,,腳踏車零件
標緻印刷廠,臺中市大甲區江南里東西六路一段２１２號,24.3709965,120.6319,印刷及儲存媒體複製業,印刷業,,印刷
大和好鋁門窗有限公司,臺中市大甲區江南里東西七路一段１６６巷３號１樓,24.367834100000003,120.633629,金屬製品業,金屬建築組件製造業,,鋁門窗
梅豐企業有限公司,臺中市大甲區江南里東西八路一段１１３號,24.3643341,120.633125,機械設備業,污染防治設備製造業,,豎橫式送風機、鐵柵、集塵器
開麗金屬股份有限公司,臺中市大甲區江南里東西八路一段９９號,24.3643265,120.633453,金屬製品業,金屬建築組件製造業,,五金加工
容翊醬園有限公司,臺中市大甲區江南里東西八路一段１２２號,24.365507100000002,120.634148,食品及飼品業,蔬果加工及保藏業,,蔬果處理及其製品
甲隆鋼鐵股份有限公司二廠,臺中市大甲區江南里東西八路一段９３號,24.3641052,120.63410900000001,金屬製品業,未分類其他金屬製品製造業,,其他金屬模具製造
甲隆鋼鐵股份有限公司,臺中市大甲區江南里東西八路一段８９號,24.3642712,120.63436100000001,金屬製品業,未分類其他金屬製品製造業,,各種機械之耐磨鋼、不銹鋼合金鋼
立昂車業股份有限公司二廠,臺中市大甲區江南里東西七路一段２０巷７號,24.3671055,120.64079299999999,其他運輸工具零件業,自行車零件製造業,,運動器材、車手、車架、前叉
育華工業股份有限公司,臺中市大甲區江南里５鄰東西七路一段５０號,24.366518,120.63933600000001,其他運輸工具零件業,自行車製造業,,自行車及其零件
偉晟工業股份有限公司,臺中市大甲區頂店里中山路一段１６３０之２號,24.365205800000002,120.642296,其他運輸工具零件業,自行車零件製造業,,自行車車架，前叉，自動焊接機
宏美塑膠工業社,臺中市大甲區頂店里東西七路一段６１巷３號,24.3658867,120.63833600000001,塑膠製品業,塑膠皮、板及管材製造業,,皮革裁切
鑫億合股份有限公司,臺中市大甲區頂店里中山路一段１６０６號,24.3643951,120.641121,其他運輸工具零件業,自行車零件製造業,,自行車零件製造、停車片、貨架止、鋼材二次
鈺達工業股份有限公司工廠,臺中市大甲區頂店里南北一路１０８巷１２號,24.3656845,120.63834399999999,家具業,金屬家具製造業,,金屬家具及裝設品、其他金屬製品、自行車及其零件、育樂用品
僑南有限公司,臺中市大甲區頂店里東西七路一段６３號,24.366310000000002,120.63771799999999,家具業,金屬家具製造業,,金屬家具及裝設品
鈺達精密有限公司,臺中市大甲區頂店里南北一路１０８巷１０號,24.36543,120.638107,金屬製品業,金屬模具製造業,,模具制造、瓦斯器材及零件制造、金屬制造
矽鼎科技有限公司,臺中市大甲區頂店里南北一路１０８巷９號,24.365428899999998,120.6381,非金屬礦物製品業,石材製品製造業,,石材製品
久醇食品有限公司,臺中市大甲區頂店里南北一路１０８巷６號,24.367185600000003,120.63730600000001,食品及飼品業,未分類其他食品製造業,,荼葉，茶飲料，咖啡，咖啡飲料，冰品，果糖，食用糖蜜，牛軋糖，糖果，甜點，月餅，餅乾，鳯朵酥，穀製零食，米製零食，麻糬，麵包，蛋糕，鬆餅，布丁
羅得化學製藥股份有限公司,臺中市大甲區頂店里東西七路一段６５號,24.3663921,120.63731399999999,藥品及醫用化學品業,西藥製造業,,西藥
俐巃實業有限公司,臺中市大甲區頂店里東西七路一段６７號,24.3663921,120.63731399999999,機械設備業,食品、飲料及菸草製作用機械設備製造業,,食品飲料機械
根順股份有限公司,臺中市大甲區頂店里東西八路一段１６巷１２號,24.3645744,120.638374,機械設備業,其他通用機械設備製造業,,鑄件
冠登企業社,臺中市大甲區江南里東西七路一段９２號,24.3670158,120.6372,其他製造業,其他醫療器材及用品製造業,,醫療器材、運動器材、機械五金
鏘協興業股份有限公司,臺中市大甲區江南里南北一路１３２號１樓,24.3670712,120.636749,機械設備業,其他通用機械設備製造業,,碳纖管
妙峰科技有限公司,臺中市大甲區江南里南北一路１３２號１樓,24.3670712,120.636749,金屬製品業,未分類其他金屬製品製造業,,金屬製品
永安欣業有限公司,臺中市大甲區頂店里南北一路１０２號,24.3655357,120.636604,金屬製品業,金屬建築組件製造業,,金屬手工業
展輝環保科技有限公司,臺中市大甲區頂店里南北一路１０６號,24.3655357,120.636604,塑膠製品業,其他塑膠製品製造業,,未分類其他塑膠製品製造
世馥工業有限公司,臺中市大甲區頂店里南北一路１０８巷８號,24.364618300000004,120.63703899999999,金屬製品業,未分類其他金屬製品製造業,,零件加工
維格工業股份有限公司大甲廠,臺中市大甲區頂店里南北一路２之１０號,24.364618300000004,120.63703899999999,其他運輸工具零件業,自行車零件製造業,,自行車（前叉，車架，腳踏）
慶霖工業股份有限公司,臺中市大甲區頂店里南北一路２之１８號,24.364618300000004,120.63703899999999,金屬製品業,金屬模具製造業,,碳化鎢、模具
瑩達精密工業股份有限公司,臺中市大甲區頂店里南北一路２之１９號,24.364618300000004,120.63703899999999,機械設備業,金屬切削工具機製造業,,模具
至翔工業有限公司一廠,臺中市大甲區江南里東西八路一段１１７號,24.364618300000004,120.63703899999999,機械設備業,輸送機械設備製造業,,輸送機
楊得石材股份有限公司,臺中市大甲區南北一路３之１２號,24.364618300000004,120.63703899999999,非金屬礦物製品業,石材製品製造業,,大理石材製品
六磊實業股份有限公司一廠,臺中市大甲區江南里中山路一段１６３４之１號,24.367431600000003,120.645432,非金屬礦物製品業,石材製品製造業,砂石,砂石、碎石
健麟企業有限公司,臺中市大甲區頂店里經國路１５１１號,24.3630714,120.638512,石油及煤製品業,石油及煤製品製造業,,潤滑油
野寶科技股份有限公司頂店廠,臺中市大甲區頂店里南北一路１００號,24.3651428,120.63633,其他運輸工具零件業,自行車零件製造業,,自行車車架、避震器、避震前叉、折疊自行車
益鏈實業有限公司,臺中市大甲區江南里南北一路１０５號,24.365922899999997,120.635773,其他製造業,拉鍊及鈕扣製造業,,塑膠拉鏈
通用化學鞋業股份有限公司,臺中市大甲區頂店里東西八路一段６８號,24.3640766,120.636032,皮革毛皮製品業,鞋類製造業,,皮鞋、化學鞋、手提箱、旅行袋
孜豐科技股份有限公司,臺中市大甲區頂店里經國路１５０１號,24.3626766,120.6374,塑膠製品業,塑膠皮、板及管材製造業,,壓克力
孜豐科技股份有限公司大甲二廠,臺中市大甲區頂店里經國路１４９７號,24.3626728,120.637405,塑膠製品業,塑膠皮、板及管材製造業,,壓克力
益鏈實業有限公司分廠,臺中市大甲區江南里南北一路２７號,24.3708954,120.635529,其他製造業,拉鍊及鈕扣製造業,,各種拉鏈、塑橡膠製品加工
歐俞科技股份有限公司分廠,臺中市大甲區太白里通天路２４號,24.3700161,120.67138700000001,機械設備業,電子及半導體生產用機械設備製造業,,機械組立、加工、設計
祈星實業股份有限公司,臺中市大甲區太白里通天路４號,24.3643379,120.684448,塑膠製品業,其他塑膠製品製造業,,塑膠容器
宏昇水泥製品股份有限公司,臺中市大甲區太白里通天路１２號,24.3660126,120.67941299999998,非金屬礦物製品業,水泥及混凝土製品製造業,,各種水泥製品（人孔、手孔、管路隔離板）
志昆實業有限公司,臺中市大甲區太白里通天路８號,24.369934100000002,120.67929099999999,非金屬礦物製品業,石材製品製造業,,砂石
向陽機械有限公司,苗栗縣苑裡鎮上館里５鄰上館８６之２號,24.367437399999996,120.703751,機械設備業,食品、飲料及菸草製作用機械設備製造業,,食品機械零件
得營砂石實業有限公司,苗栗縣苑裡鎮火炎山段７１０、７１１、７１２、７１３、７１４、７１５、７１６、７１７地號及火炎山段７０５、７０６、７０７地號部分使用,24.3641338,120.703773,非金屬礦物製品業,未分類其他非金屬礦物製品製造業,,砂石
德泰糧食商行,苗栗縣苑裡鎮上館里８鄰上館１７０之２號,24.3732224,120.69958500000001,食品及飼品業,碾榖業,,代客稻谷烘乾、買賣業務、農產品買賣
傑恩聚開發股份有限公司,苗栗縣苑裡鎮上館里９鄰上館１８０之２號１樓,24.3728924,120.697151,食品及飼品業,未分類其他食品製造業,,其他食品
弘田機械有限公司,苗栗縣苑裡鎮上館里２鄰上館３９號,24.3637753,120.70587900000001,機械設備業,電子及半導體生產用機械設備製造業,,電子機械加工、工作母機零件加工
永鋒鐵材行,苗栗縣苑裡鎮上館里３５之３號,24.36337,120.70631399999999,金屬製品業,金屬結構製造業,,金屬結構及建築組件
文揚實業社,苗栗縣苑裡鎮上館里６３之３號,24.3720055,120.708046,金屬製品業,金屬彈簧及線製品製造業,,鐵籃
名格捲門有限公司,臺中市大安區南庄里南海路２３號,24.350206399999998,120.57508100000001,金屬製品業,金屬建築組件製造業,,金屬門窗
旺鑫工業股份有限公司宏原廠,臺中市大安區南庄里南海路１５號,24.35001,120.575073,皮革毛皮製品業,行李箱及手提袋製造業,,皮箱，皮包，旅行袋，書包
新雅塑膠實業有限公司,臺中市大安區南庄里南海路１７號,24.35001,120.575073,皮革毛皮製品業,行李箱及手提袋製造業,,旅行袋，旅行箱，公文包
旺鑫工業股份有限公司,臺中市大安區中庄里７鄰中山南路５６７號,24.3534,120.58429,皮革毛皮製品業,行李箱及手提袋製造業,,皮箱、皮包、旅行袋、書包
永泰企業社,臺中市大安區中庄里中山南路４４１號,24.349853500000002,120.58416000000001,機械設備業,農用及林用機械設備製造業,,鐵材加工品（五金零件）
景祺機械工業有限公司,臺中市大安區中庄里南海路１０４巷３１號,24.35407,120.577026,金屬製品業,未分類其他金屬製品製造業,,機械零組件
益銓機械有限公司二廠,臺中市大安區中庄里中山南路４１３巷２２號,24.348129999999998,120.583183,機械設備業,金屬切削工具機製造業,,金屬用銑床
臺中市大安區農會碾米工廠,臺中市大安區中庄里中松路９１、９３號,24.349977499999998,120.589661,食品及飼品業,碾榖業,,糧食加工、稻穀、糙米
臺中市大安區農會肉品加工廠,臺中市大安區中庄里中松路９３號,24.349977499999998,120.589661,食品及飼品業,肉類其他加工及保藏業,,安農葡萄酒香腸
成航科技有限公司,臺中市大安區中庄里中松路６４號１樓,24.3474865,120.58766200000001,金屬製品業,未分類其他金屬製品製造業,,滑塊鑽孔、倒角
雅喬生化科技股份有限公司分廠,臺中市大安區中庄里埔頭路４３號,24.354961399999997,120.59041599999999,化學製品業,清潔用品及化粧品製造業,,化粧品
棋勝工業股份有限公司,臺中市大安區福興里中松路１９９號,24.352829999999997,120.596672,機械設備業,其他通用機械設備製造業,,機械、零件
慶安工業社,臺中市大安區福興里中松路２３１號,24.353158999999998,120.597282,其他運輸工具零件業,自行車零件製造業,,自行車零件加工、樂器零件加工
清隆工業有限公司,臺中市大安區福興里中松路２０８號,24.353117,120.597427,金屬製品業,金屬模具製造業,,模具
三主興興業股份有限公司,臺中市大安區福興里中松路２５５號,24.3538227,120.597458,機械設備業,其他通用機械設備製造業,,機械、零件
三主鋒興業股份有限公司,臺中市大安區福興里中松路２５１號,24.3535576,120.59758000000001,機械設備業,其他通用機械設備製造業,,機械、零件
泳展新有限公司,臺中市大安區龜壳里中松路２７３之１號,24.354845,120.59848799999999,其他運輸工具零件業,自行車零件製造業,,自行車把手及前叉
泳富豪有限公司,臺中市大安區龜壳里中松路２７３號,24.354845,120.59848799999999,其他運輸工具零件業,自行車零件製造業,,防傾桿、前叉管、車把手
利欣隆生醫科技有限公司,臺中市大安區福興里中松路１６９之１號,24.352031699999998,120.594315,化學製品業,清潔用品及化粧品製造業,,清潔用品
銓閎工業有限公司福安廠,臺中市大安區福興里龜殼路２９號,24.353756,120.599434,其他運輸工具零件業,自行車零件製造業,,機械，腳踏車，五金零件
日烽工業股份有限公司,臺中市大安區福興里龜殼路６５號,24.356142000000002,120.5959,機械設備業,輸送機械設備製造業,,五金零件、天車
益銓機械有限公司,臺中市大安區福興里中松路１６８巷１１號１樓,24.3504086,120.59494,機械設備業,金屬切削工具機製造業,,金屬用銑床
彥統電機有限公司,臺中市大安區龜壳里龜殼路１００巷２０號,24.3577442,120.596046,電力設備業,發電、輸電及配電機械製造業,,馬達、馬達另件
利欣隆生醫科技有限公司二廠,臺中市大安區中庄里中松路１３６巷２９號,24.35065,120.59238400000001,化學製品業,清潔用品及化粧品製造業,,清潔用品、化妝品
緯林國際股份有限公司二廠,臺中市大安區中庄里埔頭路４５號,24.35298,120.590874,化學製品業,清潔用品及化粧品製造業,,化粧品、口紅
浚福企業社二廠,臺中市大安區福興里７鄰福安路６９號,24.3501129,120.602318,金屬製品業,金屬建築組件製造業,,鋁門窗
森美商標股份有限公司,臺中市大安區龜殼里溪洲路１３巷６號,24.35877,120.600105,紡織業,其他紡織品製造業,,各種商標織造加工
東元捲門事業股份有限公司大安廠,臺中市大安區中庄里埔頭路７０號,24.35764,120.590523,金屬製品業,金屬建築組件製造業,,電動捲門窗、昇降機、遙控防火器
益川實業社,臺中市大安區福興里福安路９９巷５６號,24.34647,120.597778,金屬製品業,未分類其他金屬製品製造業,,腳踏車零件
臺中市大安區農會農產品加工廠,臺中市大安區中庄里中松路９２之１號,24.3498459,120.589874,食品及飼品業,碾榖業,,其他食品
臺中市大安區農會製酒廠,臺中市大安區中庄里中松路９２之１號,24.3498459,120.589874,飲料業,其他酒精飲料製造業,,九降風、觀海紅酒、芋燒酎、薯燒酎
鉅緯企業有限公司,臺中市大安區龜壳里溪洲莊５０號,24.3499737,120.60363799999999,皮革毛皮製品業,行李箱及手提袋製造業,,塑膠旅行箱，袋，皮包
仕偉精密鑄造有限公司,臺中市大安區福興里興安路１８５號,24.34564,120.59668,家具業,金屬家具製造業,,家具及裝設品製業、機械設備製造
永荃塑膠股份有限公司大甲廠,臺中市大甲區庄美里大安港路２４１號,24.3536358,120.611107,塑膠製品業,其他塑膠製品製造業,,塑膠製品、膠柄、手把、套片
侑圓科技股份有限公司工廠,臺中市大甲區武曲里大安港路２２１號,24.3533974,120.61186200000002,其他運輸工具零件業,自行車零件製造業,,自行車零件
浚福企業社,臺中市大甲區武曲里大安港路２５６號,24.353952399999997,120.611488,金屬製品業,金屬建築組件製造業,,鋁門窗
駿澧企業有限公司,臺中市大甲區庄美里大安港路２１７號,24.3531742,120.611984,金屬製品業,其他金屬加工處理業,,白鐵板、黑鐵板
僑鼎企業社,臺中市大甲區武曲里大安港路２１８之３號,24.353502300000002,120.61211399999999,機械設備業,機械傳動設備製造業,,軸承
日鑫門股份有限公司大甲廠,臺中市大甲區武曲里大安港路２９８號,24.35446,120.61088600000001,金屬製品業,金屬建築組件製造業,,門、窗
合森電機實業股份有限公司二廠,臺中市大甲區武曲里大安港路２３８、２３８之１號,24.3545189,120.61215200000001,電力設備業,其他家用電器製造業,,直交流馬達，電扇排風機吸油機，通風機，吹
日登國際有限公司,臺中市大甲區武曲里大安港路２２２之５號,24.3537617,120.61286899999999,金屬製品業,金屬建築組件製造業,,鋁梯
宇慶化工股份有限公司大甲廠,臺中市大甲區武曲里大安港路３２１之１號,24.354576100000003,120.6102,化學製品業,農藥及環境用藥製造業,,尿劑、環境衛生用藥
宇慶化工股份有限公司第二廠,臺中市大甲區武曲里大安港路３２１之３號１樓,24.354576100000003,120.6102,化學製品業,農藥及環境用藥製造業,,環境衛生用藥、醫療器材及設備
冠泓機械有限公司,臺中市大甲區庄美里大安港路１７３巷１７號１樓,24.352085100000004,120.612305,金屬製品業,其他金屬加工處理業,,其他金屬加工處理
久東實業股份有限公司,臺中市大甲區武曲里大安港路２２２之１０號,24.3541374,120.61313600000001,其他運輸工具零件業,自行車零件製造業,,自行車車架，自行車前叉
隆水工業有限公司,臺中市大甲區武曲里大安港路１７６號,24.3525639,120.613174,皮革毛皮製品業,行李箱及手提袋製造業,,旅行袋，旅行箱，公文包，書包
台灣松浦機械股份有限公司,臺中市大甲區武曲里大安港路２０８號１樓,24.3533325,120.61343400000001,機械設備業,其他通用機械設備製造業,,主軸
台灣喜基雅精機股份有限公司,臺中市大甲區武曲里大安港路２０８號１樓,24.3533325,120.61343400000001,機械設備業,金屬切削工具機製造業,,ＣＮＣ精密外圓磨床
三和塑膠工業股份有限公司,臺中市大甲區武曲里大安港路２０８號２樓,24.3533325,120.61343400000001,塑膠製品業,其他塑膠製品製造業,,手提袋、旅行箱、西裝套
瑪莎拉食品有限公司,臺中市大甲區武曲里大安港路３２１之５號１樓,24.354689999999998,120.60965700000001,食品及飼品業,烘焙炊蒸食品製造業,,餅乾
南興化工製藥股份有限公司臘燭廠,臺中市大甲區武曲里大安港３２１之２號,24.355052899999997,120.609848,化學製品業,農藥及環境用藥製造業,,藥品〈環境衛生用藥〉
汐茂材料科技有限公司,臺中市大甲區武曲里大安港路１６４號,24.35238,120.61343400000001,化學材料業,化學原材料製造業,,其他石油化工原料
萬得福牙材有限公司,臺中市大甲區大安港路１５６號１樓,24.3520889,120.613724,其他製造業,其他醫療器材及用品製造業,,其他醫用化學製品（口腔Ｘ光照射平行裝置）
三和塑膠工業股份有限公司第三廠,臺中市大甲區武曲里大安港路１１６巷１３號,24.352582899999998,120.614372,塑膠製品業,其他塑膠製品製造業,,手提袋、雨帆、旅行箱、書包、雨衣
台灣筆業股份有限公司,臺中市大甲區武曲里大安港路１１６巷１３號２樓,24.352582899999998,120.614372,其他製造業,文具製造業,,育樂用品
美盈生醫股份有限公司,臺中市大甲區武曲里大安港路１１６巷１８號１樓,24.352708800000002,120.61464699999999,化學製品業,清潔用品及化粧品製造業,,化粧品
一成興業有限公司,臺中市大甲區武曲里大安港路１１６巷１９號,24.352708800000002,120.61464699999999,塑膠製品業,塑膠外殼及配件製造業,,工業用塑膠製品
明昌科技實業社,臺中市大甲區庄美里興安路１３８之２３６號１樓,24.3504,120.610611,機械設備業,其他通用機械設備製造業,,零件加工
金陽塑膠廠二廠,臺中市大甲區武曲里大安港路１５４號,24.352224300000003,120.614471,塑膠製品業,塑膠膜袋製造業,,塑膠袋
讚成工業社,臺中市大甲區武曲里大安港路１１６巷２１號,24.3527451,120.61466200000001,機械設備業,食品、飲料及菸草製作用機械設備製造業,,食品機械
明聖塑膠企業有限公司,臺中市大甲區武曲里大安港路１１６巷１１號,24.3523083,120.61453200000001,塑膠製品業,其他塑膠製品製造業,,管條
鎰鏈工業有限公司,臺中市大甲區武曲里大安港路１１６巷９號,24.3523083,120.61453200000001,金屬製品業,金屬模具製造業,,打臺模、模具加工
創新服務股份有限公司,臺中市大甲區武曲里大安港路１１６巷１０號２、３樓,24.3523083,120.61453200000001,電腦電子及光學品業,量測、導航及控制設備製造業,,自動化設備
鉅暉工業有限公司,臺中市大甲區武曲里大安港路１１６巷２３號,24.3528118,120.6147,塑膠製品業,其他塑膠製品製造業,,塑膠製品
塔卡菓子烘焙有限公司,臺中市大甲區庄美里興安路１４２之９號,24.3504238,120.610382,食品及飼品業,烘焙炊蒸食品製造業,,烘焙品
吉翁企業有限公司台中廠,臺中市大甲區武曲里大安港路１１６巷１３號１樓,24.3525848,120.61466200000001,金屬製品業,未分類其他金屬製品製造業,,鋼管鷹架
京都電梯配件股份有限公司,臺中市大甲區武曲里大安港路３５３號,24.355783499999998,120.60898600000002,機械設備業,輸送機械設備製造業,,電梯
尚承興業有限公司,臺中市大甲區庄美里興安路１３８－１５７號１樓,24.3504753,120.612541,其他運輸工具零件業,自行車零件製造業,,自行零件、運動器材配件
正東機械工業有限公司,臺中市大甲區武曲里大安港路１１６巷２５號１樓,24.3528919,120.614746,金屬製品業,未分類其他金屬製品製造業,,金屬製品
頂安工業有限公司,臺中市大甲區武曲里大安港路１１６巷１６號１樓,24.352457,120.61466200000001,金屬製品業,金屬刀具及手工具製造業,,自行車零件製造加工
永大車業有限公司,臺中市大甲區武曲里大安港路１１６巷２８號１樓,24.3529949,120.61483,其他運輸工具零件業,自行車零件製造業,,腳踏車零件
巨群發展股份有限公司,臺中市大甲區武曲里大安港路４１０巷５號,24.356245,120.60955,電腦電子及光學品業,其他電腦週邊設備製造業,,自行車零件、電腦墊
三揚工業社,臺中市大甲區武曲里大安港路１１６巷３１號,24.3531017,120.614876,皮革毛皮製品業,行李箱及手提袋製造業,,皮革、其他材料
程源塑膠有限公司大甲廠,臺中市大甲區武曲里大安港路１１６巷８號１樓,24.3519878,120.614639,塑膠製品業,塑膠外殼及配件製造業,,工業用塑膠製品
偉新工業社,臺中市大甲區武曲里大安港路１１６巷３８號,24.3533573,120.61502800000001,機械設備業,其他通用機械設備製造業,,各種機械及其零件，機械五金
永祥鋁門加工廠,臺中市大甲區武曲里大安港路１１６巷６號,24.35183,120.6146,金屬製品業,金屬建築組件製造業,,成品鋁門，成品鋁窗
三寶印刷有限公司,臺中市大甲區武曲里大安港路１１６巷１號,24.351646399999996,120.614525,印刷及儲存媒體複製業,印刷業,,說明書、貼紙、自粘標
台金精密有限公司,臺中市大甲區庄美里興安路１３８－２６２號１樓,24.3500214,120.61089299999999,機械設備業,其他通用機械設備製造業,,ＣＮＣ零件加工
鐘毅型鋼實業股份有限公司分廠,臺中市大甲區庄美里大安港路１３９之１號,24.3512077,120.614449,金屬製品業,金屬結構製造業,,Ｈ型鋼，鋼鐵架，輕型鋼
大榮建築鋼架股份有限公司,臺中市大甲區庄美里大安港路１３９號,24.3512077,120.614449,金屬製品業,金屬結構製造業,,鋼鐵架、鋼骨
利肯化工實業有限公司,臺中市大甲區庄美里大安港路１４１之５號,24.3512077,120.614449,化學製品業,清潔用品及化粧品製造業,,洗面皂，營養面霜（乳劑），口紅
羅馥生物科技股份有限公司,臺中市大甲區庄美里大安港路１４１之６號,24.3512077,120.614449,化學製品業,清潔用品及化粧品製造業,,化妝品
金鼎鋼製傢俱工廠,臺中市大甲區武曲里橫圳街３１３號,24.357147199999996,120.611488,家具業,金屬家具製造業,,各種鐵櫃家具
昇鋕工業有限公司,臺中市大甲區武曲里大安港路１１６巷４３號,24.35345,120.6154,塑膠製品業,其他塑膠製品製造業,,保利龍
維樂工業股份有限公司二廠,臺中市大甲區武曲里大安港路４１２號,24.3564854,120.60891699999999,其他運輸工具零件業,自行車零件製造業,,自行車零件，運動墊
千翔織帶工業社,臺中市大甲區武曲里新政路３５６號,24.3516388,120.61496000000001,紡織業,其他紡織品製造業,,塑膠織帶
宏吉鐵工廠,臺中市大甲區武曲里大安港路９８號,24.3514862,120.61486799999999,金屬製品業,金屬建築組件製造業,,鐵
新城精密工業股份有限公司,臺中市大甲區庄美里大安港路１３７巷２、４２號,24.350441,120.613876,基本金屬業,鋼鐵鑄造業,,合金鋼零件，機械零件，汽車零件
穗陽機械有限公司,臺中市大甲區庄美里大安港路１３７巷３８、４０號,24.350441,120.613876,機械設備業,泵、壓縮機、活栓及活閥製造業,,各種閥門，管件，配管零件，機械零件，五金
久旻實業有限公司,臺中市大甲區庄美里興安路１３８－１３８號１樓,24.350029,120.61322,其他運輸工具零件業,自行車零件製造業,,汽機車零件、五金材料
達豐工業社,臺中市大甲區庄美里興安路１３８之５７號１樓,24.349610000000002,120.61158799999998,機械設備業,其他通用機械設備製造業,,零件加工
永昌藥品股份有限公司工廠,臺中市大甲區庄美里興安路１４８號,24.349638,120.61048899999999,藥品及醫用化學品業,西藥製造業,,粉、顆粒、糖衣錠、膠囊、軟膏
泰順工業股份有限公司,臺中市大甲區庄美里興安路１３８－１４５號１樓,24.34974,120.612953,金屬製品業,未分類其他金屬製品製造業,,金屬零件加工
倢快工業有限公司,臺中市大甲區庄美里興安路１３８之２５３號１樓,24.349520000000002,120.610046,金屬製品業,未分類其他金屬製品製造業,,焊接加工
建誼工業股份有限公司,臺中市大甲區武曲里橫圳街８９號,24.3539639,120.61586000000001,塑膠製品業,塑膠皮、板及管材製造業,,塑膠條
偉鼎工業股份有限公司,臺中市大甲區武曲里橫圳街１２７號,24.3547935,120.61579099999999,皮革毛皮製品業,行李箱及手提袋製造業,,運動器具袋、手提袋，旅行箱
卜威工業股份有限公司新政廠,臺中市大甲區庄美里新政路４８２號,24.34941,120.613129,其他運輸工具零件業,機車零件製造業,,自行車車架前叉
唯盛食品股份有限公司,臺中市大甲區武曲里新政路３２６巷２號,24.352827100000003,120.61608899999999,食品及飼品業,肉類其他加工及保藏業,,肉乾
建隆精機股份有限公司,臺中市大甲區武曲里橫圳街９５、９７號,24.354372,120.6162,機械設備業,泵、壓縮機、活栓及活閥製造業,,泵浦、馬達
宏記塑膠廠工業股份有限公司,臺中市大甲區武曲里橫圳街７３號,24.3534184,120.61634099999999,塑膠製品業,塑膠外殼及配件製造業,,塑膠條
尚殷股份有限公司,臺中市大甲區庄美里興安路１３２之１號,24.3488712,120.611732,其他運輸工具零件業,自行車零件製造業,,三輪車、工業車、電動車、自行車另件
金鐘企業有限公司,臺中市大甲區庄美里興安路１３２號,24.3488712,120.611732,其他運輸工具零件業,自行車製造業,,自行車零組件
萬碩機械有限公司,臺中市大甲區庄美里興安路１２６巷１３號,24.34914,120.613075,金屬製品業,金屬模具製造業,,機械零件，模具
通茂鞋業股份有限公司,臺中市大甲區武曲里橫圳街５１號,24.3525352,120.61644,皮革毛皮製品業,鞋類製造業,,皮鞋
伍陽機械工廠股份有限公司,臺中市大甲區武曲里橫圳街８５號,24.3537712,120.61655400000001,機械設備業,未分類其他專用機械設備製造業,,專用生產機械
雅喬生化科技股份有限公司,臺中市大甲區武曲里橫圳街２０１號,24.3569069,120.614975,化學製品業,清潔用品及化粧品製造業,,化妝品
長泰精密股份有限公司,臺中市大甲區庄美里興安路１３０之１號１、２樓,24.3487129,120.61271699999999,金屬製品業,未分類其他金屬製品製造業,,其他金屬製品，通用機械設備
忠源實業股份有限公司,臺中市大甲區庄美里興安路１３０之１號３樓,24.3487129,120.61271699999999,金屬製品業,未分類其他金屬製品製造業,,其他金屬製品，通用機械設備，汽車零件
浤福鞋業有限公司,臺中市大甲區庄美里興安路１３０號,24.3487129,120.61271699999999,皮革毛皮製品業,鞋類製造業,,鞋子
駿澧企業有限公司二廠,臺中市大甲區武曲里橫圳街１２２號,24.355327600000003,120.61633300000001,金屬製品業,其他金屬加工處理業,,其他金屬加工處理
勝泓實業有限公司,臺中市大甲區庄美里興安路１３８之２４１號,24.3484612,120.611549,其他運輸工具零件業,自行車零件製造業,,襯帶（自行車配件）
志詮水電工程有限公司,臺中市大甲區庄美里興安路１３８之１５８號１樓,24.3484612,120.611549,金屬製品業,未分類其他金屬製品製造業,,其他金屬製品，通用機械設備
百歐仕科研股份有限公司大甲廠,臺中市大甲區庄美里興安路１３８之１９２號,24.3484612,120.611549,食品及飼品業,未分類其他食品製造業,,其他未分類食品製造
誠凡工業社,臺中市大甲區庄美里興安路１３８之１４１號１樓,24.3484612,120.611549,金屬製品業,未分類其他金屬製品製造業,,機械另件加工
瑞馳機械工業股份有限公司,臺中市大甲區庄美里興安路１３８之１４２號,24.3484612,120.611549,機械設備業,未分類其他專用機械設備製造業,,自行車專用機械、模具
建穎企業有限公司,臺中市大甲區庄美里興安路１３８之１５２號,24.3484612,120.611549,皮革毛皮製品業,行李箱及手提袋製造業,,旅行箱，塑膠皮包，背包，書包
宏欣工業社,臺中市大甲區庄美里興安路１３８之１０７號,24.3484612,120.611549,其他運輸工具零件業,自行車零件製造業,,自行車零件加工
坤穎工業社,臺中市大甲區庄美里興安路１３８之１３３號,24.3484612,120.611549,金屬製品業,金屬結構製造業,,鐵件加工
駿騏國際有限公司,臺中市大甲區庄美里興安路１３８之１３７號,24.3484612,120.611549,汽車及零件業,汽車零件製造業,,汽車另件、五金另件
尚舜科技有限公司,臺中市大甲區庄美里興安路１３８之１９８號１樓,24.3484612,120.611549,金屬製品業,未分類其他金屬製品製造業,,其他金屬製品
永久機械工業股份有限公司大甲廠,臺中市大甲區庄美里興安路１３８之２２８號,24.3484612,120.611549,其他運輸工具零件業,自行車零件製造業,,車架
舒飾有限公司,臺中市大甲區庄美里興安路１３８之２２號,24.3484612,120.611549,皮革毛皮製品業,鞋類製造業,,鞋墊
冾順實業股份有限公司,臺中市大甲區庄美里興安路１３８之５９號,24.3484612,120.611549,機械設備業,其他金屬加工用機械設備製造業,,機械零件加工
冠盛企業社一廠,臺中市大甲區庄美里興安路１３８之７１號,24.3484612,120.611549,機械設備業,其他通用機械設備製造業,,其他金屬製品
原田國際鐵櫃有限公司一廠,臺中市大甲區武曲里橫圳街３０５號,24.3581753,120.613106,家具業,金屬家具製造業,,金屬鐵櫃製造
中盈企業股份有限公司,臺中市大甲區武曲里橫圳街６３號１樓,24.353235199999997,120.616821,金屬製品業,金屬建築組件製造業,,鋁帷幕、鋁格柵、鋁包板
名欣機械股份有限公司大甲廠,臺中市大甲區武曲里橫圳街５７號,24.3528824,120.61682900000001,其他運輸工具零件業,自行車零件製造業,,自行車零件
中圓泰有限公司,臺中市大甲區武曲里橫圳街６１號,24.3530159,120.61688999999998,金屬製品業,金屬建築組件製造業,,淋浴拉門
字盛環保機械有限公司,臺中市大甲區武曲里橫圳街４５號,24.35217,120.61700400000001,金屬製品業,未分類其他金屬製品製造業,,板框式壓濾機、環保過濾機等
緯林國際股份有限公司大安廠,臺中市大安區福興里福安路１０號１樓,24.348484,120.609,化學製品業,清潔用品及化粧品製造業,,化妝品
啟弘齒輪工業有限公司,臺中市大甲區庄美里興安路５０巷６７號,24.348781600000002,120.61507399999999,機械設備業,機械傳動設備製造業,,齒輪，機械零件
明德工業社,臺中市大甲區庄美里大安港路５３巷３５號,24.349042899999997,120.615448,電力設備業,其他電力設備及配備製造業,,馬達加工
大豐疫苗科技股份有限公司,臺中市大甲區新美里興安路５５巷４號,24.3476639,120.61345700000001,藥品及醫用化學品業,醫用生物製品製造業,,疫苗
讚成食品企業有限公司,臺中市大甲區武曲里大安港路４０５號,24.357601199999998,120.606148,食品及飼品業,屠宰業,,豬肉
豐鎧工業股份有限公司,臺中市大甲區新美里興安路５５巷１４號,24.347406399999997,120.613327,機械設備業,其他金屬加工用機械設備製造業,,螺絲機械、機械零件
立成峰股份有限公司,臺中市大安區龜壳里龜殼路３８號,24.350444800000002,120.604874,機械設備業,食品、飲料及菸草製作用機械設備製造業,,各種茶葉機械及其零件
澤民鋼模有限公司大甲廠,臺中市大甲區文武里八德街６４號,24.352134699999997,120.61853,金屬製品業,金屬模具製造業,,模具
瑄丰精密股份有限公司,臺中市大甲區文武里經國路７２６號,24.353714,120.618683,金屬製品業,金屬模具製造業,,金屬線切割
貫昌企業股份有限公司,臺中市大甲區武陵里興安路２１７巷９號,24.346982999999998,120.60896299999999,金屬製品業,其他金屬加工處理業,,不銹鋼品、不銹鋼捲、不銹鋼板
貫昌企業股份有限公司,臺中市大甲區武陵里興安路２１７巷９號,24.346982999999998,120.60896299999999,金屬製品業,其他金屬加工處理業,,金屬加工處理
台中市大安區肉品市場肉品加工廠,臺中市大安區龜壳里大安港路５４１號,24.357122399999998,120.605,食品及飼品業,肉類其他加工及保藏業,,１、肉鬆２、貢丸３、鹹豬肉
臺中市大安區肉品市場肉品分切廠,臺中市大安區龜壳里大安港路５４１號,24.357122399999998,120.605,食品及飼品業,肉類其他加工及保藏業,,冷凍畜肉
峯豪工業股份有限公司,臺中市大甲區武陵里興安路２３５巷１號,24.34732,120.60781899999999,其他運輸工具零件業,自行車零件製造業,,機械零件，自行車零件
通力伍通工業有限公司,臺中市大甲區文武里八德街５２巷５號,24.3518543,120.61871299999999,其他運輸工具零件業,自行車零件製造業,,自行車零件，機械零件，五金零件
三和億塑膠有限公司,臺中市大甲區武曲里大安港路４０７之５號,24.35831,120.605804,塑膠製品業,其他塑膠製品製造業,,工業塑膠用品
中鉉機械工業有限公司,臺中市大甲區庄美里興安路５０巷６號,24.3478413,120.61606599999999,機械設備業,其他通用機械設備製造業,,機械零件，鐵材加工
順晟工業有限公司,臺中市大甲區平安里忠孝街７９號,24.3499565,120.61856100000001,塑膠製品業,其他塑膠製品製造業,,塑膠製品
金裕豐碾米工廠,臺中市大甲區庄美里經國路３６５號,24.3478775,120.61695900000001,食品及飼品業,碾榖業,,糙米，白米
崴棋機械有限公司,臺中市大甲區文武里大甲街１５５號,24.3529415,120.6198,機械設備業,未分類其他專用機械設備製造業,,其他未分類專用機械設備
義喬興業股份有限公司第一工廠,臺中市大甲區平安里忠孝街５６號,24.3491,120.61837,木竹製品製造業,其他木竹製品製造業,,雕刻品、家具木製品、竹製品
葳沅有限公司,臺中市大甲區平安里忠孝街５２號１樓,24.349058199999998,120.61835500000001,機械設備業,其他通用機械設備製造業,,汽車零件
源豐碾米工廠大安分工廠,臺中市大安區松雅里大安港路５２６號,24.35947,120.60562900000001,食品及飼品業,碾榖業,,白米
億松機械工業股份有限公司,臺中市大甲區頂店里中山路一段１１４７巷１５７號,24.3534145,120.627792,機械設備業,其他通用機械設備製造業,,各種機械裝配，機械零件
龍鳳環香業股份有限公司,臺中市大甲區頂店里錦上街７１號,24.3544064,120.628456,其他製造業,其他未分類製造業,,神香，佛祖香，盤香，環香，檀香
日清食品工廠,臺中市大甲區文武里育英路１７６巷１３號,24.3533688,120.623283,食品及飼品業,動物飼品製造業,,魚餌
篤騰工業股份有限公司,臺中市大甲區文武里大甲街３６號１樓,24.3516712,120.623924,金屬製品業,未分類其他金屬製品製造業,,鋁
正桓工業有限公司,臺中市大甲區頂店里錦上街２９巷１７號,24.3536854,120.62901299999999,非金屬礦物製品業,石材製品製造業,,模具
尚慶工業社,臺中市大甲區頂店里中山路一段１０８０號,24.351001699999998,120.62738,金屬製品業,金屬刀具及手工具製造業,,其他金屬手工具製造
凱能工業社,臺中市大甲區頂店里中山路一段１０８０號,24.351001699999998,120.62738,金屬製品業,金屬模具製造業,,金屬模具、手工具
成祥汽車裝潢帆布廠有限公司,臺中市大甲區頂店里中山路一段９９０號,24.3524151,120.628845,紡織業,紡織製成品製造業,,帆布
台光汽車輪胎五金廠,臺中市大甲區頂店里中山路一段９９８之４號,24.35254,120.628975,橡膠製品業,輪胎製造業,,汽車輪胎
阿財汽車電機廠,臺中市大甲區頂店里中山路一段９９８之３號,24.35254,120.628975,電力設備業,發電、輸電及配電機械製造業,,電力機械、汽車維修
梅豐企業有限公司,臺中市大甲區頂店里中山路一段１１４８號,24.353073100000003,120.62925700000001,機械設備業,其他通用機械設備製造業,,豎橫式送風機、鐵柵
專明工業股份有限公司,臺中市大甲區岷山里中山路一段９８６巷２號,24.35221,120.62901299999999,其他運輸工具零件業,自行車零件製造業,,自行車零件
維樂工業股份有限公司,臺中市大甲區頂店里中山路一段１００８－１、１０１２、１０１２－１號,24.3528461,120.62931100000002,其他運輸工具零件業,自行車零件製造業,,自行車及其零件
維樂工業股份有限公司三廠,臺中市大甲區頂店里中山路一段１００８之３號１樓,24.3528461,120.62931100000002,其他運輸工具零件業,自行車零件製造業,,自行車及其零件
維鎮工業股份有限公司,臺中市大甲區頂店里中山路一段１００８之３號２、３、４樓,24.3528461,120.62931100000002,其他運輸工具零件業,自行車零件製造業,,手握、車手帶、保護套
元寶號,臺中市大甲區頂店里中山路一段１００８號,24.3528461,120.62931100000002,紡織業,繩、纜及網製造業,,繩、纜、網、氈、毯、塑膠製品
源盛網版印刷廠,臺中市大甲區岷山里中山路一段９８６巷７號,24.35213,120.62921100000001,印刷及儲存媒體複製業,印刷業,,網版印刷
大瀚工程行,臺中市大甲區頂店里中山路一段１０１０之４號,24.3530712,120.629562,金屬製品業,金屬結構製造業,,烤漆浪板工程
寶弘工業股份有限公司,臺中市大甲區岷山里中山路一段９８６巷１２號,24.351913500000002,120.629227,塑膠製品業,塑膠皮、板及管材製造業,,塑膠製品
溪泉企業有限公司,臺中市大甲區文武里育德路１９９號,24.3501339,120.62593100000001,成衣及服飾品業,服飾品製造業,,草帽
日光食品工廠股份有限公司,臺中市大甲區岷山里中山路一段９１２、９１２－１號,24.3505936,120.627968,食品及飼品業,乳品製造業,,煉乳
富泰企業社,臺中市大甲區頂店里中山路一段１０６８號,24.3502789,120.627342,金屬製品業,金屬刀具及手工具製造業,,三爪、外管焊接
永信藥品工業股份有限公司,臺中市大甲區頂店里中山路一段１１９１號,24.3552876,120.629654,藥品及醫用化學品業,西藥製造業,,人用藥品、食品、動物藥品、化妝品
勝全興業股份有限公司,臺中市大甲區文武里和平路２２９號,24.3542423,120.62186399999999,機械設備業,其他通用機械設備製造業,,其他機械
宏德實業股份有限公司分廠,臺中市大甲區頂店里中山路一段１０５６之１號,24.3538971,120.630508,皮革毛皮製品業,行李箱及手提袋製造業,,旅行箱、公文包
宏德實業股份有限公司,臺中市大甲區頂店里中山路一段１０５８、１０５８之２號,24.35393,120.63063000000001,皮革毛皮製品業,行李箱及手提袋製造業,,旅行箱、公文包
台灣恩澤科技有限公司,臺中市大甲區頂店里中山路一段１０６４號,24.354064899999997,120.63078300000001,機械設備業,橡膠及塑膠加工用機械設備製造業,,塑膠射出成型機
潤億機械有限公司,臺中市大甲區頂店里中山路一段１０７２號,24.3541965,120.63101200000001,機械設備業,其他通用機械設備製造業,,金屬機械
將門工業社,臺中市大甲區岷山里中山路一段９０８巷１０－１７號１樓,24.3512516,120.630486,機械設備業,其他通用機械設備製造業,,機械零件加工
大苗農機股份有限公司,臺中市大甲區頂店里中山路一段１０７４號,24.354221300000003,120.63106499999999,金屬製品業,金屬模具製造業,,動力脫谷機，烘燥機，鐵犁
勝鴻鋼鐵工業有限公司,臺中市大甲區岷山里中山路一段９０８巷１２２號,24.349548300000002,120.6288,金屬製品業,金屬建築組件製造業,,鐵窗，鐵門，捲門
詠太昌企業社,臺中市大甲區岷山里中山路一段９０８巷１０－６號,24.3510742,120.630478,非金屬礦物製品業,平板玻璃及其製品製造業,,玻璃製品
緯炘股份有限公司,臺中市大甲區岷山里中山路一段９０８巷２０號１樓,24.35197,120.630981,金屬製品業,未分類其他金屬製品製造業,,零件加工
大瑩企業社,臺中市大甲區頂店里中山路一段１２１６號,24.354736300000003,120.63106499999999,金屬製品業,未分類其他金屬製品製造業,,小五金加工
利達製藥股份有限公司,臺中市大甲區岷山里中山路一段９０６號,24.3490353,120.62799999999999,藥品及醫用化學品業,西藥製造業,,西藥
承正工業股份有限公司,臺中市大甲區岷山里中山路一段９０８巷８之２號,24.3502159,120.630043,金屬製品業,未分類其他金屬製品製造業,,不銹鋼製品加工、零件加工
歆錩機械工業有限公司,臺中市大甲區頂店里中山路一段１１０２號１樓,24.35465,120.63131000000001,機械設備業,其他通用機械設備製造業,,長管、鋁件
展盛工業有限公司,臺中市大甲區頂店里中山路一段１１０６號,24.3546829,120.631348,其他運輸工具零件業,自行車零件製造業,,套稠、豎管
益裕塑膠工業有限公司台中廠,臺中市大甲區文武里新政路１５４號,24.3502,120.621925,皮革毛皮製品業,行李箱及手提袋製造業,,旅行箱
崗正有限公司,臺中市大甲區岷山里中山路一段９０８巷１０之７７號,24.3504734,120.6305,皮革毛皮製品業,行李箱及手提袋製造業,,帆布背包
旭成安全玻璃加工廠,臺中市大甲區岷山里中山路一段９０８巷１０之７號,24.3504734,120.6305,非金屬礦物製品業,平板玻璃及其製品製造業,,安全玻璃
瑩格五金有限公司,臺中市大甲區岷山里中山路一段９０８巷１０之４５號,24.3504734,120.6305,金屬製品業,金屬刀具及手工具製造業,,五金買賣
鑫鎂機械工業股份有限公司,臺中市大甲區岷山里中山路一段９０８巷１０之５７號,24.3504734,120.6305,機械設備業,其他通用機械設備製造業,,機械及零件
協盛紡織有限公司大甲廠,臺中市大甲區岷山里中山路一段９０８巷１０之５８號１樓,24.3504734,120.6305,紡織業,其他紡織品製造業,,紡織品
奇鍇製模有限公司,臺中市大甲區岷山里中山路一段９０８巷１０之６３號,24.3504734,120.6305,金屬製品業,金屬模具製造業,,模具
允立企業有限公司,臺中市大甲區岷山里中山路一段９０８巷１０之７６號,24.3504734,120.6305,皮革毛皮製品業,行李箱及手提袋製造業,,旅行（箱、袋）、手提袋、各式袋類
巨軸實業有限公司,臺中市大甲區岷山里中山路一段９０８巷９之５號,24.3504734,120.6305,機械設備業,機械傳動設備製造業,,零件加工
協全興工業股份有限公司,臺中市大甲區岷山里中山路一段９０８巷２５號,24.351776100000002,120.631294,金屬製品業,金屬模具製造業,,模具
鈞龍機械工業有限公司分廠,臺中市大甲區岷山里中山路一段８９４號,24.3485451,120.62768600000001,機械設備業,食品、飲料及菸草製作用機械設備製造業,,食品化工攪拌機、食品化工粉碎機、自動計重系統、整廠設備
正岳工業社,臺中市大甲區岷山里中山路一段９０８巷２７號,24.351673100000003,120.631371,金屬製品業,金屬模具製造業,,模具
欣峰禾有限公司,臺中市大甲區頂店里大發路１３５號,24.353355399999998,120.631729,金屬製品業,其他金屬加工處理業,,未分類其他金屬加工處理
墨田精密有限公司,臺中市大甲區岷山里中山路一段９０８巷５４號,24.3505268,120.6308,機械設備業,其他通用機械設備製造業,,銑床、模具
明機精密工業社,臺中市大甲區岷山里中山路一段９０８巷５３號,24.35049,120.630775,機械設備業,未分類其他專用機械設備製造業,,專用機零件，加工修配
奉聖農機股份有限公司,臺中市大甲區岷山里中山路一段９０８巷２８號,24.351670000000002,120.631454,機械設備業,農用及林用機械設備製造業,,耕耘機
利駿資源有限公司,臺中市大甲區頂店里大發路１５２號,24.35277,120.63178300000001,橡膠製品業,其他橡膠製品製造業,,橡膠製品，塑膠製品
九如產業股份有限公司一廠,臺中市大甲區頂店里大發路１５２號,24.35277,120.63178300000001,金屬製品業,未分類其他金屬製品製造業,,金屬加工
皇絖工業社,臺中市大甲區岷山里中山路一段９０８巷６１號,24.3501873,120.630646,機械設備業,金屬切削工具機製造業,,機械零件
大甲商標織造廠股份有限公司,臺中市大甲區岷山里中山路一段９０８巷３０號,24.3515587,120.631523,紡織業,其他紡織品製造業,,商標布
侑緯興業有限公司,臺中市大甲區岷山里中山路一段９０８巷６２號１樓,24.350170000000002,120.630669,機械設備業,其他通用機械設備製造業,,各類金屬非金屬零件加工製造
菘喆有限公司,臺中市大甲區頂店里大發路１３９號,24.353624300000003,120.63198899999999,食品及飼品業,未分類其他食品製造業,,黑胡椒醬、蘑菇醬、南瓜湯、馬德裡淡奶
志昇食品有限公司,臺中市大甲區岷山里金華西路８３號,24.3499336,120.630669,食品及飼品業,烘焙炊蒸食品製造業,,餅乾、麻粩、土豆糖
鑫泉企業廠,臺中市大甲區岷山里中山路一段９０８巷３２號,24.35143,120.63164499999999,家具業,其他非金屬家具製造業,,塑膠
順利機械實業有限公司,臺中市大甲區頂店里大智街１８號,24.3556557,120.631638,機械設備業,其他通用機械設備製造業,,通用機械設備
明昌國際工業股份有限公司大發廠,臺中市大甲區頂店里大發路１６８號,24.35305,120.632149,家具業,金屬家具製造業,鐵,其他金屬家具
九如產業股份有限公司,臺中市大甲區頂店里大發路１６６號,24.35305,120.63215600000001,機械設備業,其他通用機械設備製造業,,金屬加工
日昇實業社,臺中市大甲區岷山里中山路一段８９８巷３４號,24.348222699999997,120.62825,機械設備業,其他通用機械設備製造業,,壓濾布組、機械零件、輸送帶機零件加工
鏗德實業股份有限公司,臺中市大甲區岷山里金華路２５－１號,24.3488865,120.629807,其他製造業,其他未分類製造業,,便器椅
韻全電器有限公司,臺中市大甲區頂店里大發路２１１號１樓,24.3548317,120.63243100000001,電力設備業,配線器材製造業,,電器
鼎香風國際企業有限公司,臺中市大甲區奉化里賢仁路１７號,24.358097100000002,120.621834,食品及飼品業,屠宰業,,雞肉加工
卡倫迪亞國際股份有限公司,臺中市大甲區岷山里金華路３２之１號,24.3495083,120.631165,化學製品業,清潔用品及化粧品製造業,,化妝品
欣蘭化工股份有限公司,臺中市大甲區岷山里金華路３２之２號,24.3495083,120.631165,化學製品業,清潔用品及化粧品製造業,,化妝品
巨易機械工業有限公司,臺中市大甲區頂店里中山路一段１１２８號,24.355444,120.63238500000001,機械設備業,未分類其他專用機械設備製造業,,自行車之產業專用機械，油壓自動
日炘企業有限公司,臺中市大甲區頂店里彈正路３之７號,24.3560638,120.63213300000001,其他運輸工具零件業,機車零件製造業,,其他機械、汽車及其零件、機車及其零件、自行車及其零件、育樂用
鐵山工業有限公司,臺中市大甲區頂店里中山路一段１１３０之５號１樓,24.355472600000002,120.632423,金屬製品業,金屬刀具及手工具製造業,,其他金屬製品，通用機械設備
日泰捲門企業有限公司,臺中市大甲區頂店里彈正路１５巷１０號,24.3569717,120.631607,金屬製品業,金屬建築組件製造業,,金屬門框、不銹鋼捲門
閎偉工業有限公司,臺中市大甲區頂店里大發路１８２號,24.3540421,120.632828,其他運輸工具零件業,自行車零件製造業,,租金收入
永達齒輪機械廠,臺中市大甲區頂店里彈正路９號,24.35624,120.632172,金屬製品業,金屬刀具及手工具製造業,,模具、壓板、固定座、治具
鉦鴻機械有限公司工廠,臺中市大甲區孔門里文昌街２７號,24.34815,120.62231399999999,機械設備業,機械傳動設備製造業,,滾輪軸總成、齒輪
義喬興業股份有限公司第二工廠,臺中市大甲區平安里和平路３７巷５１號,24.349273699999998,120.62051399999999,木竹製品製造業,其他木竹製品製造業,,彫刻，家具木製品，竹製品
大琳機械工業有限公司,臺中市大甲區頂店里中山路一段１１４２之１號,24.3556957,120.63288899999999,機械設備業,採礦及營造用機械設備製造業,,機械零件（鏟土機，挖土機，碎石機用）
奇樺機械股份有限公司,臺中市大甲區頂店里中山路一段１１４２之３號,24.3556957,120.63288899999999,機械設備業,食品、飲料及菸草製作用機械設備製造業,,烘培茶葉機械，農業機械及各種機械零件，模
侑億股份有限公司,臺中市大甲區頂店里中山路一段１１４６巷８號,24.3553,120.63319399999999,機械設備業,其他通用機械設備製造業,,機械零件、切割器
利源板金廠,臺中市大甲區頂店里中山路一段１１４６巷２號,24.3555164,120.63318600000001,金屬製品業,其他金屬容器製造業,,冷凍櫥，電動式搖搖冰筒
冠信五金有限公司,臺中市大甲區頂店里中山路一段１１５０之１號,24.3559284,120.633095,機械設備業,其他通用機械設備製造業,,工具架、工具櫃
新建成米工廠,臺中市大甲區頂店里彈正路５５號,24.357503899999998,120.63217900000001,食品及飼品業,碾榖業,,白米
昆田機械工業股份有限公司,臺中市大甲區岷山里甲后路１９６號,24.346795999999998,120.628227,機械設備業,金屬切削工具機製造業,,沖床、金屬用車床、銑床、鑽床機製造
大元鐵工廠,臺中市大甲區岷山里甲后路五段７５０號,24.346795999999998,120.628227,金屬製品業,金屬刀具及手工具製造業,,機座、機械另件、平板
志源工業股份有限公司,臺中市大甲區頂店里中山路一段１１４６巷１３號,24.3554134,120.63343799999998,金屬製品業,其他金屬容器製造業,,不銹鋼桶
財進電機股份有限公司,臺中市大甲區朝陽里民生路１號,24.3465271,120.62753300000001,機械設備業,其他通用機械設備製造業,,原動機
傑勳洋企業股份有限公司一廠,臺中市大甲區岷山里甲后路１２０巷３５８號,24.3467045,120.628372,成衣及服飾品業,服飾品製造業,,帽蓆，手工藝品（紙，棉，毛，布，竹，草）
致強工業股份有限公司,臺中市大甲區岷山里甲后路１９２之１號,24.3466682,120.628456,皮革毛皮製品業,其他皮革及毛皮製品製造業,,皮革，塑膠，布類皮包，學生服
台達工業社,臺中市大甲區頂店里彈正路５１巷２０之１號,24.35819,120.63195,金屬製品業,未分類其他金屬製品製造業,,型鋼、銑材、型鋼、銑材
信義豐碾米工廠,臺中市大甲區頂店里中山路一段１１５８巷２號,24.3560429,120.633629,食品及飼品業,碾榖業,,糙米
久大化工廠股份有限公司,臺中市大甲區頂店里中山路一段１１５８巷５－６號,24.3557949,120.633881,化學製品業,塗料、染料及顏料製造業,,塗料
尚順食品有限公司一廠,臺中市大甲區頂店里中山路一段１１５８巷５之１０號,24.3557949,120.633881,食品及飼品業,膳食及菜餚製造業,,其他調理食品製造
升邁工業股份有限公司,臺中市大甲區頂店里中山路一段１１５８巷５之７號,24.3557949,120.633881,塑膠製品業,其他塑膠製品製造業,,ＰＥ板
堃傑工業股份有限公司,臺中市大甲區頂店里彈正路５８之１１號,24.3581715,120.632484,金屬製品業,未分類其他金屬製品製造業,,五金機械零件，鋼模，汽機車零件
吉皇實業股份有限公司大甲廠,臺中市大甲區頂店里中山路一段１２９９巷３９號,24.3572083,120.63323999999999,紡織業,其他紡織品製造業,,織帶
晟醇實業股份有限公司,臺中市大甲區頂店里彈正路６１號,24.3582382,120.63251499999998,機械設備業,金屬切削工具機製造業,,ＣＮＣ加工、模具整修
立祥食品行,臺中市大甲區德化里經國路１１７２－１號,24.3596382,120.63101200000001,食品及飼品業,烘焙炊蒸食品製造業,,酥餅
億合工業有限公司,臺中市大甲區頂店里中山路一段１１５８巷６之１４號,24.3559074,120.634026,其他運輸工具零件業,自行車零件製造業,,支桿、山壼栓、自行車及其零件
川賢機械有限公司,臺中市大甲區頂店里中山路一段１１５８巷６－２２號,24.3559074,120.634026,機械設備業,其他金屬加工用機械設備製造業,,機械零件
國勝鐵工廠,臺中市大甲區頂店里中山路一段１２９９巷２８號,24.357097600000003,120.63351399999999,汽車及零件業,汽車零件製造業,,汽、機車零件
竣育工業有限公司,臺中市大甲區頂店里中山路一段１２９９巷１７號,24.3570957,120.63365900000001,機械設備業,其他通用機械設備製造業,,機械零件
穗豐釀酒股份有限公司,臺中市大甲區頂店里中山路一段１１５８巷６之１３號,24.3559074,120.6343,飲料業,其他酒精飲料製造業,,蒸餾酒
尚紘科技有限公司,臺中市大甲區頂店里中山路一段１１５８巷６之１７號１樓,24.3555031,120.634476,金屬製品業,金屬刀具及手工具製造業,,金屬手工具及模具、機械零件
旭東機械工業股份有限公司台中分公司,臺中市大甲區頂店里中山路一段１３２５號,24.3568115,120.633995,機械設備業,電子及半導體生產用機械設備製造業,,面板清洗機、雷射燒截機、雷射修補機、面板載入機
三泰實業工廠,臺中市大甲區頂店里開元路７５號,24.3521,120.64505,食品及飼品業,麵條及粉條類食品製造業,,米粉製造
臺中市大甲區農會頂店工廠,臺中市大甲區頂店里中山路一段１３７２號,24.3588238,120.63726799999999,食品及飼品業,碾榖業,,糙米、白米、冰品加工、芋頭
英翔有限公司大甲廠,臺中市大甲區頂店里中山路一段１２１０巷１１號,24.3566246,120.63488799999999,金屬製品業,金屬表面處理業,,車架、烤漆加工
眾成精機股份有限公司,臺中市大甲區頂店里中山路一段１２１８號１樓,24.35699,120.634689,機械設備業,其他通用機械設備製造業,減速機、滑座（軌）、伺服器,ＮＣ三次元傳送機、單桿伺服傳送機、自動送料周邊裝置
均錡有限公司,臺中市大甲區頂店里中山路一段１２１４號１樓,24.356931699999997,120.634628,其他運輸工具零件業,自行車零件製造業,,自行車零件（主軸零件，前叉零件）
墨達思精密工業股份有限公司,臺中市外埔區鐵山里長生路８２０之１號,24.349258399999997,120.647453,其他運輸工具零件業,自行車零件製造業,,腳踏車零件（中軸碗組）（前叉碗組）
鋐光實業股份有限公司二廠,臺中市外埔區鐵山里長生路８１８號,24.349504500000002,120.647636,其他運輸工具零件業,自行車零件製造業,,海攤車，健身車，塑膠踏板，腳踏車
大甲鐵材股份有限公司,臺中市外埔區鐵山里長生路１０１６號,24.3472576,120.645271,基本金屬業,鋼鐵軋延及擠型業,,鋼筋、Ｈ型鋼、三角鐵、扁鐵
鋐光實業股份有限公司,臺中市外埔區鐵山里長生路８１６號,24.34928,120.648117,其他運輸工具零件業,自行車零件製造業,,腳踏車零件、汽機車零件
墨達思精密工業股份有限公司二廠,臺中市外埔區鐵山里長生路８２０之２號,24.3491211,120.648109,其他運輸工具零件業,自行車零件製造業,,腳踏車零件．鋁製品．花鼓零件．各項零件
小林煎餅股份有限公司,臺中市外埔區鐵山里長生路８１４號,24.34948,120.6484,食品及飼品業,烘焙炊蒸食品製造業,,餅乾
和捷金屬工業股份有限公司,臺中市外埔區鐵山里長生路７７６之１號,24.3479576,120.65131399999999,金屬製品業,其他金屬加工處理業,,鋼鐵板切割
全志事業有限公司外埔廠,臺中市外埔區鐵山里長生路２５１、２６１號,24.347171799999998,120.65241200000001,皮革毛皮製品業,行李箱及手提袋製造業,,袋子
久誼股份有限公司,臺中市外埔區鐵山里長生路８０６號,24.348860000000002,120.649872,紙漿、紙及紙製品業,未分類其他紙製品製造業,,塑膠薄膜，離型紙，紙類製品（紙，紙板淋膜）
鈱舜機械有限公司分廠,臺中市外埔區鐵山里長生路１７１號,24.349483499999998,120.66183500000001,機械設備業,金屬切削工具機製造業,,油壓機、裁斷機等零件維修
鋐光實業股份有限公司三廠,臺中市外埔區鐵山里長生路８１２號,24.349548300000002,120.649216,其他運輸工具零件業,自行車零件製造業,,腳踏車零件（中軸碗組，前叉碗組）
吉米食品有限公司,臺中市外埔區鐵山里長生路２６３、２６５號,24.3472328,120.65186299999999,食品及飼品業,未分類其他食品製造業,,學校團饍
金享餘塑膠股份有限公司一廠,臺中市外埔區鐵山里長生路８０８號,24.3489475,120.649452,塑膠製品業,其他塑膠製品製造業,,塑膠盒
金享餘塑膠股份有限公司,臺中市外埔區鐵山里長生路８１０號,24.3491611,120.6492,塑膠製品業,其他塑膠製品製造業,,塑膠盒
竣驜企業股份有限公司,臺中市外埔區鐵山里長生路２５３號,24.3469143,120.652138,塑膠製品業,其他塑膠製品製造業,,塑膠、袋、腳踏車保護套
旭倫電子工業股份有限公司,臺中市外埔區鐵山里長生路１４７號,24.349535,120.66242199999999,其他製造業,玩具及遊戲機製造業,,電子產品玩具（槍砲彈藥刀械，查禁品及賭博除外）
鋐光實業股份有限公司四廠,臺中市外埔區鐵山里長生路８３０號,24.348806399999997,120.64926100000001,其他運輸工具零件業,自行車零件製造業,,腳踏車零件．各項零件．矽膠製品
建鍍機械工業有限公司,臺中市外埔區鐵山里長生路１１３號,24.3493328,120.6624,金屬製品業,金屬模具製造業,,模具
財榮壓鑄股份有限公司,臺中市外埔區鐵山里長生路８２８號,24.3489914,120.648941,金屬製品業,未分類其他金屬製品製造業,塑膠粒、熔爐用煤氣、鋁錠,腳踏車零件、五金零件、監視器零件
雄豐興業有限公司,臺中市外埔區鐵山里長生路３７０號,24.349678,120.66282700000001,金屬製品業,金屬模具製造業,,模具
穎纖實業股份有限公司,臺中市外埔區鐵山里長生路３３６號,24.3500328,120.66343700000002,其他製造業,體育用品製造業,,手提袋、腳踏車配件（袋類）運明圓桶袋
舜堂萊嘉股份有限公司,臺中市外埔區廍子里廍子路１０７之５號,24.35324,120.675789,飲料業,其他酒精飲料製造業,,飲料（酒）
全泰砂石股份有限公司外埔廠,臺中市外埔區廍子里廍子路１１０號,24.3587837,120.664658,非金屬礦物製品業,石材製品製造業,,砂石
偉隆有限公司,臺中市外埔區土城里土城北路７號,24.34696,120.717354,紙漿、紙及紙製品業,瓦楞紙板及紙容器製造業,,各種紙器（紙盒，紙箱，包裝紙）加工
鉦城工業有限公司,臺中市外埔區土城里土城北路５５號,24.3455181,120.71366100000002,金屬製品業,未分類其他金屬製品製造業,,五金零件加工
萬冠紙廠有限公司外埔廠,臺中市外埔區土城里土城西路１５６號,24.347202300000003,120.708969,紙漿、紙及紙製品業,瓦楞紙板及紙容器製造業,,紙箱，紙盒
中埔混凝土股份有限公司,苗栗縣三義鄉鯉魚潭村４鄰鯉魚口９０號,24.3538685,120.737648,非金屬礦物製品業,預拌混凝土製造業,,預拌混凝土、砂石
昇威工業社,臺中市大安區南埔里南安路４１０巷２號,24.3397121,120.568069,其他製造業,體育用品製造業,,運動器材五金零件，樂器器材五金
堡純工業股份有限公司,臺中市大安區南埔里南安路３７７巷１９號,24.3395271,120.570076,金屬製品業,金屬模具製造業,,模具、機械
上虹工業股份有限公司,臺中市大安區南庄里南安路２５８號,24.3447189,120.5723,電腦電子及光學品業,視聽電子產品製造業,,防塵蓋
冾順實業股份有限公司,臺中市大安區東安里南勢厝路１２９巷１８號,24.336358999999998,120.58389299999999,機械設備業,其他金屬加工用機械設備製造業,,金屬加工用機械設備
正舜龍有限公司一廠,臺中市大安區東安里南勢厝路１２９巷２５號,24.33687,120.58493,金屬製品業,未分類其他金屬製品製造業,,各種機械零件加工
展祐工業股份有限公司,臺中市大安區南庄里南埔路１９８巷２３號,24.3432713,120.577591,金屬製品業,金屬模具製造業,,機械零件加工
福得車業有限公司,臺中市大安區中庄里中山南路２５７巷１９號,24.3442268,120.5875,其他運輸工具零件業,自行車零件製造業,,腳踏車零件、輪椅零組件、機車零件
鎧渝國際企業有限公司一廠,臺中市大安區中庄里中山南路３２１號,24.34594,120.58728799999999,機械設備業,未分類其他專用機械設備製造業,,金屬加工用機械
耘青自動化機械有限公司,臺中市大甲區武陵里興安路３２１巷１０６號,24.341135,120.59466599999999,機械設備業,紡織、成衣及皮革生產用機械設備製造業,,疊棧板機、套袋機、理排管機、輸送機
台安藝品工業社,臺中市大甲區武陵里興安路３２１巷１０２號,24.3425541,120.59846499999999,非金屬礦物製品業,水泥及混凝土製品製造業,,建材、水泥製品
允綸包裝材料股份有限公司,臺中市大安區東安里中山南路１０８號,24.3399258,120.591812,塑膠製品業,塑膠皮、板及管材製造業,,塑膠製品
鉅民工程事業有限公司,臺中市大安區東安里中山南路８號１樓,24.3353863,120.5965,金屬製品業,金屬彈簧及線製品製造業,,金屬線
佳旭企業股份有限公司,臺中市大安區東安里中山南路９６號,24.3392849,120.591568,食品及飼品業,麵條及粉條類食品製造業,,麵條
弘任起重機械有限公司,臺中市大甲區文曲里東安路５０１巷５號,24.3348522,120.59623,機械設備業,其他通用機械設備製造業,,汽車機械
慶穗工業股份有限公司,臺中市大安區福興里興安路１９９號,24.3449268,120.595528,塑膠製品業,其他塑膠製品製造業,,線塑膠製品
展暉工業有限公司三廠,臺中市大甲區武陵里文曲路８１之２號,24.33592,120.601,其他運輸工具零件業,自行車零件製造業,,腳踏車零件、自行車零件
正舜龍有限公司,臺中市大甲區文曲里東安路４２６之１號,24.3340931,120.597916,金屬製品業,未分類其他金屬製品製造業,,其他金屬製品、金屬加工用機械、其他機械
旭發機械有限公司,臺中市大甲區文曲里東安路４２６號,24.3340931,120.597916,金屬製品業,金屬模具製造業,,模具加工
宏濠股份有限公司,臺中市大安區東安里福東二路３３號,24.335681899999997,120.592026,金屬製品業,金屬模具製造業,,其他粉類工業製造品
展暉工業有限公司第二廠,臺中市大甲區武陵里文曲路１１０巷３號,24.335994699999997,120.601677,其他運輸工具零件業,自行車零件製造業,,腳踏車零件（豎管）
釔星企業有限公司,臺中市大安區東安里福東二路６６之１號,24.3358688,120.59153700000002,金屬製品業,金屬刀具及手工具製造業,,扳手
誠岱機械廠股份有限公司,臺中市大甲區武陵里文曲路１７３號,24.33878,120.603249,機械設備業,其他通用機械設備製造業,,鏈條吊車、鋼索吊車、昇降機
台意工業股份有限公司一廠,臺中市大甲區武陵里文曲路１５９之１號,24.33751,120.60311100000001,塑膠製品業,塑膠皮、板及管材製造業,,蜂巢板、扁條
鎮宥工業社,臺中市大安區福興里福東路８號,24.3453045,120.60138700000002,塑膠製品業,其他塑膠製品製造業,,塑膠製品
誠岱機械廠股份有限公司,臺中市大甲區武陵里文曲路１７５號,24.337854399999998,120.604469,機械設備業,輸送機械設備製造業,,鏈條吊車，鋼索吊車，昇降機
台三工業股份有限公司和光廠,臺中市大安區中庄里興安路３２８號,24.346178100000003,120.592041,紡織業,人造纖維紡紗業,,衣櫥，雨衣，雨帆，袋類
麥柏股份有限公司,臺中市大安區中庄里興安路３２８號３樓,24.346178100000003,120.592041,其他製造業,體育用品製造業,,高爾夫球桿，網球拍，羽毛球拍
裕勝鋼鐵有限公司二廠,臺中市大甲區武陵里６鄰文曲路１７８號,24.338007,120.60462199999999,金屬製品業,未分類其他金屬製品製造業,,格柵板蓋（水溝蓋）
聖聲股份有限公司,臺中市大安區中庄里興安路３３０號,24.346035,120.59158300000001,塑膠製品業,其他塑膠製品製造業,,塑膠射出成型製品，塑膠押出成型
象巨工業社,臺中市大安區福興里興安路２３９號,24.34579,120.59121699999999,金屬製品業,金屬模具製造業,,刀、模
台三工業股份有限公司,臺中市大安區中庄里興安路３２６號,24.346406899999998,120.591972,家具業,其他非金屬家具製造業,,衣櫥，雨衣，雨帆，旅行袋箱，公，線
麥柏股份有限公司第二廠,臺中市大安區中庄里興安路３２６號２樓,24.346406899999998,120.591972,其他製造業,體育用品製造業,,網球拍，羽毛球拍，服裝，雨衣
岡俊企業股份有限公司,臺中市大安區福興里興安路１１５號,24.3459873,120.601891,塑膠製品業,塑膠外殼及配件製造業,,塑膠帶、塑膠條
英詮鐵工廠,臺中市大安區中庄里興安路２７７巷１９號,24.345296899999997,120.59046200000002,金屬製品業,未分類其他金屬製品製造業,,五金零件製造、皮箱
東志工業社,臺中市大安區中庄里興安路３４０號,24.345937699999997,120.59121699999999,金屬製品業,未分類其他金屬製品製造業,,腳踏車五金，運動器材五金等零件加工，涼椅
慶昆有限公司,臺中市大安區中庄里興安路３４２號,24.3459454,120.591171,塑膠製品業,其他塑膠製品製造業,,線塑膠製品
長磊工業有限公司,臺中市大安區中庄里興安路２７７巷１７號,24.345346499999998,120.59043100000001,其他運輸工具零件業,自行車零件製造業,,不銹鋼、零件
品勝科技有限公司,臺中市大安區中庄里興安路２７７巷１１號,24.345470000000002,120.59036299999998,金屬製品業,未分類其他金屬製品製造業,,機械零件
裕勝鋼鐵有限公司,臺中市大安區福興里興安路１７８號,24.34633,120.601906,金屬製品業,金屬建築組件製造業,,格柵板蓋（水溝蓋）
聯引餐盒廠,臺中市大安區中庄里興安路３５６號,24.346056,120.59088899999999,食品及飼品業,未分類其他食品製造業,,便當
寶鈿不銹鋼有限公司,臺中市大甲區義和里文曲路５１５號,24.3409977,120.6116,金屬製品業,其他金屬容器製造業,,金屬容器
豐田精密有限公司,臺中市大甲區義和里文曲路５０６巷８號１樓,24.3387413,120.611755,機械設備業,金屬切削工具機製造業,,車床加工
甲基鋁業有限公司,臺中市大甲區義和里文曲路５２２號,24.3411655,120.612381,金屬製品業,金屬建築組件製造業,,鋁製品
泰億工業股份有限公司,臺中市大甲區義和里文曲路５５２號,24.3407021,120.612953,其他製造業,樂器製造業,,各種樂器之金屬零件
宇韻工業股份有限公司,臺中市大甲區義和里文曲路５１９號,24.3414173,120.61277,其他製造業,樂器製造業,,管類樂器加工裝配，五金零件
少暉企業股份有限公司,臺中市大甲區義和里文曲路５３５號,24.3412228,120.61313600000001,塑膠製品業,其他塑膠製品製造業,,ＰＥ板，拉桿，背（ＥＶＡ）箱
甲陳企業股份有限公司,臺中市大甲區義和里文曲路５２７號,24.3414173,120.612946,金屬製品業,金屬模具製造業,,模具製造加工
冠協科技有限公司,臺中市大甲區義和里文曲路５２６號,24.34142,120.61300700000001,金屬製品業,未分類其他金屬製品製造業,,五金零件
威叡企業社三廠,臺中市大甲區武陵里４鄰文曲路３４８號,24.3400249,120.60874199999999,金屬製品業,金屬刀具及手工具製造業,,刀桿、筒夾
昱昌興業有限公司,臺中市大甲區武陵里文曲路３４８號,24.3400249,120.60874199999999,機械設備業,機械傳動設備製造業,,皮帶輪、雙頭螺牙
泰億工業股份有限公司分廠,臺中市大甲區義和里文曲路５８１號,24.3415775,120.613625,其他製造業,樂器製造業,,各種樂器之金屬零件
彰鋒機械工業有限公司,臺中市大甲區武陵里文曲路３３０之２號１樓,24.3398647,120.608322,其他運輸工具零件業,自行車零件製造業,,模具（等）、機械加工
義朋興業股份有限公司,臺中市大甲區武陵里文曲路３３２號,24.3398647,120.608322,化學製品業,塗料、染料及顏料製造業,,水溶性塗料攪拌加工品
常裕鐵工廠,臺中市大甲區義和里文曲路４３５巷１號之１,24.343168300000002,120.60958899999999,機械設備業,金屬切削工具機製造業,,印削工具
鐸豐富企業有限公司,臺中市大甲區義和里重義一路１５５號,24.3375378,120.614975,金屬製品業,金屬刀具及手工具製造業,,剪刀、鐵刀
巧聖工業社,臺中市大甲區義和里重義一路１４９號１樓,24.337747600000004,120.61515800000001,汽車及零件業,汽車零件製造業,,其他汽車零件製造
鈞英工業有限公司,臺中市大甲區義和里重義一路１４７號,24.3378029,120.61521100000002,機械設備業,金屬切削工具機製造業,,其他機械零件加工
長芸有限公司,臺中市大甲區義和里重義一路１５１號,24.337677,120.61513500000001,機械設備業,其他金屬加工用機械設備製造業,,金屬手工業、其他機械
穎達網版印刷有限公司,臺中市大甲區義和里文曲路５９８巷２號,24.340162300000003,120.61615800000001,印刷及儲存媒體複製業,印刷業,,印刷
慶錩興業有限公司,臺中市大甲區武陵里興安路１６９巷１０號,24.3445549,120.611244,金屬製品業,其他金屬加工處理業,,廢鋼、廢五金買賣
太御食品股份有限公司大甲廠,臺中市大甲區義和里重義二路１５１號１、２樓,24.3357,120.61358600000001,食品及飼品業,未分類其他食品製造業,,速食食品
世邦興業股份有限公司一廠,臺中市大甲區義和里重義二路７、９號,24.3361683,120.61457800000001,機械設備業,金屬切削工具機製造業,,搪孔器、刀柄、刀桿、刀座、虎鉗
登浩工業有限公司二廠,臺中市大甲區義和里重義二路１５號,24.3361683,120.61457800000001,機械設備業,金屬切削工具機製造業,,金屬用車床
摩迅動機股份有限公司,臺中市大甲區義和里重義一路３９號,24.338676500000002,120.61646299999998,機械設備業,其他通用機械設備製造業,,門型機械手、六軸關節型機械手、平板式料臺、旋轉料臺
麵本家食品股份有限公司,臺中市大甲區義和里重義二路１５３號,24.335413,120.613396,食品及飼品業,麵條及粉條類食品製造業,,麵條批發、製造
峯瑞實業有限公司工廠,臺中市大甲區義和里中山路一段６０９巷２５號１樓,24.33771,120.61628700000001,金屬製品業,金屬表面處理業,,烤漆
瑋城興業有限公司,臺中市大甲區義和里中山路一段６０９巷２７號,24.33771,120.616295,金屬製品業,未分類其他金屬製品製造業,,鋼線及鐵框
明欣塑膠工業股份有限公司,臺中市大甲區義和里中山路一段６０９巷６、１０號,24.33786,120.616371,塑膠製品業,其他塑膠製品製造業,,套筒組、夾頭組、扳手、夾頭
永荃塑膠股份有限公司,臺中市大甲區義和里中山路一段６０９巷２１、２３號,24.3376865,120.616325,塑膠製品業,其他塑膠製品製造業,,各種塑膠射出成型製品
谷豐食品有限公司,臺中市大甲區義和里重義二路１１號,24.3359776,120.61491399999998,食品及飼品業,肉類其他加工及保藏業,,豬肉、鹹豬肉
勇陸企業有限公司大甲廠,臺中市大甲區義和里重義二路８號,24.3358688,120.614952,機械設備業,其他金屬加工用機械設備製造業,,脫蠟爐
宙宏企業有限公司工廠,臺中市大甲區義和里中山路一段６０９巷１５號,24.3376064,120.616478,金屬製品業,金屬刀具及手工具製造業,,工具組
信偉玻璃加工廠,臺中市大甲區義和里重義三路２６巷５５號,24.334812200000002,120.61296100000001,非金屬礦物製品業,平板玻璃及其製品製造業,,玻璃及玻璃製品
常潤企業股份有限公司,臺中市大甲區義和里中山路一段６０９巷１１號,24.3375645,120.61655400000001,金屬製品業,其他金屬加工處理業,,鐵管加工
甲陳企業股份有限公司二廠,臺中市大甲區義和里重義二路１５７號,24.3347416,120.612808,金屬製品業,金屬模具製造業,,模具製造加工
亞利士實業有限公司,臺中市大甲區義和里重義二路１５９號,24.3347416,120.612808,皮革毛皮製品業,其他皮革及毛皮製品製造業,,皮革、毛皮及其製品
億代富國際股份有限公司一廠,臺中市大甲區武陵里文曲路２１８號２樓,24.33824,120.60578899999999,紡織業,不織布業,,不織布
億代富國際股份有限公司,臺中市大甲區武陵里文曲路２３０巷３號,24.3382339,120.605782,紡織業,不織布業,,ＨＥＰＡＣ、血液迴路管、鐵補、鈣先
澤興工業股份有限公司,臺中市大甲區義和里重義三路２６巷７６號,24.3350849,120.61396,機械設備業,未分類其他專用機械設備製造業,,金屬加工用機械、專用生產機械
赫騏精密科技有限公司,臺中市大甲區義和里中山路一段６０９巷７號１樓,24.3375282,120.616623,機械設備業,金屬切削工具機製造業,,ＣＮＣ車床及零件
速達企業社,臺中市大甲區義和里中山路一段６０９巷５號１樓,24.3375034,120.61666100000001,其他運輸工具零件業,自行車零件製造業,,腳踏車零件加工
冠鴻工業社,臺中市大甲區義和里中山路一段６０９巷３號,24.3374825,120.616707,塑膠製品業,塑膠外殼及配件製造業,,塑膠製品（塑膠外殼、其他工業用塑膠製品）
裕勝鋼鐵有限公司三廠,臺中市大甲區義和里文曲路６８０號,24.34079,120.61726399999999,機械設備業,其他通用機械設備製造業,,金屬建築組件
祐興工業股份有限公司,臺中市大甲區義和里中山路一段６０９巷１號,24.3374615,120.616745,金屬製品業,其他金屬加工處理業,,ＣＮＣ車床加工
舒飾有限公司,臺中市大甲區義和里重義一路１７號,24.338224399999998,120.617149,皮革毛皮製品業,鞋類製造業,,鞋墊
大甲化工實業股份有限公司,臺中市大甲區義和里中山路一段５２５號,24.3350258,120.61436499999999,化學製品業,塗料、染料及顏料製造業,,油墨
榮紹實業股份有限公司,臺中市大甲區義和里重義三路２６巷６６號,24.3345985,120.613518,塑膠製品業,其他塑膠製品製造業,,塑膠製品
建台電機廠,臺中市大甲區義和里中山路一段６０１號,24.3371582,120.6168,汽車及零件業,汽車零件製造業,,電機，汽車零配件
台萬工業股份有限公司二廠,臺中市大甲區義和里重義三路２６巷４５號,24.3344326,120.61312099999999,其他運輸工具零件業,自行車零件製造業,,自行車及其零件
榮大塑膠股份有限公司,臺中市大甲區義和里重義三路２６巷４９號,24.3344326,120.61312099999999,塑膠製品業,塑膠外殼及配件製造業,,塑膠製品
鎧偉機械工業股份有限公司,臺中市大甲區義和里中山路一段６０７之２號,24.3372421,120.616905,金屬製品業,金屬刀具及手工具製造業,,金屬手工具
銓成機械科技有限公司工廠,臺中市大甲區義和里重義三路２６巷５９號,24.3344479,120.613487,金屬製品業,金屬模具製造業,,其他金屬模具加工
邁仕登貿易有限公司,臺中市大甲區義和里中山路一段６１９號,24.3377,120.6172,機械設備業,機械傳動設備製造業,,軸承
台萬工業股份有限公司三廠,臺中市大甲區義和里中山路一段６２５、６３１號,24.3378677,120.61731,其他運輸工具零件業,自行車零件製造業,,自行車及其零件
天璽工業有限公司,臺中市大甲區義和里中山路一段６３５號１、２樓,24.3378677,120.61731,金屬製品業,其他金屬加工處理業,,金屬加工處理
民上機械廠股份有限公司,臺中市大甲區義和里重義三路２６巷２８號,24.334201800000002,120.6127,機械設備業,機械傳動設備製造業,,齒輪加工
至誼實業股份有限公司,臺中市大甲區義和里中山路一段５７３號,24.3355122,120.61560800000001,皮革毛皮製品業,行李箱及手提袋製造業,,塑膠製品（旅行袋）
永正利機械有限公司二廠,臺中市大甲區義和里４鄰中山路一段６６１號,24.338558199999998,120.61763799999999,機械設備業,其他通用機械設備製造業,,通用機械設備、其他金屬製品
台萬工業股份有限公司,臺中市大甲區義和里重義三路５６號,24.334020000000002,120.61248,其他運輸工具零件業,自行車零件製造業,,自行車及其零件
欣芳塑膠工業有限公司,臺中市大甲區義和里中山路一段４４６號,24.3363266,120.616684,塑膠製品業,其他塑膠製品製造業,,塑膠扣具配件
旭倉金屬企業有限公司,臺中市大甲區義和里中山路一段４３０號,24.3361626,120.616577,金屬製品業,金屬刀具及手工具製造業,,手工具組
伍樂機械工業股份有限公司二廠,臺中市大甲區義和里中山路一段４６０號,24.337020000000003,120.617249,其他運輸工具零件業,自行車零件製造業,,自行車前叉
巨琛工業有限公司二廠,臺中市大甲區義和里中山路一段４６０之１號,24.337244000000002,120.6174,其他運輸工具零件業,自行車製造業,,電動車
聚陽塑膠股份有限公司,臺中市大甲區義和里中山路一段４２２之１號,24.335844,120.616425,塑膠製品業,其他塑膠製品製造業,,扣具
穎芳五金製品廠有限公司,臺中市大甲區義和里中山路一段４２２號,24.335844,120.616425,金屬製品業,未分類其他金屬製品製造業,,塑膠扣具配件
重壽機械工業股份有限公司,臺中市大甲區義和里中山路一段４５８之８號,24.33662,120.61705800000001,機械設備業,其他通用機械設備製造業,,機械另件
大新餐盒食品工廠,臺中市大甲區義和里中山路一段４５８號,24.33662,120.61705800000001,食品及飼品業,未分類其他食品製造業,,餐盒食品
上右精機股份有限公司,臺中市大甲區義和里中山路一段４５８之３號,24.33662,120.61705800000001,機械設備業,其他通用機械設備製造業,,車床加工
建城工業社,臺中市大甲區義和里經國路１０號,24.3399639,120.618439,金屬製品業,未分類其他金屬製品製造業,,其他金屬製品
伍樂機械工業股份有限公司,臺中市大甲區義和里文曲路７２０號,24.3406372,120.618591,其他運輸工具零件業,自行車零件製造業,,前叉
晉暉機械股份有限公司,臺中市大甲區義和里重義三路２６巷１０號,24.3333549,120.61315900000001,機械設備業,食品、飲料及菸草製作用機械設備製造業,,食品機械，化工機械，農業機械
義發科技捲門工程行,臺中市大甲區義和里重義三路２６巷２０弄２０號,24.33345,120.613724,金屬製品業,金屬建築組件製造業,,捲門
有輪塑膠企業有限公司,臺中市大甲區義和里中山路一段７２５號,24.3400021,120.61880500000001,塑膠製品業,其他塑膠製品製造業,,各種塑膠製品（塑膠粒，塑膠板，套片，帽眉）
詔強股份有限公司,臺中市大甲區義和里中山路一段３４０號,24.3339634,120.61536399999999,皮革毛皮製品業,行李箱及手提袋製造業,,行李箱
全通工業有限公司,臺中市大甲區義和里中山路一段３６１號２樓,24.3333664,120.61425,其他製造業,體育用品製造業,,跑步機零件
邏爵有限公司,臺中市大甲區義和里中山路一段５５２號１樓,24.34008,120.61911,家具業,其他非金屬家具製造業,,辦公家具
江岱電機行股份有限公司,臺中市大甲區義和里中山路一段７４５號,24.3404713,120.61911,電力設備業,發電、輸電及配電機械製造業,,馬達減速機、抽水機零件等
奇台實業股份有限公司,臺中市大甲區義和里重義三路２２號,24.3329983,120.61343400000001,皮革毛皮製品業,鞋類製造業,,塑膠鞋，鞋底臺，熱可塑橡膠鞋底
柯泰精機工業股份有限公司大甲廠,臺中市大甲區義和里中山路一段３１２號,24.3335876,120.61513500000001,機械設備業,機械傳動設備製造業,,減速機
順益電子企業有限公司,臺中市大甲區義和里義和二街２５號,24.338336899999998,120.619125,電腦電子及光學品業,視聽電子產品製造業,,鳴響機、擴音機
龍運工業股份有限公司,臺中市大甲區義和里義和三街１２７號１樓,24.3363132,120.618378,金屬製品業,金屬鍛造業,,鐵管加工；鐵管組
茂鈺有限公司,臺中市大甲區新美里經國路２６６號１樓,24.34497,120.617325,機械設備業,其他金屬加工用機械設備製造業,,油壓五金
祈昌化工廠,臺中市大甲區新美里新美街８１號,24.343204500000002,120.61871299999999,化學製品業,清潔用品及化粧品製造業,,洗面皂
佳南藝品企業有限公司,臺中市大甲區新美里永順街３７號,24.3420734,120.619194,木竹製品製造業,其他木竹製品製造業,,木竹器，傢具彫刻
偉新紙器工業有限公司,臺中市大甲區新美里永順街１５號,24.341920000000002,120.619522,紙漿、紙及紙製品業,瓦楞紙板及紙容器製造業,,紙盒
良榮股份有限公司,臺中市大甲區新美里經國路２９９巷３１號,24.346378299999998,120.6162,金屬製品業,金屬模具製造業,,塑膠成型模具
榮紹實業股份有限公司二廠,臺中市大甲區武陵里重義三路１３巷８９號,24.3317986,120.611023,塑膠製品業,其他塑膠製品製造業,,塑膠製品
健筌塑膠有限公司,臺中市大甲區南陽里水源路１３巷２０弄２號,24.3419952,120.6235,皮革毛皮製品業,行李箱及手提袋製造業,,塑膠皮箱、皮包、書包、旅行袋之加工、行李
源鎰機械工業有限公司,臺中市大甲區南陽里中山路一段７８０號,24.342779999999998,120.62447399999999,機械設備業,未分類其他專用機械設備製造業,,燙帽另件
利鴻塑膠股份有限公司,臺中市大甲區南陽里水源路１３巷１８號,24.3420544,120.62338999999999,皮革毛皮製品業,行李箱及手提袋製造業,,塑膠製行李箱
凱鍵企業有限公司,臺中市大甲區義和里中山路一段７３７號,24.3425121,120.62334399999999,化學製品業,清潔用品及化粧品製造業,,彩色筆，自動眉筆，原子筆裝配
富祥化粧品實業有限公司,臺中市大甲區中山里水源路３７２號,24.343101500000003,120.628654,化學製品業,清潔用品及化粧品製造業,,洗髮精，香水，乳液，洗面乳，髮乳
台灣君代有限公司,臺中市外埔區水美里水美路２８３號,24.33577,120.626205,化學製品業,清潔用品及化粧品製造業,,化妝品（粉劑，含爽身粉，液劑）
台灣君代生技有限公司,臺中市外埔區水美里水美路２８５巷１號１樓,24.33578,120.6256,化學製品業,清潔用品及化粧品製造業,,清潔用品
銳基國際股份有限公司,臺中市大甲區薰風里光明路３５號,24.3438435,120.62438999999999,藥品及醫用化學品業,醫用化學製品製造業,,ＩＱ２０００ＷＳＳＶ
宏記冷凍食品股份有限公司,臺中市外埔區水美里水美路仁美巷２９、３１號,24.3357468,120.6272,食品及飼品業,乳品製造業,,冰棒，冰淇淋，霜淇淋，羊肉爐鍋品
維格工業股份有限公司,臺中市外埔區水美里水美路２６３號,24.335523600000002,120.62635,其他運輸工具零件業,自行車零件製造業,,自行車零件
東繹企業有限公司,臺中市外埔區水美里水美路１２４號,24.335531200000002,120.626488,機械設備業,輸送機械設備製造業,,天車、吊車
榮顯企業有限公司,臺中市外埔區水美里水美路２８１巷１５號,24.3354969,120.625961,金屬製品業,金屬模具製造業,,模具
千鐘工業股份有限公司,臺中市外埔區水美里水美路２８５巷１１號,24.3354053,120.62485500000001,基本金屬業,鋼鐵鑄造業,,鋼鑄件、合金鋼鑄件
家茂國際事業有限公司二廠,臺中市外埔區水美里水美路仁美巷６４號１樓,24.335657100000002,120.628143,電力設備業,其他家用電器製造業,,家用熱水器及飲水機裝配加工
外埔有限公司,臺中市外埔區水美里水美路仁美巷１號,24.3352566,120.626938,皮革毛皮製品業,行李箱及手提袋製造業,,塑膠鞄，袋箱
威盛精密工業社,臺中市大甲區義和里義和二街１６８巷３６弄１３號１樓,24.3372612,120.621475,金屬製品業,未分類其他金屬製品製造業,,其他金屬製品
家茂國際事業有限公司工廠,臺中市外埔區水美里水美路仁美巷８２之９號,24.335371,120.62841,成衣及服飾品業,成衣製造業,,內、衣褲
軍震企業股份有限公司,臺中市大甲區中山里水源路４５２巷７６號,24.342697100000002,120.630707,其他運輸工具零件業,自行車零件製造業,,腳踏
軍典企業股份有限公司,臺中市大甲區中山里水源路４５２巷７２號,24.342718100000003,120.63094299999999,其他運輸工具零件業,自行車零件製造業,,腳踏車零件（腳踏板裝配）
欣盛豐企業有限公司,臺中市大甲區南陽里中山路一段６０２號１樓,24.341898,120.620705,皮革毛皮製品業,行李箱及手提袋製造業,,旅行箱
偉達精密工業有限公司,臺中市大甲區義和里義和一街８７號,24.3394737,120.62028500000001,金屬製品業,金屬模具製造業,,模具、射出零件
聖弘精密有限公司,臺中市大甲區中山里甲后路五段６７２號,24.345172899999998,120.62835700000001,機械設備業,其他通用機械設備製造業,,機械零件
堃傑工業股份有限公司,臺中市大甲區義和里中山路一段５８３之２號,24.3416462,120.620186,金屬製品業,未分類其他金屬製品製造業,,五金機械零件，鋼模，汽機車零件
慶鎂紙器股份有限公司,臺中市外埔區水美里水美路２２９之１號,24.3340263,120.627075,紙漿、紙及紙製品業,瓦楞紙板及紙容器製造業,,紙器，紙盒製造
慶鎂紙器股份有限公司二廠,臺中市外埔區水美里水美路２２９之２號,24.3340263,120.627075,紙漿、紙及紙製品業,瓦楞紙板及紙容器製造業,,紙容器、紙箱
茗泰企業社,臺中市大甲區新美里順天路１０３號,24.344011300000002,120.621346,皮革毛皮製品業,其他皮革及毛皮製品製造業,,皮包製造加工
銘銀科技有限公司,臺中市外埔區水美里水美路２１５之２號１樓,24.3337574,120.627991,非金屬礦物製品業,平板玻璃及其製品製造業,,玻璃及其製品
銘金科技有限公司,臺中市外埔區水美里水美路２１５之３號１樓,24.3337574,120.627991,非金屬礦物製品業,其他玻璃及其製品製造業,,石英、陶瓷、單晶矽、炭化矽
香晶食品有限公司,臺中市外埔區水美里山美路３６８號,24.3348885,120.62114,食品及飼品業,調味品製造業,,醬包
永錠精密工業有限公司,臺中市外埔區水美里山美路４３６號１樓,24.3348885,120.62114,金屬製品業,金屬模具製造業,,機械零件加工
來成塑膠企業股份有限公司外埔廠,臺中市外埔區水美里水美路２２７號,24.333004000000003,120.62683899999999,塑膠製品業,其他塑膠製品製造業,,塑膠輪
明易捲門材料有限公司,臺中市外埔區水美里水美路１７１號１樓,24.33384,120.629974,金屬製品業,金屬結構製造業,,金屬結構及建築組件
志興橡膠工廠,臺中市外埔區大東里甲東路２０６巷１號,24.3416023,120.633553,汽車及零件業,汽車零件製造業,,橡膠壓出（汽車用橡膠零件）
明大化學製藥股份有限公司,臺中市外埔區水美里水美路５２號,24.33405,120.630661,藥品及醫用化學品業,西藥製造業,,西藥製劑
晨凱工程股份有限公司大甲廠,臺中市大甲區新美里永順街１０６號１樓,24.343614600000002,120.619293,金屬製品業,金屬建築組件製造業,Ｈ型鋼、鐵,鐵材二次加工
寶安塑膠工業有限公司,臺中市大甲區中山里甲后路五段２７７巷５３號,24.3436222,120.63298799999998,皮革毛皮製品業,行李箱及手提袋製造業,,塑膠皮包
明勵印刷實業股份有限公司,臺中市外埔區水美里水美路１６５巷１１號,24.3335,120.63022600000001,印刷及儲存媒體複製業,印刷業,,各種文具，中外紙張，教育用品，名片，請帖
裕珍馨食品股份有限公司外埔廠,臺中市外埔區大東里甲后路四段５３９號１至３樓,24.3393822,120.641426,食品及飼品業,烘焙炊蒸食品製造業,,奶油酥餅、中式糕餅、麵包
向陽瑋業股份有限公司,臺中市外埔區大東里甲后路四段５８９號,24.3406677,120.640953,化學製品業,清潔用品及化粧品製造業,,清潔劑
大穎食品股份有限公司外埔廠,臺中市外埔區大東里甲后路６３３號４、５樓,24.340765,120.641281,食品及飼品業,烘焙炊蒸食品製造業,,糖果及烘焙食品（奶油酥餅）
國順豐工業社,臺中市外埔區大東里大馬路５０６號,24.341203699999998,120.641342,機械設備業,其他通用機械設備製造業,,其他機械
英谷塑膠興業股份有限公司,臺中市外埔區大東里甲后路五段４６巷８９號,24.342144,120.64058700000001,塑膠製品業,塑膠皮、板及管材製造業,,塑膠製品（雨衣，衣櫥，書包，皮件，皮包）
一成陶器工廠,臺中市外埔區大東里大馬路莊內巷１８２號,24.341829999999998,120.642426,非金屬礦物製品業,其他陶瓷製品製造業,,陶瓷藝術品
駿騏國際有限公司二廠,臺中市外埔區大東里大馬路３６３號,24.34065,120.64335600000001,汽車及零件業,汽車零件製造業,,汽車零配件
大化實業股份有限公司,臺中市外埔區大東里甲東路２７號,24.3414211,120.638145,塑膠製品業,其他塑膠製品製造業,,塑膠產品
寶島米行,臺中市外埔區大東里大馬路４０８號,24.3407211,120.644135,食品及飼品業,碾榖業,,糙米
科宇塑膠工業股份有限公司一廠,臺中市外埔區大東里甲后路７０６巷２號,24.34294,120.642128,塑膠製品業,其他塑膠製品製造業,,塑膠桶、家庭塑膠五金
進新機械廠,臺中市外埔區大東里甲東路３３巷１８號,24.339942899999997,120.637047,機械設備業,其他通用機械設備製造業,,各項破碎機（含木材）
鎮裕事業有限公司,臺中市外埔區大東里甲后路五段１３０巷４６弄３７號,24.34389,120.63876299999998,紡織業,其他紡織品製造業,,其他紡織製品
明昌國際工業股份有限公司,臺中市外埔區大東里大馬路３５４號,24.34047,120.645622,家具業,金屬家具製造業,鐵板、溶劑、五金零件,鋼製家具類（桌椅、金庫、角鋼架）
世夆有限公司,臺中市外埔區大東里甲后路五段１３０巷３０弄１６號,24.3435,120.637932,塑膠製品業,其他塑膠製品製造業,,塑膠零件、配件
大集塑膠企業社,臺中市外埔區大東里甲后路五段１３０巷３０弄７號,24.34362,120.637878,塑膠製品業,其他塑膠製品製造業,,塑膠製品
協和精密製模廠,臺中市外埔區大東里甲后路五段１３０巷３０弄５號,24.3436241,120.63784,金屬製品業,金屬模具製造業,,塑膠製品
克維特有限公司,臺中市外埔區大東里甲后路五段１３０巷４６弄２０號,24.3438282,120.63806899999999,機械設備業,其他通用機械設備製造業,,封口機、充填機、包裝機、貼標機
展弘企業有限公司,臺中市外埔區大東里甲東路２０６巷５號１樓,24.3421078,120.6362,紙漿、紙及紙製品業,瓦楞紙板及紙容器製造業,,其他紙器
新鉅科技股份有限公司,臺中市外埔區大東里甲東路３５、３７號,24.3408871,120.63543700000001,電腦電子及光學品業,其他光學儀器及設備製造業,,塑膠製品射出、其他金屬製品
聯勤實業股份有限公司,臺中市外埔區大東里大馬路３１０號,24.339996300000003,120.64664499999999,基本金屬業,鋼鐵鑄造業,,鑄件
佳穩工業有限公司一廠,臺中市外埔區大東里甲后路五段１８６巷５號,24.3436871,120.636467,金屬製品業,金屬建築組件製造業,,電捲門修理、鐵門維修
名揚工業有限公司,臺中市外埔區大東里大馬路莊內巷７號,24.340587600000003,120.647194,皮革毛皮製品業,行李箱及手提袋製造業,,各種塑膠皮包
鈺協企業有限公司,臺中市外埔區大東里甲后路五段１８６巷４５號,24.3445225,120.6367,金屬製品業,金屬模具製造業,,模具、模具修改
至翔工業有限公司,臺中市外埔區大東里大馬路莊內巷３號,24.340517000000002,120.64731599999999,機械設備業,輸送機械設備製造業,,輸送機、輸送帶
鴻馨企業股份有限公司,臺中市外埔區大東里甲后路五段２３０巷３３號,24.34443,120.636284,其他運輸工具零件業,自行車零件製造業,,運動器材（自行車腳踏）裝配
世旺鐵工廠股份有限公司,臺中市外埔區大東里大馬路莊內巷２號,24.340410000000002,120.647675,金屬製品業,金屬結構製造業,,腳踏車（自行車）架膠合
永豐盛科技有限公司,臺中市外埔區大同里后寮路１１之１號,24.333988199999997,120.64331100000001,機械設備業,其他金屬加工用機械設備製造業,,金屬加工用機械設備、機臺買賣
達源貼合股份有限公司,臺中市外埔區大東里甲后路五段１８５巷４３弄１號,24.3434219,120.6348,塑膠製品業,塑膠皮、板及管材製造業,,泡棉貼合、特多龍布貼泡棉
聯鈺企業股份有限公司,臺中市外埔區大東里大馬路３１２號,24.340168,120.64798700000001,基本金屬業,鋼鐵鑄造業,,鑄件
保強工業有限公司分廠,臺中市外埔區大東里甲后路四段５０１巷８６號,24.3353958,120.6356,塑膠製品業,其他塑膠製品製造業,,塑膠射出品、模具
千譽工業股份有限公司,臺中市外埔區大同里后寮路８號,24.334436399999998,120.64528700000001,機械設備業,其他通用機械設備製造業,,機械零件加工
亨達股份有限公司,臺中市外埔區大同里后寮路１２之７號,24.333204300000002,120.643768,其他運輸工具零件業,自行車零件製造業,,自行車零件製造
台甲東糧食加工廠有限公司,臺中市外埔區大東里大馬路２９８號,24.34009,120.648781,食品及飼品業,碾榖業,,糙米，白米
正旺碾米工廠有限公司,臺中市外埔區大東里大馬路２９６號,24.340086,120.64893300000001,食品及飼品業,碾榖業,,糙米、白米
寶記不銹鋼工業有限公司,臺中市外埔區大東里甲后路五段３０８號,24.3447762,120.634621,金屬製品業,鍋爐、金屬貯槽及壓力容器製造業,,不銹鋼水塔
省冠工業有限公司,臺中市外埔區大東里大馬路２９０號,24.3404617,120.649033,金屬製品業,未分類其他金屬製品製造業,,五金零件，汽機車零件，自行車零件，凡而
旭東機械工業股份有限公司外埔廠,臺中市外埔區大同里后寮路１５之６號,24.3322239,120.642944,機械設備業,其他金屬加工用機械設備製造業,,自行車製程專用設備
瑞馳機械工業股份有限公司工廠,臺中市大甲區中山里開元路４４號,24.345918700000002,120.63515500000001,機械設備業,未分類其他專用機械設備製造業,,金屬加工用機械設備
新晃化工有限公司,臺中市外埔區中山里大馬路１５５號,24.338705100000002,120.65684499999999,化學製品業,塗料、染料及顏料製造業,,塗料、染料及顏料
林佳邦貿易有限公司,臺中市外埔區中山里大馬路２３８號,24.3390026,120.653557,塑膠製品業,塑膠膜袋製造業,,太空袋
升揚企業有限公司工廠,臺中市外埔區中山里中山路４０１之１號１樓,24.337629999999997,120.654991,金屬製品業,未分類其他金屬製品製造業,,五金零件加工
台中縣外埔鄉農會碾米工廠中山分廠,臺中市外埔區中山里大馬路１９８號,24.339776999999998,120.66033200000001,食品及飼品業,碾榖業,,糙米
峯誼不銹鋼工業有限公司,臺中市外埔區中山里東西巷９１號,24.3398876,120.662949,金屬製品業,鍋爐、金屬貯槽及壓力容器製造業,,不銹鋼水塔
長譽工業股份有限公司工廠,臺中市外埔區大同里甲后路四段１６號,24.3337383,120.65141299999999,其他運輸工具零件業,自行車零件製造業,,自行車零件
易興工業有限公司,臺中市外埔區六分里六分路２８０巷２３號,24.3325539,120.65666200000001,金屬製品業,未分類其他金屬製品製造業,,其他金屬製品
富博股份有限公司,臺中市外埔區馬鳴里新厝路４６－６、４６－５號,24.3400574,120.66946399999999,其他運輸工具零件業,自行車零件製造業,,機械、汽機車、自行車零件加工
永日鐵工廠股份有限公司,臺中市外埔區馬鳴里新厝路４９號,24.341621399999998,120.66913600000001,機械設備業,其他通用機械設備製造業,,軸承零件加工
威叡企業社二廠,臺中市外埔區馬鳴里新厝路８０－１號,24.337492,120.66848799999998,金屬製品業,未分類其他金屬製品製造業,,刀桿、筒夾
翔圳工業有限公司二廠,臺中市外埔區馬鳴里新厝路８１－５號,24.3374157,120.66774,金屬製品業,未分類其他金屬製品製造業,,手工具
旭台浪板股份有限公司二廠,臺中市外埔區馬鳴里大馬路１－１號,24.341079999999998,120.6663,金屬製品業,金屬建築組件製造業,,其他金屬建築組件
貫呈股份有限公司,臺中市外埔區馬鳴里土城路５６８號,24.3432,120.672577,金屬製品業,未分類其他金屬製品製造業,,鑄輪、砂輪
旭麓企業有限公司,臺中市外埔區馬鳴里土城路４４０號,24.3434353,120.672729,金屬製品業,未分類其他金屬製品製造業,,機械另件加工
瑜豐實業股份有限公司,臺中市外埔區馬鳴里大馬路１號,24.340978600000003,120.665878,紡織業,其他紡織品製造業,,皮包
富博股份有限公司,臺中市外埔區馬鳴里土城路４５６號,24.3439522,120.67303500000001,其他運輸工具零件業,自行車零件製造業,,機械，汽機車，自行車零件加工，運動器材零件
乘你安科技股份有限公司,臺中市外埔區中山里東西巷６號,24.3387012,120.664925,其他製造業,其他醫療器材及用品製造業,,噴霧機、零件
柏俊有限公司,臺中市外埔區馬鳴里土城路４２０號,24.345193899999998,120.6738,機械設備業,其他通用機械設備製造業,中碳鋼、磨光圓鐵,通用機械設備、粉類其他金屬加工處理
陵偉刀片有限公司,臺中市外埔區鐵山里長生路１０９號,24.3450813,120.666229,金屬製品業,金屬刀具及手工具製造業,,刀具
上揮實業有限公司,臺中市外埔區永豐里六分路１２８之８號,24.333156600000002,120.67170700000001,塑膠製品業,其他塑膠製品製造業,,未分類其他塑膠製品製造
泓昱工業有限公司工廠,臺中市外埔區永豐里六分路１２８之７號,24.33308,120.671783,金屬製品業,未分類其他金屬製品製造業,,體育用品製造
巨帥實業股份有限公司工廠,臺中市外埔區永豐里六分路１２８之６號,24.3329926,120.671829,機械設備業,其他通用機械設備製造業,,路步機、重量訓練器材
東元開閉機股份有限公司,臺中市外埔區永豐里１０鄰六分路１５８之５號,24.332716,120.6695,電力設備業,發電、輸電及配電機械製造業,,馬達及零件
三元電動捲門馬達有限公司,臺中市外埔區永豐里１０鄰六分路１５８號,24.332716,120.6695,電力設備業,發電、輸電及配電機械製造業,,馬達
東元齒輪有限公司,臺中市外埔區永豐里六分路１５８－６號,24.332548100000004,120.669579,機械設備業,其他通用機械設備製造業,,通用機械設備
源泰豐食品有限公司,臺中市外埔區永豐里六分路１２３之７號１樓,24.332336399999996,120.67038000000001,食品及飼品業,未分類其他食品製造業,,蘿蔔乾、豆豉
賢和興業有限公司二廠,臺中市外埔區永豐里六分路１２０號,24.3331013,120.674866,機械設備業,未分類其他專用機械設備製造業,,銅件銲補加工
旭台浪板股份有限公司,臺中市外埔區廍子里風坑路２６號,24.3427258,120.68413500000001,金屬製品業,金屬建築組件製造業,,隔熱鋼板、錏板成型加工、其他金屬製品
禾朋企業有限公司,臺中市外埔區馬鳴里新厝路２１號１樓,24.3404827,120.68051899999999,金屬製品業,金屬彈簧及線製品製造業,,掛勾
世合實業有限公司外埔廠,臺中市外埔區永豐里六分路七支巷６之３號,24.335006699999997,120.682648,機械設備業,其他金屬加工用機械設備製造業,,機械零件
元冠精密有限公司,臺中市外埔區永豐里六分路７０號,24.3337536,120.68193799999999,其他運輸工具零件業,自行車零件製造業,,自行車零件、五金零件
尚源工業股份有限公司,臺中市外埔區永豐里六分路７２號,24.33322,120.68206,其他運輸工具零件業,自行車零件製造業,,自行車後叉骨、鐵管、取付、自行車、運動車零件、車架
宏暻有限公司,臺中市外埔區土城里土城路３１１號,24.3443069,120.698761,塑膠製品業,塑膠皮、板及管材製造業,,ＰＶＣ膠布
翔盛麵粉加工廠,臺中市外埔區廍子里土城路３６７號,24.3444939,120.696579,食品及飼品業,麵條及粉條類食品製造業,,麵腸
孟強企業股份有限公司,臺中市外埔區土城里土城南路５５號,24.33773,120.70765700000001,金屬製品業,金屬結構製造業,,鋼管支柱、支撐架、水平架、調整器
世亮企業股份有限公司,臺中市外埔區土城里土城南路５２號,24.3376713,120.707664,金屬製品業,金屬結構製造業,,角鐵踏板、鷹架等
康鼎勤業股份有限公司,臺中市外埔區永豐里外埔路１８９號,24.3337116,120.704765,金屬製品業,未分類其他金屬製品製造業,,金屬垃圾桶、花箱、座椅、金屬滑梯、鞦韆
宗達企業股份有限公司,臺中市外埔區廍子里土城路２３０號,24.3461685,120.6942,其他運輸工具零件業,自行車製造業,,自行車裝配
穗德碾米工廠,臺中市外埔區土城里土城中路３號,24.341623300000002,120.71727,食品及飼品業,碾榖業,,白米
興達碾米廠,臺中市外埔區土城里土城中路２２號,24.3441162,120.7136,食品及飼品業,碾榖業,,白米
摩士智能股份有限公司,臺中市外埔區土城里土城南路７號,24.3350677,120.711044,電力設備業,其他家用電器製造業,,家用電器
達運精密工業股份有限公司永豐廠,臺中市外埔區永豐里外埔路１６５、１６９號,24.3332367,120.71086899999999,電子零組件業,液晶面板及其組件製造業,,光電科技產品及週邊零組件、液晶電視及模組代工
竣益工業股份有限公司,臺中市外埔區永豐里外埔路６６號,24.3332367,120.71086899999999,其他運輸工具零件業,自行車零件製造業,,自行車及其零件、育樂用品
汘鋒工業股份有限公司,臺中市外埔區永豐里外埔路６８號１樓,24.3332367,120.71086899999999,其他運輸工具零件業,自行車零件製造業,,自行車及其零件、育樂用品
大益氣體股份有限公司外埔廠,臺中市外埔區永豐里外埔路７６號,24.3332367,120.71086899999999,化學材料業,化學原材料製造業,,各類氣體
貝特機械股份有限公司一廠,臺中市后里區公館里三豐路五段５２９號,24.3386345,120.73073600000001,機械設備業,木工機械設備製造業,,木工自動送材機，貼邊機
貝特機械股份有限公司,臺中市后里區公館里三豐路五段５１５號,24.33856,120.730888,機械設備業,木工機械設備製造業,,木工自動送材機、貼邊機
瑞光砂石有限公司后里廠,臺中市后里區公館里新店莊１之６０號,24.34217,120.72896599999999,非金屬礦物製品業,未分類其他非金屬礦物製品製造業,,其他非金屬礦物製品
弘錠企業有限公司,臺中市后里區公館里重劃西路１４６號,24.3373,120.72784399999999,金屬製品業,未分類其他金屬製品製造業,,坐跪椅、螺母、、等
承益重機械行,臺中市后里區公館里三豐路五段７４６號,24.34168,120.73239099999999,金屬製品業,未分類其他金屬製品製造業,,重機械
衆程科技股份有限公司,臺中市后里區公館里三豐東路８８號,24.3399372,120.734169,機械設備業,金屬切削工具機製造業,,其他金屬製品、金屬加工用機械、專用生產機械
海根精密有限公司分廠,臺中市后里區公館里新店莊２０號,24.3429165,120.724319,金屬製品業,未分類其他金屬製品製造業,,金屬製品製造加工
騰達手套行,臺中市后里區公館里安眉路８２－１號,24.3344212,120.724731,成衣及服飾品業,服飾品製造業,,手套
冠贏國際有限公司,臺中市后里區公館里安眉路８２之１３２號,24.3344212,120.724731,化學製品業,清潔用品及化粧品製造業,,液劑、乳劑化妝品
玖鋼工程有限公司,臺中市后里區公館里尾社莊６０號,24.334329999999998,120.723946,金屬製品業,金屬建築組件製造業,,金屬建築組件
甲騰企業有限公司,苗栗縣三義鄉鯉魚潭村１鄰鯉魚口１之２０號,24.343239999999998,120.748878,非金屬礦物製品業,石材製品製造業,,砂石、混凝土
偉宸精密企業有限公司,臺中市清水區高北里護岸路１２８－３７號,24.3219662,120.565872,機械設備業,其他通用機械設備製造業,,機械金屬零件
弘泰工業社,臺中市清水區高北里護岸路１２１－３號,24.3210125,120.56517,汽車及零件業,汽車零件製造業,,金屬加工、螺絲、螺帽、鉚釘
富譯工業有限公司一廠,臺中市清水區高北里護岸路１２８之２１號,24.3200474,120.565132,金屬製品業,金屬刀具及手工具製造業,,板手
江岱電機行股份有限公司東安廠,臺中市大甲區文曲里東安路２２３號,24.329797699999997,120.60202,電力設備業,發電、輸電及配電機械製造業,,發電、輸電、配電機械
鋐城工業股份有限公司,臺中市大甲區文曲里東安路１８７號,24.3286266,120.60295900000001,皮革毛皮製品業,鞋類製造業,,塑膠射出成型品
溪邊工業股份有限公司,臺中市大甲區文曲里東安路１７３之１１號,24.3280487,120.6036,其他運輸工具零件業,自行車零件製造業,,自行車另件加工
煜機實業有限公司,臺中市大甲區文曲里東安路１２８之５號,24.3284855,120.60365300000001,機械設備業,未分類其他專用機械設備製造業,鋼、鐵材、五金,專用生產機械
世邦興業股份有限公司,臺中市大甲區文曲里東安路１０８之１２號,24.32901,120.605034,機械設備業,金屬切削工具機製造業,,工作母機（工具機），機械配件
正宏紙器股份有限公司分廠,臺中市外埔區水美里二崁路７０６巷１１號,24.331224399999996,120.618195,紙漿、紙及紙製品業,瓦楞紙板及紙容器製造業,,各種紙器紙盒製品製造加工
泉勝木工股份有限公司,臺中市外埔區水美里二崁路６３６號,24.326242399999998,120.62698400000001,木竹製品製造業,其他木竹製品製造業,,木板
欣西格林股份有限公司,臺中市外埔區水美里二崁路６３８號,24.324358,120.626678,其他製造業,其他未分類製造業,,跑步帶
泰釧機械工程有限公司,臺中市外埔區水美里二崁路６６０巷３０號,24.328975699999997,120.624252,金屬製品業,金屬結構製造業,,鋼架，鐵門窗，鐵欄
貫宏精密有限公司外埔廠,臺中市外埔區水美里二崁路５８８巷２１號,24.3267822,120.63028,機械設備業,其他通用機械設備製造業,,鋁件加工
皇絖工業社二廠,臺中市外埔區水美里二崁路５８８巷２３號,24.3268585,120.63029499999999,機械設備業,其他通用機械設備製造業,,機械設備
樺毅科技有限公司,臺中市外埔區水美里二崁路５８８巷２７號１樓,24.32698,120.63031000000001,其他運輸工具零件業,自行車零件製造業,,金屬手工具及模具，自行車及其零件
惠嘉電實業股份有限公司,臺中市外埔區水美里二崁路５８８巷１０號,24.326604800000002,120.630478,機械設備業,未分類其他專用機械設備製造業,,廢家用電器（電視機、冰箱、洗衣機、冷氣機）、廢資訊（電腦、螢幕）
旺溢企業有限公司,臺中市外埔區水美里二崁路５８８巷３３號,24.3272572,120.63038600000002,食品及飼品業,未分類其他食品製造業,,醬包
利盛企業社,臺中市外埔區水美里二崁路８３巷３１號,24.3272572,120.63038600000002,金屬製品業,未分類其他金屬製品製造業,,五金零件加工
釬鈺金屬工業有限公司,臺中市外埔區水美里二崁路６７０巷１１號,24.329431500000002,120.623177,家具業,金屬家具製造業,,不銹鋼廚房調理器具、鐵材及其他
鑫大金屬有限公司,臺中市外埔區水美里二崁路５８８巷３７號,24.32755,120.630417,金屬製品業,其他金屬加工處理業,,金屬加工處理
烽鈿企業有限公司,臺中市外埔區水美里二崁路５８８巷１６號,24.3268433,120.6306,塑膠製品業,其他塑膠製品製造業,,螺絲、塑膠之運動器材外套、塑膠之手提袋
豐鎧工業股份有限公司,臺中市外埔區水美里二崁路５８８巷１８號,24.3268433,120.6306,機械設備業,其他金屬加工用機械設備製造業,,螺絲機械、機械零件
嶠豐企業有限公司外埔廠,臺中市外埔區水美里二崁路５８８巷３２號,24.325265899999998,120.6305,金屬製品業,其他金屬加工處理業,,金屬製品加工
穎億股份有限公司,臺中市外埔區水美里二崁路５８８巷１２號,24.3265953,120.63073,機械設備業,其他通用機械設備製造業,,ＣＮＣ車床零件加工、機械五金零件加工
良欣氣體股份有限公司,臺中市外埔區水美里二崁路５８８巷２２號,24.327270000000002,120.630936,化學材料業,化學原材料製造業,,工業用氬氣、氧氣、氮氣、二氧化碳等
惠嘉電實業股份有限公司六廠,臺中市外埔區水美里二崁路５６８巷５號,24.3253727,120.63103500000001,塑膠製品業,其他塑膠製品製造業,,廢塑膠料
亘曜機械股份有限公司,臺中市外埔區水美里二崁路５６８巷７號,24.3253727,120.63103500000001,機械設備業,木工機械設備製造業,,木工機臺
興冠全機械股份有限公司,臺中市外埔區水美里二崁路５６８巷９號,24.3253727,120.63103500000001,金屬製品業,金屬模具製造業,,機械另件
興豐工業有限公司,臺中市外埔區水美里二崁路６７０巷７５號,24.331296899999998,120.62665600000001,機械設備業,其他金屬加工用機械設備製造業,,金屬切削工具機、金屬加工用機械機、手工具、模具
長奕國際實業有限公司,臺中市外埔區水美里二崁路７０６巷８８號,24.330366100000003,120.622528,金屬製品業,未分類其他金屬製品製造業,,銑床
鼎冠精密有限公司,臺中市外埔區水美里二崁路７０６巷８８號,24.330366100000003,120.622528,機械設備業,其他通用機械設備製造業,鋁合金、不銹鋼,自行車零件製造、電子零件製造、咖啡機零件製造
達聚塑膠有限公司,臺中市外埔區水美里二崁路７０６巷７１、８８號,24.330366100000003,120.622528,塑膠製品業,其他塑膠製品製造業,,塑膠粒
台中眾鈴汽車股份有限公司二廠,臺中市外埔區二崁路５６８巷２號,24.3253212,120.632011,汽車及零件業,車體製造業,,底盤車
寶島國際木藝品有限公司,臺中市外埔區水美里二崁路５６６號,24.3247871,120.632378,木竹製品製造業,其他木竹製品製造業,,木材製品（木片）
明昌國際工業股份有限公司二廠,臺中市外埔區水美里二崁路７０６巷６５號,24.3309917,120.62181100000001,家具業,金屬家具製造業,鋼板、溶劑、五金零件,鋼鐵家具（桌椅、金庫、角鋼架）
百辰機械股份有限公司一廠,臺中市外埔區水美里二崁路５６８巷１１號,24.3260155,120.632774,機械設備業,其他通用機械設備製造業,,其他機械、汽車及其零件、機車及其零件、自行車及其零件、其他運
翔煒橡膠工業有限公司,臺中市外埔區水美里二崁路７０６巷４７號,24.331028,120.62126200000002,橡膠製品業,工業用橡膠製品製造業,,橡膠製成品
全賢實業有限公司,臺中市外埔區水美里二崁路６７１、６７３號,24.3296146,120.61998700000001,木竹製品製造業,其他木竹製品製造業,,木器製品（車只，珠寶箱，層架）
佑麗康企業有限公司,臺中市外埔區水美里二崁路６８９號,24.3296165,120.61998700000001,化學製品業,清潔用品及化粧品製造業,,美髮用品
狄成橡膠工業有限公司,臺中市外埔區水美里二崁路７０６巷４７號１樓,24.3313389,120.621017,橡膠製品業,其他橡膠製品製造業,,橡膠製品
群三工業有限公司,臺中市外埔區水美里二崁路５００巷２１號,24.3239479,120.63316299999998,機械設備業,其他通用機械設備製造業,,其他機械、汽車及其零件、機車及其零件、自行車及其零件
巨翔精密股份有限公司,臺中市外埔區水美里二崁路５００巷２５號,24.32395,120.633255,機械設備業,其他通用機械設備製造業,,其他機械零件
鎧全鐵材製品股份有限公司,臺中市外埔區水美里二崁路５６８巷２５號,24.327081699999997,120.633781,金屬製品業,其他金屬加工處理業,,鋼筋彎曲，裁剪，加工，鋼網之製造，加工
聖棋企業有限公司,臺中市外埔區水美里二崁路７０６巷３９弄５２號,24.3323746,120.621628,金屬製品業,未分類其他金屬製品製造業,,衣架、行李箱
海信有限公司工廠,臺中市外埔區水美里二崁路５６８巷２６號,24.325960000000002,120.634064,機械設備業,其他金屬加工用機械設備製造業,,銑床零件
美立固精機廠股份有限公司工廠,臺中市外埔區水美里二崁路５６８巷３０號,24.325960000000002,120.634064,機械設備業,金屬切削工具機製造業,,銑床及零件
百辰機械股份有限公司,臺中市外埔區水美里二崁路５６８巷２２號,24.3269081,120.634293,機械設備業,其他通用機械設備製造業,,其他機械、汽車及其零件、機車及其零件、自行車及其零件
鎧全鐵材製品股份有限公司第二工廠,臺中市外埔區水美里二崁路５６８巷２３號,24.3269081,120.634293,金屬製品業,其他金屬加工處理業,,鋼筋彎曲，裁剪，加工，鋼網之製造，加工
松長奇企業有限公司,臺中市外埔區水美里二崁路４５６號,24.324419,120.634377,其他製造業,體育用品製造業,,體育用品製造
清順實業股份有限公司,臺中市外埔區水美里水美路８９號,24.3305435,120.6334,金屬製品業,未分類其他金屬製品製造業,,其他金屬
旭慶傢俱廠,臺中市外埔區水美里二崁路３５６巷９號,24.3261185,120.639191,家具業,木製家具製造業,,木椅
力多企業社,臺中市外埔區水美里二崁路３３６號１樓,24.324968300000002,120.639977,其他運輸工具零件業,自行車零件製造業,,自行車零件（主）、高爾夫球桿
金佑工業股份有限公司,臺中市外埔區水美里二崁路３５６巷１號,24.325222,120.63877099999999,其他製造業,體育用品製造業,,體育用品及其零配件
功揚企業股份有限公司第一廠,臺中市外埔區三崁里二崁路３１１號,24.3250313,120.643234,木竹製品製造業,其他木竹製品製造業,,家具、木器製器珠寶、木竹製品、非金屬家
聖豐木業股份有限公司分廠,臺中市外埔區三崁里二崁路３１１號,24.3250313,120.643234,木竹製品製造業,其他木竹製品製造業,,木製家具加工
鼎壹企業社,臺中市外埔區水美里二崁路３６０號,24.3245735,120.63806899999999,其他製造業,體育用品製造業,,中管
