FactoryName,Addr,lat,lng,MiddleIndustry,DetailIndustry,Material,ProductName
剛毅機械有限公司仁德廠,臺南市仁德區中洲里中洲１之９１、１之９２號,22.9014378,120.26653300000001,非金屬礦物製品業,未分類其他非金屬礦物製品製造業,水泥、玻璃粒料、二分石、廢玻璃、不銹鋼管材、水,建築材料、工業用研磨材料
立首有限公司,高雄市阿蓮區中路里中路１２０號,22.89519,120.28411100000001,金屬製品業,螺絲、螺帽及鉚釘製造業,,鋼鐵螺絲、螺帽
章晟企業有限公司二廠,高雄市阿蓮區中路里中路１４８之１２號,22.89519,120.28411100000001,金屬製品業,螺絲、螺帽及鉚釘製造業,,螺絲、螺帽
振億企業社,高雄市阿蓮區中路里中路２８０號,22.89519,120.28411100000001,金屬製品業,未分類其他金屬製品製造業,,其他金屬製品
阿蓮隆盛螺絲有限公司,高雄市阿蓮區中路里中路１４８之４７號,22.89519,120.28411100000001,金屬製品業,螺絲、螺帽及鉚釘製造業,,螺絲加工、螺絲螺帽製造
重勇股份有限公司,高雄市阿蓮區中路里中路１２１號,22.8936081,120.293549,其他製造業,其他未分類製造業,,塑膠髮夾、髮飾
立首有限公司一廠,高雄市阿蓮區中路里中路４３之１０、４３之１１、４３之１２號,22.8937035,120.2948,金屬製品業,螺絲、螺帽及鉚釘製造業,,鋼鐵螺絲、螺帽
永大特殊鋼股份有限公司,高雄市阿蓮區中路里中路２之２２號,22.893253299999998,120.295006,基本金屬業,鋼鐵冶鍊業,,特殊鋼、熱處理加工、研磨加工
成益工廠,高雄市阿蓮區中路里中路１３７之３號,22.8969612,120.28901699999999,金屬製品業,未分類其他金屬製品製造業,,水管接頭
賀立安有限公司,高雄市阿蓮區中路里中路１５１之４６號,22.8969612,120.28901699999999,塑膠製品業,塑膠外殼及配件製造業,,塑膠製品
捷越鍛造工業股份有限公司中路廠,高雄市阿蓮區中路里中路１５１之５６號,22.8969612,120.28901699999999,金屬製品業,未分類其他金屬製品製造業,,其他金屬製品
章晟企業有限公司,高雄市阿蓮區中路里中路１６３號,22.8969612,120.28901699999999,金屬製品業,螺絲、螺帽及鉚釘製造業,,螺絲、螺帽
卸福企業社,高雄市阿蓮區中路里中路７３之４號,22.8903675,120.293449,汽車及零件業,汽車零件製造業,,汽車零件，機車及其零件
信興機械工程股份有限公司,高雄市阿蓮區中路里中路７７之１２號,22.8903675,120.293449,金屬製品業,鍋爐、金屬貯槽及壓力容器製造業,,金屬容器
雙聖興業有限公司,高雄市阿蓮區中路里中路９號,22.890376999999997,120.294922,金屬製品業,未分類其他金屬製品製造業,,電器零件：麥克風插座及插頭、銅管
宏昱興企業有限公司,高雄市阿蓮區中路里中路９之６６號,22.890376999999997,120.294922,金屬製品業,螺絲、螺帽及鉚釘製造業,,螺帽
永翔企業社,高雄市阿蓮區中路里中路９之１８號,22.890007,120.29484599999999,機械設備業,其他金屬加工用機械設備製造業,,機械設備加工製造
詠勝昌股份有限公司阿蓮廠,高雄市阿蓮區中路里中路９之１號,22.890007,120.29484599999999,汽車及零件業,汽車零件製造業,,汽機車零件（矽膠變壓線）、高壓線、電木棒
合宏興業股份有限公司,高雄市阿蓮區中路里中路９之２２號,22.890007,120.29484599999999,電力設備業,配線器材製造業,,防爆金屬管件
品葉股份有限公司,高雄市阿蓮區中路里中路９之５０號,22.890007,120.29484599999999,金屬製品業,螺絲、螺帽及鉚釘製造業,,螺帽
佳聖企業社,高雄市阿蓮區中路１之３０號,22.8942032,120.300491,汽車及零件業,汽車零件製造業,,點火斷續器
晉弘強化塑膠企業行,高雄市阿蓮區中路里中路２９５－１０號,22.897447600000003,120.301224,塑膠製品業,其他塑膠製品製造業,,ＦＲＰ桶
侑城股份有限公司,高雄市阿蓮區中路里中路７４之１５號,22.888198899999995,120.29308300000001,金屬製品業,螺絲、螺帽及鉚釘製造業,,螺絲
聯豐生物科技股份有限公司,高雄市阿蓮區中路７４之５號,22.8881836,120.29338100000001,食品及飼品業,動物飼品製造業,黃豆,動物飼料發酵豆粉
尚展螺絲企業有限公司二廠,高雄市阿蓮區中路里中路１４８之３９號,22.8946819,120.3013,金屬製品業,螺絲、螺帽及鉚釘製造業,,螺絲
高林農貿股份有限公司湖內廠,高雄市湖內區環球路７３６之１號,22.8813381,120.250755,食品及飼品業,調味品製造業,,其他食品
誼晟生物科技股份有限公司,高雄市湖內區中山路一段１５０號,22.8803272,120.250648,食品及飼品業,動物飼品製造業,,礦物精、維生素、優多益
承昌鎢鋼製品有限公司高雄廠,高雄市湖內區民生街１２５之３號,22.8786049,120.24861100000001,金屬製品業,未分類其他金屬製品製造業,,其他金屬
亨剛精密工業有限公司湖內廠,高雄市湖內區民生街１２７號,22.8785954,120.248566,金屬製品業,其他金屬加工處理業,,鋁板裁剪
盈騰有限公司,高雄市湖內區湖東里民生街２１６號１樓,22.878458,120.24717700000001,食品及飼品業,未分類其他食品製造業,,洋蔥
鈦佳材料有限公司,高雄市湖內區民生街１３１－１號,22.8782177,120.248993,電子零組件業,其他光電材料及元件製造業,,壓合機買賣，光學膠加工
冠真企業有限公司,高雄市湖內區民生街１３１之３號,22.8782,120.24865700000001,食品及飼品業,製茶業,,綠茶粉
久隆食品廠,高雄市湖內區民生街１３１之２號,22.8782024,120.248772,食品及飼品業,未分類其他食品製造業,,冷凍蛋餅皮
國信食品股份有限公司高雄廠,高雄市湖內區大湖里中山路一段４４７巷２號,22.884462399999997,120.244408,食品及飼品業,乳品製造業,,發酵乳（乳酸菌飲料）、調味乳
聯富紙器股份有限公司湖內廠,高雄市湖內區湖內里民生街１３５號,22.8781776,120.2481,紙漿、紙及紙製品業,瓦楞紙板及紙容器製造業,,加工紙、紙容器
圭信企業股份有限公司,高雄市湖內區大湖里中山路一段２７８號,22.8859062,120.245438,金屬製品業,金屬熱處理業,,廢鋅、鋁錠、廢鐵、廢銅、不銹鋼
東源紙業股份有限公司湖內廠,高雄市湖內區湖內里民生街１３３號,22.87779,120.24819199999999,紙漿、紙及紙製品業,紙板製造業,,加工紙、紙容器
詮鑫工業股份有限公司,高雄市湖內區民生街１３３－１號,22.8777885,120.24819199999999,其他運輸工具零件業,機車零件製造業,,機車零件加工
台灣通力電梯股份有限公司高雄廠,高雄市湖內區民生街１２５之１號,22.877660000000002,120.24933600000001,機械設備業,其他通用機械設備製造業,,電梯
台灣立川實業股份有限公司高雄分廠,高雄市湖內區中山路一段２８７號,22.88661,120.24481200000001,金屬製品業,金屬彈簧及線製品製造業,鐵材,釘書針（建築裝潢用）
長輝事業股份有限公司,高雄市湖內區湖內里中山路一段１１０號,22.877924,120.251915,食品及飼品業,動植物油脂製造業,,黃豆粉、高蛋白豆粉、黃豆原油、精製大豆沙拉油
恩典工業有限公司,高雄市路竹區環球路６２３巷８、１０號,22.880570000000002,120.25438700000001,機械設備業,其他通用機械設備製造業,,機械設備加工
台灣立川實業股份有限公司高雄廠,高雄市湖內區湖內里中山路一段２８９號,22.8869286,120.24472,金屬製品業,金屬彈簧及線製品製造業,鐵線、膠水、鋼線、工業用釘,封箱針，木工針，釘書針，不銹鋼釘
耀上有限公司路竹廠,高雄市路竹區甲南里環球路６１６號,22.882598899999998,120.255692,金屬製品業,螺絲、螺帽及鉚釘製造業,,壁虎管、壁虎塞子
盛詮工業股份有限公司,高雄市湖內區湖東里中山路一段８３號,22.8759155,120.250648,金屬製品業,金屬模具製造業,,模具
盛詰科技股份有限公司,高雄市湖內區湖東里中山路一段９３巷５８號,22.8759,120.25095400000001,金屬製品業,金屬模具製造業,,其他模具
昌奕塑膠實業有限公司,高雄市湖內區中山路一段８１號,22.87572,120.2507,塑膠製品業,塑膠膜袋製造業,,ＰＥ袋
穎達企業社,高雄市湖內區大湖里民族街３巷１３號,22.8870659,120.24205800000001,金屬製品業,螺絲、螺帽及鉚釘製造業,,螺絲，螺帽加工
盛發企業工廠,高雄市路竹區甲南里環球路６０１號,22.88091,120.2568,其他製造業,其他未分類製造業,,人造木炭
興河實業社,高雄市湖內區大湖里民族街３巷６弄８號,22.8874474,120.24218799999998,其他運輸工具零件業,自行車零件製造業,,自行車及其零件
梅子工場有限公司,高雄市湖內區中山路一段９１巷３８弄１６號,22.8752632,120.25163300000001,食品及飼品業,未分類其他食品製造業,,珍珠粉圓
冠汯企業有限公司,高雄市路竹區環球路４５５號,22.880249,120.263893,汽車及零件業,車體製造業,,車體製造
宇順車業有限公司,高雄市路竹區環球路４５７號,22.880110000000002,120.26383200000001,汽車及零件業,車體製造業,,車體製造
環球水泥股份有限公司大湖石膏板廠,高雄市路竹區環球路４６１之２號,22.880879999999998,120.25918600000001,非金屬礦物製品業,未分類其他非金屬礦物製品製造業,,石膏板
利永環球科技股份有限公司高雄路竹電子廠,高雄市路竹區環球路４６１號,22.880879999999998,120.25918600000001,電子零組件業,未分類其他電子零組件製造業,,超薄型壓力感測元件等
環球水泥股份有限公司大湖預拌混凝土場,高雄市路竹區甲南里環球路４６１之１號,22.880879999999998,120.25918600000001,非金屬礦物製品業,預拌混凝土製造業,,預拌混凝土
金鉤有限公司,高雄市路竹區甲南里環球路４６１之１１號,22.87755,120.25827,金屬製品業,螺絲、螺帽及鉚釘製造業,,鑄件
油機工業股份有限公司新園廠,高雄市路竹區環球路９２號,22.87956,120.27571100000002,機械設備業,金屬切削工具機製造業,,立式ＣＮＣ車床、臥式ＣＮＣ車床
峻峯企業社,高雄市路竹區甲北里環球路２４２之１號,22.880245199999997,120.27356699999999,金屬製品業,金屬模具製造業,,沖具加工
雙㠦企業有限公司,高雄市路竹區甲北里環球路１５０巷３５１號,22.8869514,120.274406,機械設備業,其他通用機械設備製造業,,五金零件
順和實業社,高雄市路竹區甲北里環球路１５０巷２５１弄１１９號,22.8846188,120.27215600000001,金屬製品業,螺絲、螺帽及鉚釘製造業,,螺絲、螺帽加工
順曜企業社,高雄市路竹區甲北里環球路２０１之１０號,22.878995899999996,120.27303300000001,金屬製品業,金屬刀具及手工具製造業,,金屬手工具及模具
震南鐵線股份有限公司新園廠,高雄市路竹區環球路５６、５８、６０、６２、６６號,22.8793774,120.2929,基本金屬業,鋼鐵伸線業,,螺絲、鐵線
慈陽科技工業股份有限公司,高雄市路竹區竹園里環球路６８號,22.879751199999998,120.291183,化學材料業,化學原材料製造業,,氧化鋅．再製鋅錠
萬燦機械有限公司,高雄市路竹區竹園里新生路３３４巷７１號,22.8775921,120.295837,金屬製品業,螺絲、螺帽及鉚釘製造業,,不鏽鋼螺絲
重懋機械有限公司,高雄市阿蓮區中路里中路７２之５號,22.888208399999996,120.29503600000001,金屬製品業,未分類其他金屬製品製造業,,其他金屬製品
鈜信興業有限公司,高雄市路竹區新生路３３４巷７７號,22.8768425,120.296043,金屬製品業,螺絲、螺帽及鉚釘製造業,,螺絲
尚文企業有限公司,高雄市阿蓮區中路里１之１６號,22.8883953,120.29583000000001,金屬製品業,螺絲、螺帽及鉚釘製造業,,螺帽
博航企業社,高雄市路竹區竹園里新生路３３４巷８２號,22.8764744,120.295906,金屬製品業,其他金屬加工處理業,,不銹鋼管、不銹鋼套管
英鈿工業股份有限公司,高雄市路竹區環球路２８號,22.877946899999998,120.298576,金屬製品業,螺絲、螺帽及鉚釘製造業,,其他金屬製品，汽車零件
大豪模具企業社,高雄市路竹區新生路３３４巷１６８號,22.87643,120.297836,金屬製品業,金屬模具製造業,碳化鎢鋼,模具
中天農業科技股份有限公司,高雄市路竹區環球路２７－１號,22.8769188,120.298805,機械設備業,其他通用機械設備製造業,,機械零件
詠勝昌股份有限公司阿蓮二廠,高雄市阿蓮區中路里中路９－１號,22.8891544,120.297592,汽車及零件業,汽車零件製造業,,汽機車零件（矽膠變壓線）、高壓線、電木棒
鋐誠模具有限公司,高雄市路竹區竹園里新生路１９４巷８０號,22.874607100000002,120.293777,金屬製品業,金屬模具製造業,,其他機械
農生企業股份有限公司路竹廠,高雄市路竹區竹園里環球路２１號及３１巷８１弄１１號,22.8777313,120.299828,食品及飼品業,動物飼品製造業,,動物飼料
台力橡膠股份有限公司一廠,高雄市阿蓮區石安里石安２３０之６７、６８號,22.8838348,120.31235500000001,橡膠製品業,工業用橡膠製品製造業,,黏鋁橡膠華司、黏鐵橡膠華司
奇樺科技股份有限公司分廠,高雄市阿蓮區港後里崙頂５０之４８號,22.880256699999997,120.31197399999999,橡膠製品業,工業用橡膠製品製造業,,橡膠華司
台北氧氣股份有限公司高雄廠,高雄市阿蓮區港後里崙頂６４號,22.8778324,120.30824299999999,化學材料業,化學原材料製造業,,液氧、液氮、液氬、氫氣等
鏜安企業有限公司,高雄市阿蓮區中路里中路１之２２號,22.8843861,120.302551,金屬製品業,螺絲、螺帽及鉚釘製造業,,螺絲，螺帽，鉚釘
嘉立樺木業有限公司,高雄市阿蓮區石安里石安２２９之２６號,22.88756,120.308342,木竹製品製造業,製材業,,木製材
富弘木業有限公司,高雄市阿蓮區港後里崙頂２２－１６號,22.882228899999998,120.313286,木竹製品製造業,合板及組合木材製造業,,合板貼面
見華實業股份有限公司,高雄市阿蓮區港後里崙頂路２２之１號,22.8805923,120.31299999999999,機械設備業,流體傳動設備製造業,,攻牙機等
見華實業股份有限公司一廠,高雄市阿蓮區港後里崙頂２７之１８號,22.880291,120.31294299999999,機械設備業,金屬切削工具機製造業,,攻牙機等
侑耕企業社,高雄市阿蓮區港後里崙頂７０之２１號,22.8785477,120.31208799999999,金屬製品業,螺絲、螺帽及鉚釘製造業,,螺絲
見華實業股份有限公司二廠,高雄市阿蓮區崙頂路２２－５、２２－６號,22.880674399999997,120.31352199999999,機械設備業,金屬切削工具機製造業,,攻牙機等
台力橡膠股份有限公司分廠,高雄市阿蓮區石安里石安２３０之５２號,22.8866234,120.31208000000001,橡膠製品業,工業用橡膠製品製造業,,橡膠製品
紘明企業社,高雄市阿蓮區港後里崙頂２２之１２號,22.881773000000003,120.31383500000001,機械設備業,其他通用機械設備製造業,鋼板,機械零組件
欣鑫砂石行,高雄市路竹區環球路６巷６號,22.8783054,120.30308500000001,非金屬礦物製品業,未分類其他非金屬礦物製品製造業,,非金屬礦物製品製造業（土砂石加工處理），建材批發業，建材零售
見華實業股份有限公司三廠,高雄市阿蓮區港後里崙頂路２２－７號,22.8807411,120.3138,機械設備業,金屬切削工具機製造業,,攻牙機等
友宏有限公司,高雄市阿蓮區港後里崙頂１－１０號２樓,22.879279999999998,120.313126,食品及飼品業,屠宰業,,雞肉、其他禽肉
順寶螺絲股份有限公司阿蓮廠,高雄市阿蓮區港後里崙頂１之１１號,22.879279999999998,120.313126,金屬製品業,金屬模具製造業,,緞造模具
典宏企業社,高雄市阿蓮區石安里石安２２９之８號,22.888545999999998,120.305458,機械設備業,其他通用機械設備製造業,,通用機械設備零組件
家頂工程有限公司,高雄市阿蓮區港後里崙頂路６４－１、６４－２號,22.8756638,120.308495,金屬製品業,金屬建築組件製造業,,組合屋
業永實業有限公司,高雄市阿蓮區崙頂１－１號１樓,22.8798046,120.315491,食品及飼品業,蔬果加工及保藏業,,作物採收後處理
芬多國際有限公司,高雄市阿蓮區石安里石安２３０－２８號,22.888235100000003,120.3135,化學製品業,未分類其他化學製品製造業,,香精油
威宏商行,高雄市湖內區湖內里民族街５０１巷４３之１號,22.87023,120.23310900000001,食品及飼品業,動物飼品製造業,,動物飼料
梅子工場有限公司二廠,高雄市湖內區民族街５０１巷８之１號,22.8704224,120.232941,食品及飼品業,未分類其他食品製造業,,珍珠粉圓
廣生企業有限公司,高雄市路竹區竹滬里華光路２巷２８號,22.867683399999997,120.2368,塑膠製品業,塑膠皮、板及管材製造業,,塑膠製品
勝上實業有限公司,高雄市湖內區湖內里民族街３５５號,22.8741531,120.23298600000001,木竹製品製造業,其他木竹製品製造業,,木竹製品，非金屬家具
遠達機械股份有限公司,高雄市湖內區湖內里民族街６００之３號,22.874115,120.232231,機械設備業,其他金屬加工用機械設備製造業,,機械零件
昇隆企業社,高雄市路竹區華山路４巷２１號,22.863429999999997,120.228027,金屬製品業,金屬模具製造業,,沖具
上冠品有限公司路竹廠,高雄市路竹區中山路８８巷３６號,22.8714943,120.25128899999999,基本金屬業,鋼鐵軋延及擠型業,,線材
順寶螺絲股份有限公司路竹廠,高雄市路竹區中山路８８巷３２號,22.871648800000003,120.25177,金屬製品業,金屬模具製造業,,特殊螺絲加工、模具
鼎宇金屬有限公司,高雄市路竹區中山路８８巷３９號,22.8709087,120.25237299999999,金屬製品業,其他金屬加工處理業,,廢鋁料
桐和興實業有限公司,高雄市路竹區中山路８８巷３５號,22.8710461,120.252747,金屬製品業,螺絲、螺帽及鉚釘製造業,,其他金屬製品
興盛工業有限公司,高雄市路竹區竹西里中山路１７０巷９號,22.8696365,120.253441,金屬製品業,金屬模具製造業,,沖床
春銘實業股份有限公司,高雄市路竹區中山路８８巷３３號,22.87112,120.253014,金屬製品業,螺絲、螺帽及鉚釘製造業,,螺絲、螺帽
文昶精密企業社,高雄市路竹區竹西里聖母街１６１號,22.8652,120.251953,金屬製品業,螺絲、螺帽及鉚釘製造業,,螺絲加工
元穗木材行,高雄市路竹區國昌路１８９巷２８３號,22.86448,120.246376,木竹製品製造業,其他木竹製品製造業,,木架
光盛工業有限公司,高雄市路竹區中山路８８巷１８號,22.872003600000003,120.253029,金屬製品業,金屬表面處理業,,金屬製品、表面處理
鴻陽開發有限公司,高雄市路竹區中山路８８巷２３號,22.8713074,120.253571,金屬製品業,螺絲、螺帽及鉚釘製造業,,螺帽
盛穎精密股份有限公司路竹廠,高雄市路竹區竹西里中山路８８巷１９號,22.8714218,120.2539,金屬製品業,金屬熱處理業,,螺絲滲碳加工
信億企業社,高雄市路竹區中山路２巷６３號,22.873441699999997,120.252068,塑膠製品業,塑膠膜袋製造業,,塑膠袋
展昇精機股份有限公司,高雄市路竹區中山路２巷５９號,22.87347,120.252205,金屬製品業,金屬刀具及手工具製造業,,套筒、螺帽
誌加實業有限公司路竹廠,高雄市路竹區中山路１３６號,22.87034,120.25457,化學材料業,化學原材料製造業,,壓克力
立慶汽車企業有限公司,高雄市路竹區竹西里中山路２巷５１號,22.8736229,120.2527,汽車及零件業,汽車零件製造業,,汽車零件
中嘉樹脂化學工業股份有限公司,高雄市路竹區竹西里中山路６號,22.8736057,120.25303600000001,化學製品業,未分類其他化學製品製造業,,接著劑
合豐工廠股份有限公司,高雄市路竹區竹西里中山路１０號,22.8736057,120.25303600000001,金屬製品業,螺絲、螺帽及鉚釘製造業,,螺絲
將嘉實業有限公司,高雄市湖內區湖內里中山路一段２９巷９、１１號,22.874315300000003,120.25230400000001,食品及飼品業,動物飼品製造業,,虱目魚料、鰻魚料、尼羅魚料
信義精密有限公司,高雄市路竹區竹西里聖母街８０之１號,22.8652077,120.25426499999999,金屬製品業,金屬模具製造業,,金屬手工具及模具
日之昇鍋爐股份有限公司,高雄市路竹區文北里國昌路１８９巷２６３弄１２號,22.8626,120.24783300000001,金屬製品業,鍋爐、金屬貯槽及壓力容器製造業,,鍋、爐
耀宏實業股份有限公司,高雄市路竹區竹東里中山路３６９號,22.870452899999997,120.255684,金屬製品業,未分類其他金屬製品製造業,,配管工程
天益興業有限公司,高雄市路竹區竹東里中山路３６７號,22.8705444,120.255669,機械設備業,輸送機械設備製造業,,推高機修配、買賣、出租
長宏工廠股份有限公司,高雄市路竹區竹東里中山路３０３之１號,22.87185,120.255173,金屬製品業,螺絲、螺帽及鉚釘製造業,,螺絲
築陽企業社,高雄市路竹區竹東里中山路３０３之２號,22.87185,120.255173,金屬製品業,螺絲、螺帽及鉚釘製造業,,螺絲
元成興精密股份有限公司,高雄市路竹區中山路２５７號,22.8722,120.255035,金屬製品業,金屬模具製造業,,金屬手工具及模具
川宗鋼鐵企業股份有限公司,高雄市路竹區竹東里中山路３１３號,22.8713036,120.255508,金屬製品業,未分類其他金屬製品製造業,,螺絲、螺帽、角鐵鋼筋、圓鐵、平鐵、方鐵
台灣華爾卡國際股份有限公司,高雄市路竹區竹東里中山路３７９之１號,22.869934100000002,120.255959,金屬製品業,鍋爐、金屬貯槽及壓力容器製造業,,合成樹脂、桶槽及非石綿合成纖維墊料板等密封止洩材
台灣華爾卡工業股份有限公司,高雄市路竹區竹東里中山路３７９號,22.869934100000002,120.255959,非金屬礦物製品業,未分類其他非金屬礦物製品製造業,,人力派遣、租金收入、半金屬襯墊
保證責任高雄市梓官聯合社區合作農場,高雄市路竹區中山路３３７巷１號,22.871017499999997,120.255707,食品及飼品業,蔬果加工及保藏業,,蔬果
路竹宗益有限公司,高雄市路竹區國昌路１８９巷２６３弄５０號,22.862232199999998,120.247032,金屬製品業,螺絲、螺帽及鉚釘製造業,,螺帽
臺鍍科技股份有限公司高雄廠,高雄市路竹區竹東里中山路２５９號,22.8721123,120.25534099999999,金屬製品業,金屬表面處理業,,熱浸鍍鋅鋼結構物
衆偉精密有限公司,高雄市路竹區中山路２５３巷２號,22.8722973,120.255241,金屬製品業,螺絲、螺帽及鉚釘製造業,,螺絲．五金零件
添恭企業有限公司,高雄市路竹區國昌路１８９巷２６３弄１０３號,22.8624382,120.24620800000001,金屬製品業,螺絲、螺帽及鉚釘製造業,,螺帽
一條龍精密機械有限公司,高雄市路竹區中山路３３７巷３號,22.8712387,120.25579099999999,機械設備業,其他金屬加工用機械設備製造業,,ＣＮＳ機械維修加工
聯華製藥廠股份有限公司,高雄市路竹區竹東里中山路３８３號,22.869501100000004,120.2563,藥品及醫用化學品業,西藥製造業,,動物藥品（粉劑、液劑）、散劑、補助飼料、清毒藥劑、口服液劑
明坤企業有限公司,高雄市路竹區文北里國昌路１８９巷２６３弄１０１號,22.8622952,120.24591799999999,金屬製品業,螺絲、螺帽及鉚釘製造業,,螺絲、螺帽
龍騰工業有限公司,高雄市路竹區竹東里中山路２５３巷５號,22.872571899999997,120.25536299999999,金屬製品業,其他金屬容器製造業,,金屬容器
福銨有限公司,高雄市路竹區中山路２５３巷６、８號,22.872324,120.25556200000001,食品及飼品業,肉類其他加工及保藏業,,肉品批發
奇美食品股份有限公司湖內廠,高雄市湖內區公館里中山路二段５１號,22.87506,120.253128,食品及飼品業,膳食及菜餚製造業,,冷凍調理食品
柏罕科技企業有限公司,高雄市路竹區中山路２５３巷１２號,22.8723621,120.255829,金屬製品業,其他金屬加工處理業,,鋼條．沖棒
沃瑞爾科技股份有限公司,高雄市路竹區中山路３８１－１號,22.870151500000002,120.25666000000001,家具業,金屬家具製造業,,滑軌
啟照企業股份有限公司,高雄市路竹區竹西里中山路２３６號,22.8658867,120.256027,食品及飼品業,未分類其他食品製造業,,冷凍蔬菜、冷凍水果及冷凍收入
鉅登彈簧有限公司,高雄市路竹區中山路２５３巷１１號,22.8726063,120.255775,金屬製品業,金屬彈簧及線製品製造業,,其他金屬製品
悅宏企業社,高雄市路竹區中山路２５３巷１３號,22.87262,120.255905,金屬製品業,螺絲、螺帽及鉚釘製造業,,螺絲打頭加工
益德工程開發有限公司,高雄市路竹區中山路２５３巷１８號,22.872394600000003,120.25605,金屬製品業,螺絲、螺帽及鉚釘製造業,,不銹鋼螺絲加工
金萬誠有限公司,高雄市路竹區竹東里大仁路８８７號,22.8734169,120.255524,金屬製品業,未分類其他金屬製品製造業,,其他金屬製品
福記冷凍食品股份有限公司,高雄市路竹區竹西里中山路２６８號,22.865537600000003,120.25634,食品及飼品業,未分類其他食品製造業,,蛋品加工冷藏
協建木業有限公司,高雄市路竹區社西里大仁路８８３巷６號,22.8726,120.25643899999999,木竹製品製造業,其他木竹製品製造業,原木,木材製品
昇元鋁業有限公司,高雄市路竹區社西里大仁路８８３巷１５號,22.871841399999997,120.256844,基本金屬業,鍊鋁業,,鋁錠
隆峻企業有限公司,高雄市路竹區社西里信義路２９３巷６號,22.8697033,120.2649,機械設備業,機械傳動設備製造業,,輥輪加工
冠男精密實業有限公司路竹廠,高雄市路竹區社西里大仁路６２３巷１１１號,22.870561600000002,120.2641,機械設備業,未分類其他專用機械設備製造業,,其他金屬製品（機械五金零件）
聖謙有限公司,高雄市路竹區信義路２９３巷２號,22.8695965,120.26511399999998,金屬製品業,未分類其他金屬製品製造業,,沖棒
宏穎企業股份有限公司第三廠,高雄市路竹區社西里大仁路６２３巷１１３號,22.870573,120.26423600000001,金屬製品業,螺絲、螺帽及鉚釘製造業,,螺絲
東弘機械股份有限公司三廠,高雄市路竹區大仁路６２３巷１１５號,22.8705845,120.264381,機械設備業,未分類其他專用機械設備製造業,,專用生產機械
瀚克寶寶股份有限公司,高雄市路竹區信義路２８５號,22.8687611,120.265373,食品及飼品業,未分類其他食品製造業,,冷凍副食品
協利螺絲工廠,高雄市路竹區信義路１４４號,22.8692856,120.26623500000001,金屬製品業,螺絲、螺帽及鉚釘製造業,,螺絲、螺帽
冠宗企業有限公司路竹廠,高雄市路竹區甲南里大仁路５６１號,22.87161,120.26487,其他製造業,其他未分類製造業,,冰
同峰模具有限公司,高雄市路竹區甲南里大仁路７２１號,22.87161,120.26487,金屬製品業,金屬模具製造業,,模具
東文企業社,高雄市路竹區社西里大仁路６０７之３０號,22.8720245,120.26355,金屬製品業,螺絲、螺帽及鉚釘製造業,,防鬆螺帽、（全金屬、非全金屬）
順寶螺絲股份有限公司,高雄市路竹區社西里大社路２２４之１號,22.86629,120.265289,金屬製品業,金屬模具製造業,,特殊螺絲加工、模具
佳埼鋼品有限公司,高雄市路竹區大仁路７１９號,22.871938699999998,120.26132199999999,基本金屬業,鋼鐵冶鍊業,,鋼鐵
高雄市路竹區農會碾米工廠,高雄市路竹區社西里大仁路７１７號,22.871938699999998,120.26132199999999,食品及飼品業,碾榖業,,白米、糙米
展盛鋁業股份有限公司路竹廠,高雄市路竹區甲南里大仁路５４５號,22.8718,120.265732,基本金屬業,鋁材軋延、擠型及伸線業,,其他金屬結構、其他鋁製品
永煒鋼鐵股份有限公司高雄廠,高雄市路竹區社西里大仁路７２５號,22.8715458,120.26029199999999,金屬製品業,金屬建築組件製造業,,鍍鋅鋼捲
泓惠實業股份有限公司,高雄市路竹區甲南里大仁路５２０巷７之１號,22.8716545,120.26673100000001,化學材料業,肥料及氮化合物製造業,,有機肥料
中科鋼鐵股份有限公司路竹廠,高雄市路竹區社西里大仁路７９１號,22.87208,120.25988799999999,金屬製品業,其他金屬加工處理業,,鐵線／鐵線加工
欣瓏實業股份有限公司,高雄市路竹區大仁路５８４之２０號,22.8733425,120.260391,金屬製品業,螺絲、螺帽及鉚釘製造業,,螺絲、螺帽
臺灣水泥股份有限公司高雄水泥製品廠路竹分廠,高雄市路竹區社西里大仁路８０９號,22.8725548,120.25920900000001,非金屬礦物製品業,預拌混凝土製造業,,預拌混凝土
穎東工業股份有限公司,高雄市路竹區社西里大仁路８１１號,22.87315,120.25853700000002,金屬製品業,螺絲、螺帽及鉚釘製造業,,螺絲、螺帽、手工具、精密工具
成美商標織造股份有限公司,高雄市路竹區社西里大仁路８８３巷９號,22.872139,120.256996,紡織業,其他紡織品製造業,,商標印織
銡豐鋁業股份有限公司,高雄市路竹區社西里大仁路８５７號,22.8729687,120.25741599999999,基本金屬業,鋁材軋延、擠型及伸線業,,鋁屑加工、鋁錠加工、鋁合金棒鋁廢料加工
寬原實業股份有限公司,高雄市路竹區甲南里大仁路６２２之１號,22.87377,120.25788899999999,化學材料業,塑膠原料製造業,,各級聚苯乙烯（發泡性聚苯乙烯）
和宏鋼鐵廠股份有限公司,高雄市路竹區甲南里大仁路６２２號,22.87377,120.25788899999999,基本金屬業,鋼鐵軋延及擠型業,,圓鐵、扁鐵、角鐵、螺絲（帽）
譽盛粉末有限公司,高雄市路竹區社西里大仁路８５９號,22.8730755,120.25695,其他製造業,其他未分類製造業,樹皮,人造木炭
新立達機械廠,高雄市路竹區社西里大仁路８７５號,22.8733788,120.256752,機械維修及安裝業,產業用機械設備維修及安裝業,,污染防治設備維修及安裝
五實企業股份有限公司第二廠,高雄市路竹區甲北里大仁路２６號,22.870798100000002,120.277695,機械設備業,其他通用機械設備製造業,,機械零件
隆吉鐵工廠,高雄市路竹區甲北里大仁路４２號,22.870945000000003,120.277176,機械設備業,其他金屬加工用機械設備製造業,,金屬加工用機械設備，通用機械設備
盷瑩企業股份有限公司,高雄市路竹區一甲路１２７號,22.868318600000002,120.27475,金屬製品業,螺絲、螺帽及鉚釘製造業,,螺絲、螺帽
金寶益工業有限公司,高雄市路竹區甲南里大仁路６９號,22.8712788,120.275223,機械設備業,其他通用機械設備製造業,,其他機械、其他機械
五實企業股份有限公司,高雄市路竹區甲北里大仁路９６號,22.87171,120.274872,機械設備業,其他通用機械設備製造業,,機械零件
立欣包裝有限公司,高雄市路竹區環球路１９９巷１００號,22.8735485,120.28319499999999,金屬製品業,螺絲、螺帽及鉚釘製造業,,螺絲加工
金騏工業股份有限公司,高雄市路竹區下坑里太平路２１５巷１４號,22.8674278,120.288734,機械設備業,冶金機械製造業,,螺絲篩選、機械零件
南凱企業社,高雄市路竹區竹園里新生路２巷２５１號,22.8687611,120.29805,金屬製品業,金屬刀具及手工具製造業,,金屬鎖零組件
伸禾實業有限公司,高雄市路竹區下坑里太平路２６２巷８６之２８號,22.8654385,120.28750600000001,金屬製品業,螺絲、螺帽及鉚釘製造業,,其他金屬製品
立昇螺絲有限公司,高雄市路竹區太平路２６２巷８６之３０號,22.8654385,120.28750600000001,金屬製品業,螺絲、螺帽及鉚釘製造業,,其他金屬製品（螺絲加工）
安騏股份有限公司,高雄市路竹區新生路２巷２０１號,22.871053699999997,120.29918700000002,金屬製品業,螺絲、螺帽及鉚釘製造業,,其他金屬製品
協富企業有限公司,高雄市路竹區下坑里大德路２７７巷５３號,22.863678,120.296341,機械設備業,冶金機械製造業,,螺絲、螺拴、抽線機
金騏工業股份有限公司二廠,高雄市路竹區下坑里太平路２６２巷２６１號,22.86295,120.29081000000001,金屬製品業,金屬模具製造業,,機械零組件
上趁企業社,高雄市路竹區下坑里大德路２７７巷１１８號,22.865547199999998,120.2998,金屬製品業,螺絲、螺帽及鉚釘製造業,線材,螺絲帽、螺絲帽加工
合霂企業有限公司,高雄市路竹區下坑里大德路２７７巷４９號,22.86328,120.297882,汽車及零件業,汽車零件製造業,,汽機車零件
富信螺絲股份有限公司,高雄市路竹區下坑里太平路２６２巷２７６號,22.8618221,120.29093200000001,金屬製品業,螺絲、螺帽及鉚釘製造業,,螺絲、螺帽
佳暉工業社,高雄市阿蓮區港後里港後巷１３４之２２號,22.868886899999996,120.30727399999999,橡膠製品業,工業用橡膠製品製造業,,工業橡膠製品
鏵福實業股份有限公司崙頂廠,高雄市阿蓮區港後里港後１３４－３６號,22.87238,120.30553400000001,金屬製品業,螺絲、螺帽及鉚釘製造業,,華司
通達興企業有限公司三廠,高雄市阿蓮區港後里港後１３４之４１號,22.868221300000002,120.312073,金屬製品業,螺絲、螺帽及鉚釘製造業,,螺絲
全岑股份有限公司,高雄市路竹區環球路９巷２１１號,22.8692875,120.30284099999999,金屬製品業,螺絲、螺帽及鉚釘製造業,,其他金屬製品
通達興企業有限公司二廠,高雄市阿蓮區港後里港後１３４之１１號,22.8687553,120.31266000000001,金屬製品業,螺絲、螺帽及鉚釘製造業,,螺絲
賞益企業有限公司,高雄市阿蓮區港後里港後１３４之３８號,22.873737300000002,120.31012700000001,金屬製品業,螺絲、螺帽及鉚釘製造業,,螺絲
興達螺絲有限公司,高雄市路竹區環球路９巷２０２號,22.8698826,120.30175,金屬製品業,螺絲、螺帽及鉚釘製造業,,螺絲
慧毅工業股份有限公司,高雄市阿蓮區港後里港後路１２６號,22.8723373,120.31294299999999,汽車及零件業,汽車零件製造業,,汽車零件模具
龍昌螺絲工廠股份有限公司,高雄市阿蓮區港後里港後１３５號,22.870864899999997,120.31444499999999,金屬製品業,螺絲、螺帽及鉚釘製造業,盤元、鐵線,螺絲、喇叭螺絲、攻牙螺絲、鉆尾螺絲
通達興企業有限公司,高雄市阿蓮區港後里港後１４４之３號,22.871347399999998,120.31453700000002,金屬製品業,螺絲、螺帽及鉚釘製造業,,鋼鐵螺絲、螺帽
國益鐵材製品有限公司,高雄市路竹區竹園里環球路９巷１１０號,22.873264300000002,120.301682,金屬製品業,其他金屬加工處理業,,建材五金
炳俊企業有限公司,高雄市路竹區頂寮里海安路６０之３號,22.8533154,120.22651699999999,汽車及零件業,汽車零件製造業,,氣壓輔助器
盛源企業社,高雄市路竹區新達里大公路３２１巷６３號１樓,22.851738,120.23326899999999,金屬製品業,未分類其他金屬製品製造業,,沖棒
冠立升工業有限公司,高雄市路竹區竹滬里華山路１號,22.855793,120.22950700000001,金屬製品業,螺絲、螺帽及鉚釘製造業,,其他金屬製品
峰奇企業社,高雄市路竹區竹滬里大公路３１７之２號,22.8542786,120.22867600000001,塑膠製品業,塑膠皮、板及管材製造業,,壓克力板加工
先勵有限公司,高雄市路竹區竹滬里華正路４５巷８１號,22.8558922,120.24061599999999,塑膠製品業,其他塑膠製品製造業,,塑膠製品
政一工業股份有限公司,高雄市路竹區竹滬里華正路１之１號,22.8575172,120.24089099999999,金屬製品業,螺絲、螺帽及鉚釘製造業,,其他金屬製品
宗羿企業有限公司,高雄市路竹區國昌路１１９巷３０１弄１８５－６號,22.8526,120.24106599999999,金屬製品業,螺絲、螺帽及鉚釘製造業,,螺帽
時豐股份有限公司,高雄市路竹區延平路８１８號,22.8553562,120.24223300000001,石油及煤製品業,石油及煤製品製造業,,潤滑油、液壓油、潤滑油添加劑
洪義成磚瓦廠有限公司,高雄市路竹區文北里延平路７９４號,22.8593826,120.241295,非金屬礦物製品業,黏土建築材料製造業,,紅磚
詠翔工業股份有限公司,高雄市路竹區文北里延平路７９０號,22.8578587,120.24223300000001,汽車及零件業,汽車零件製造業,,汽車機械船舶航空用之活塞，活塞環，活塞肖
虹壹實業股份有限公司,高雄市路竹區文南里中華路３２６號,22.8532543,120.24991599999998,塑膠製品業,塑膠膜袋製造業,,塑膠袋、塑膠容器
大誠洋基有限公司,高雄市路竹區文南里中華路４７１號,22.852804199999998,120.250923,食品及飼品業,肉類其他加工及保藏業,,肉類處理
金菱水泥製品股份有限公司,高雄市路竹區文南里中華路４９５號,22.8523712,120.25043500000001,非金屬礦物製品業,水泥及混凝土製品製造業,,預鑄水泥製品
神盾科技有限公司,高雄市路竹區中華路４１６號,22.851608300000002,120.249146,金屬製品業,金屬表面處理業,,熱銹寶烤漆、達克銹烤漆
詠全企業股份有限公司,高雄市路竹區文南里國昌路１１９巷３０１弄１２７號,22.8533325,120.244377,金屬製品業,螺絲、螺帽及鉚釘製造業,,其他金屬製品
王豐木業有限公司,高雄市路竹區國昌路１１９巷３９８號,22.8549,120.243568,木竹製品製造業,其他木竹製品製造業,,棧板
欣忠奇食品有限公司,高雄市路竹區文南里中華路４９２號,22.850576399999998,120.247948,食品及飼品業,調味品製造業,,其他冷凍調理食品
成肯國際實業股份有限公司,高雄市路竹區文南里中華路５２８號,22.8508263,120.246536,塑膠製品業,其他塑膠製品製造業,,辦公傢俱零配件
協安工業股份有限公司,高雄市路竹區文北里延平路６８０巷６５號,22.8599014,120.24472800000001,金屬製品業,螺絲、螺帽及鉚釘製造業,,其他金屬製品
國盛鋁業有限公司二廠,高雄市路竹區長興路８８號,22.8521843,120.243324,金屬製品業,金屬建築組件製造業,鋁材,金屬結構及建築組件
國際農畜股份有限公司,高雄市路竹區中華路５１８號,22.8494377,120.248329,金屬製品業,其他金屬容器製造業,,冷凍鴨肉，調理食品，肉類，水產
隆興鋼鐵工業股份有限公司,高雄市路竹區文南里中華路５３０之１號,22.849927899999997,120.2455,金屬製品業,其他金屬容器製造業,,鐵桶
德奇鋼鐵工業股份有限公司,高雄市路竹區文南里中華路５３０號,22.849927899999997,120.2455,金屬製品業,其他金屬容器製造業,,鐵桶
振輝企業有限公司,高雄市路竹區後鄉里長興路６１０號,22.849533100000002,120.244316,非金屬礦物製品業,石材製品製造業,,石材製品製造
建通精密工業股份有限公司第三廠,高雄市路竹區竹東里中正路９０號,22.8559055,120.262146,機械設備業,其他通用機械設備製造業,,機器零件、精密另件、精密模具
乙誠企業社,高雄市路竹區竹南里民富街２８號,22.853075,120.26255,汽車及零件業,汽車零件製造業,,汽車零件
台榮產業股份有限公司高雄飼料廠,高雄市路竹區社南里大同路５５０號,22.8554764,120.266365,食品及飼品業,動物飼品製造業,,配合飼料
福利塑膠工廠,高雄市路竹區中山路８５０號,22.853584299999998,120.261055,塑膠製品業,塑膠膜袋製造業,,塑膠袋
路竹新益工廠股份有限公司第六廠,高雄市路竹區竹南里中正路２３２巷１３號,22.852933899999996,120.264908,金屬製品業,螺絲、螺帽及鉚釘製造業,,精密小螺絲
益福機械有限公司,高雄市路竹區竹南里中正路２３２巷１５號,22.852829999999997,120.264877,金屬製品業,螺絲、螺帽及鉚釘製造業,,不銹鋼螺帽
大可電機有限公司,高雄市路竹區竹南里中山路１２５９號,22.8528919,120.261772,汽車及零件業,汽車零件製造業,,混合五金
路竹新益工廠股份有限公司第三廠,高雄市路竹區中正路２３２巷１９號,22.852582899999998,120.26478600000002,金屬製品業,螺絲、螺帽及鉚釘製造業,,螺絲、螺帽
合豐精密工具股份有限公司,高雄市路竹區竹南里新民路１４號,22.85282,120.2654,金屬製品業,金屬刀具及手工具製造業,,螺絲攻滾牙輪、滾牙板、鋼模牙
金多億企業有限公司,高雄市路竹區中山路１２８號,22.857584,120.260567,食品及飼品業,巧克力及糖果製造業,,糖果
禾鋸工業有限公司,高雄市路竹區新民路２２號,22.8529968,120.2659,金屬製品業,螺絲、螺帽及鉚釘製造業,,抽線膜加工
裕德食品企業有限公司,高雄市路竹區竹南里中山路１２９３巷４２號１樓,22.852087,120.262428,食品及飼品業,麵條及粉條類食品製造業,,各式麵條
新晹工業股份有限公司分廠,高雄市路竹區竹西里大同路２７６巷８之２號,22.858341199999998,120.26558700000001,機械設備業,其他金屬加工用機械設備製造業,,機械零件（針車）
摩根電腦印刷股份有限公司,高雄市路竹區竹南里國昌路４３巷１７之１號,22.8534889,120.260185,紙漿、紙及紙製品業,未分類其他紙製品製造業,,電腦報表紙
福記碾米工廠,高雄市路竹區竹東里中山路１０５１號,22.8580742,120.260674,食品及飼品業,碾榖業,,糙米，白米
阿爾發實業有限公司,高雄市路竹區社南里大同路４７５號,22.8568325,120.2672,化學製品業,未分類其他化學製品製造業,片鹼、草酸、磷酸、硝酸,草酸鹽皮膜劑、磷酸鹽皮膜劑、磷酸鹽促進劑、草酸鹽促進劑
鎂利金精密工業有限公司,高雄市路竹區社南里大同路４７７號,22.8568325,120.2672,金屬製品業,金屬模具製造業,,金屬手工具及模具
和盈精密有限公司,高雄市路竹區社南里大同路５０３號１樓,22.8546143,120.26736499999998,金屬製品業,金屬模具製造業,,模具
文珍印刷有限公司,高雄市路竹區竹東里中山路６４８號,22.857976899999997,120.26031499999999,印刷及儲存媒體複製業,印刷業,,各種書籍、表格、日曆、商標
路竹新益工廠股份有限公司,高雄市路竹區鴨寮里新民路４６號,22.852918600000002,120.266479,金屬製品業,螺絲、螺帽及鉚釘製造業,,螺絲、螺帽、袋帽、磨光鋼棒
一成帆布行,高雄市路竹區竹南里中山路１３０７號,22.8515263,120.262146,紡織業,紡織製成品製造業,,汽車布帆，雨帆
台榮產業股份有限公司高雄飼料廠分廠,高雄市路竹區社南里大同路４８３號,22.85634,120.267746,食品及飼品業,磨粉製品製造業,,玉米粉
琮達精密有限公司,高雄市路竹區社南里大同路５２５之１號,22.854185100000002,120.26773100000001,金屬製品業,其他金屬加工處理業,,零件加工
杰聖企業社,高雄市路竹區竹南里大同路５２５－３號,22.854311,120.26783799999998,金屬製品業,金屬刀具及手工具製造業,,絲
永和四佳豆漿店,高雄市路竹區大同路５２５－５號,22.854473100000003,120.26796000000002,食品及飼品業,烘焙炊蒸食品製造業,,豆漿
崑合企業有限公司,高雄市路竹區社西里智仁路１３４、１３６、１３８號,22.860120000000002,120.26318400000001,成衣及服飾品業,成衣製造業,,內（衣，褲）
協杰企業有限公司,高雄市路竹區社南里大同路４１３巷４６之１號,22.8579655,120.26776100000001,金屬製品業,螺絲、螺帽及鉚釘製造業,線材,其他金屬製品
德嘉系統科技有限公司,高雄市路竹區社南里大同路５２５之１３號,22.8543568,120.268478,機械設備業,未分類其他專用機械設備製造業,,輸送機配電系統
申辰企業有限公司,高雄市路竹區社南里大同路５２５之２號,22.8543568,120.268478,金屬製品業,金屬建築組件製造業,,鋁製品．模具
郁同企業有限公司,高雄市路竹區社南里大同路５２５之９號,22.8543568,120.268478,機械設備業,輸送機械設備製造業,,輸送機
香港商瑞師精密科技股份有限公司台灣分公司高雄三廠,高雄市路竹區大同路５２５之２號,22.8543568,120.268478,金屬製品業,螺絲、螺帽及鉚釘製造業,,螺絲、螺帽
吉勝美工業有限公司,高雄市路竹區社南里大同路５２７巷２１號,22.8534431,120.2683,金屬製品業,金屬熱處理業,,螺絲、螺帽加工
宣泓企業股份有限公司,高雄市路竹區社南里復興路１號,22.852684,120.26802099999999,金屬製品業,螺絲、螺帽及鉚釘製造業,,螺絲、螺帽
慶億工業有限公司,高雄市路竹區社南里復興路１之８號,22.852684,120.26802099999999,金屬製品業,未分類其他金屬製品製造業,,其他金屬製品
慶益工業股份有限公司,高雄市路竹區社南里復興路１之８號,22.852684,120.26802099999999,金屬製品業,螺絲、螺帽及鉚釘製造業,,螺絲、螺帽
正興活塞股份有限公司,高雄市路竹區竹南里中山路１４５５之１號,22.850376100000002,120.26258899999999,汽車及零件業,汽車零件製造業,鋁合金錠,金屬活塞、金屬品
燦和食品工業股份有限公司,高雄市路竹區竹南里中山路１４５５號,22.850376100000002,120.26258899999999,食品及飼品業,磨粉製品製造業,,麵包油炸粉
新永順精機股份有限公司,高雄市路竹區社南里大同路５１３巷１００號,22.855466800000002,120.26895900000001,金屬製品業,螺絲、螺帽及鉚釘製造業,,鋼鐵螺絲、螺帽
新西河碾米工廠,高雄市路竹區中山路９６９號,22.8596535,120.25991100000002,食品及飼品業,碾榖業,,白米、糙米
益廣盛工業股份有限公司,高雄市路竹區社南里復興路１巷２９、３１號,22.8536434,120.26886699999999,金屬製品業,金屬表面處理業,,金屬表面處理
旭敏精機股份有限公司,高雄市路竹區大同路５１３巷１０７號,22.8548546,120.26918,機械設備業,其他通用機械設備製造業,,機械傳動設備製造業
晉營實業股份有限公司一廠,高雄市路竹區復興路１巷２號,22.852815600000003,120.268524,金屬製品業,螺絲、螺帽及鉚釘製造業,,螺絲
泰豐興機械有限公司,高雄市路竹區社南里復興路１巷３２弄１號,22.853157,120.26876100000001,機械設備業,其他金屬加工用機械設備製造業,鑄件、軸承,螺帽成型機
捷伸工業股份有限公司,高雄市路竹區社西里大同路５１３巷１１１號,22.8547421,120.269333,金屬製品業,螺絲、螺帽及鉚釘製造業,,螺帽製造、螺絲、鉚釘製造
立佳精密有限公司,高雄市路竹區社南里復興路１巷３６、３８號,22.8534164,120.26901200000002,機械設備業,其他通用機械設備製造業,,其他機械
益廣盛工業股份有限公司二廠,高雄市路竹區社南里復興路１巷４２號,22.8535233,120.269104,金屬製品業,金屬表面處理業,,金屬表面處理
佑義模具工業股份有限公司,高雄市路竹區社南里復興路１巷３２弄５、７號,22.8529835,120.269066,金屬製品業,金屬模具製造業,,螺栓、螺帽、模具
晉營實業股份有限公司,高雄市路竹區社南里復興路１巷３２弄１１號,22.8528919,120.269241,金屬製品業,螺絲、螺帽及鉚釘製造業,,螺絲
東弘機械股份有限公司,高雄市路竹區社南里復興路１巷３２弄１３號,22.8527966,120.26936299999998,機械設備業,未分類其他專用機械設備製造業,,專用生產機械
冠銓精密股份有限公司,高雄市路竹區復興路１巷３２弄１５號,22.8527565,120.269424,金屬製品業,金屬模具製造業,,模具
琳堺企業股份有限公司,高雄市路竹區鴨寮里復興路３４之１號,22.8515587,120.268654,機械維修及安裝業,產業用機械設備維修及安裝業,,機械儀器修護
國鎮模具有限公司,高雄市路竹區復興路３６－１號,22.851387,120.268852,金屬製品業,金屬模具製造業,,鑽尾模具
東豐纖維企業股份有限公司路竹織染廠,高雄市路竹區竹南里中山路１４５７號,22.8489513,120.26387,紡織業,人造纖維梭織布業,,天然纖維布、梭纖布、針織布、代客染整
進豐晟企業股份有限公司,高雄市路竹區鴨寮里復興路３６號,22.851261100000002,120.26896699999999,金屬製品業,金屬建築組件製造業,,鍍鋅格柵板
宏穎企業股份有限公司,高雄市路竹區社南里大同路５１３巷１３２、１３６號、復興路１巷３２弄１５、１７之１、之２、之３、之５、１９之１、之２、之３、之５號,22.8554211,120.27085100000001,金屬製品業,螺絲、螺帽及鉚釘製造業,,螺絲
偉芳工業股份有限公司,高雄市路竹區竹西里建國路５８號,22.86027,120.25774399999999,機械設備業,金屬切削工具機製造業,,機械
建通精密工業股份有限公司第二廠,高雄市路竹區社南里大同路５１３巷１３８號,22.853324899999997,120.271042,電力設備業,其他電力設備及配備製造業,,端子
永丰成資源有限公司,高雄市路竹區中山路１４５９、１４５９－１號,22.8479843,120.26284,非金屬礦物製品業,未分類其他非金屬礦物製品製造業,,廢壓膠膜加工
益豪企業有限公司,高雄市路竹區社西里復興路１１之１號,22.8515663,120.270477,紙漿、紙及紙製品業,瓦楞紙板及紙容器製造業,,紙容器
力連機械股份有限公司,高雄市路竹區社南里復興路９之２號,22.8515663,120.270477,機械設備業,採礦及營造用機械設備製造業,,預拌混凝土機械及其零件
常譽企業有限公司,高雄市路竹區社南里復興路９之３號,22.8515663,120.270477,金屬製品業,螺絲、螺帽及鉚釘製造業,,螺絲
茂恒工程有限公司,高雄市路竹區社南里復興路９之６號,22.8515663,120.270477,機械設備業,輸送機械設備製造業,,機械
宏穎企業股份有限公司二廠,高雄市路竹區社南里復興路９之８、９之９、９之１１、９之１２、９之１３號,22.8515663,120.270477,金屬製品業,螺絲、螺帽及鉚釘製造業,,螺絲
東弘機械股份有限公司二廠,高雄市路竹區社南里復興路９之１５號,22.8515663,120.270477,機械設備業,未分類其他專用機械設備製造業,,專用生產機械
凱弘汽車修配股份有限公司,高雄市路竹區竹南里中山路１４６１號,22.847818399999998,120.263046,機械維修及安裝業,產業用機械設備維修及安裝業,,其他未列名汽車零組件
建通精密工業股份有限公司,高雄市路竹區鴨寮里復興路２５號,22.85095,120.270081,電力設備業,其他電力設備及配備製造業,,連接器
侃揚企業有限公司,高雄市路竹區復興路１１－２號,22.851755100000002,120.270844,紙漿、紙及紙製品業,瓦楞紙板及紙容器製造業,,紙容器
科程五金企業有限公司,高雄市路竹區社東里東安路３８巷６９弄４３６之１號,22.85963,120.28103600000001,金屬製品業,螺絲、螺帽及鉚釘製造業,,螺絲
金揚冷凍科技企業有限公司,高雄市路竹區社南里大同路５１３巷１５２號,22.8522415,120.27179,金屬製品業,金屬建築組件製造業,,庫板
諾偉實業有限公司,高雄市路竹區社南里復興路９－１６號,22.8507061,120.2722,基本金屬業,鋼鐵軋延及擠型業,,金屬冷滾軋產品
速易達國際開發有限公司,高雄市路竹區東安路３６巷１０７８號,22.854251899999998,120.286514,食品及飼品業,乳品製造業,,鮮乳、調味乳
躍誠有限公司,高雄市路竹區鴨寮里復興路１１－７號,22.8506031,120.27139299999999,金屬製品業,螺絲、螺帽及鉚釘製造業,,螺絲加工
香港商瑞師精密科技股份有限公司台灣分公司高雄二廠,高雄市路竹區復興路１９５號,22.8495617,120.27233100000001,金屬製品業,螺絲、螺帽及鉚釘製造業,,螺絲、螺帽
啟賢興業有限公司,高雄市路竹區社東里東安路３６巷１１５３號,22.8555031,120.287865,金屬製品業,螺絲、螺帽及鉚釘製造業,,螺帽
龍程企業社,高雄市路竹區太平路２６２巷２８１號,22.860239,120.29162600000001,金屬製品業,螺絲、螺帽及鉚釘製造業,,螺絲
永傑企業社,高雄市路竹區下坑里大德路２７７巷８６弄３６號,22.857805300000003,120.30084199999999,金屬製品業,未分類其他金屬製品製造業,,機械零件
立州機械有限公司路竹廠,高雄市路竹區下坑里大德路４２０號,22.854824100000002,120.301323,金屬製品業,未分類其他金屬製品製造業,,鋼管配件
豫勛企業有限公司,高雄市路竹區大德路３７５號,22.856720000000003,120.301796,塑膠製品業,其他塑膠製品製造業,,塑膠製品
豫瑞企業有限公司,高雄市路竹區大德路２７７巷８６弄３５號１樓,22.8586559,120.30140700000001,塑膠製品業,其他塑膠製品製造業,,塑膠製品
嘉宏實業社,高雄市阿蓮區港後里港後２１８之１５號,22.8597984,120.314095,金屬製品業,螺絲、螺帽及鉚釘製造業,,其他金屬製品、螺絲
芊進塑膠興業有限公司路竹廠,高雄市路竹區大德路２７７巷８６弄１３號,22.8606739,120.301643,塑膠製品業,其他塑膠製品製造業,,化粧用品外殼
瑞吉五金有限公司,高雄市永安區保寧里保安路１５巷８－９號,22.837513,120.233376,金屬製品業,螺絲、螺帽及鉚釘製造業,,螺絲、螺帽
日勝一企業股份有限公司,高雄市路竹區新達里大公路６２０號,22.845666899999998,120.23056799999999,金屬製品業,未分類其他金屬製品製造業,,小五金
灶興企業股份有限公司,高雄市路竹區後鄉里新興路１２２巷２號,22.842582699999998,120.23951000000001,化學材料業,化學原材料製造業,,正丁酯
道錡工業股份有限公司三廠,高雄市路竹區大公路４０３之９７號,22.8470383,120.230919,金屬製品業,螺絲、螺帽及鉚釘製造業,盤元、線材,螺絲
佑穎企業有限公司,高雄市永安區保寧里保寧路５之１號,22.8369255,120.23733500000002,機械設備業,其他通用機械設備製造業,,淨油機
燁茂實業股份有限公司路竹二廠,高雄市路竹區後鄉里順安路３４７號,22.8383617,120.23980700000001,金屬製品業,其他金屬加工處理業,,ＢＡ裁邊鋼捲、ＢＡ裁剪鋼板、ＨＬ鋼捲、鏡
雄順金屬股份有限公司二廠,高雄市路竹區順安路３９７號,22.837457699999998,120.239296,金屬製品業,未分類其他金屬製品製造業,盤元、鹽酸／磷酸鹽,線材加工
雄順金屬股份有限公司一廠,高雄市路竹區順安路３９３、３９５號,22.837457699999998,120.239296,金屬製品業,未分類其他金屬製品製造業,盤元、鹽酸／磷酸鹽,線材加工
燁茂實業股份有限公司路竹一廠,高雄市路竹區後鄉里順安路３４１、３４５號,22.8382,120.23998999999999,金屬製品業,其他金屬加工處理業,,ＢＡ裁邊鋼捲、ＢＡ裁剪鋼板、ＨＬ鋼捲、鏡
多蜜事科技有限公司路竹一廠,高雄市路竹區新興路２６２巷３７號,22.8478928,120.238373,塑膠製品業,其他塑膠製品製造業,,其他塑膠製品
良林木業有限公司,高雄市路竹區後鄉里順安路２４７號,22.8395615,120.242081,木竹製品製造業,其他木竹製品製造業,,木頭棧板、木箱
明新發企業股份有限公司,高雄市路竹區後鄉里順安路３５１巷８號,22.836679999999998,120.240372,金屬製品業,未分類其他金屬製品製造業,,不動產租賃、金屬製品製造
緯翔開發有限公司一廠,高雄市路竹區後鄉里順安路３５１巷８號,22.836679999999998,120.240372,其他運輸工具零件業,機車零件製造業,,機車零件加工
群創光電股份有限公司Ｆ廠,高雄市路竹區南科高雄園區路科十路１１號（不含Ｂ室、７ＦＡ室）,22.8378181,120.250114,電子零組件業,液晶面板及其組件製造業,,２６４光電材料及元件
台灣日東光學股份有限公司南科廠,高雄市路竹區南科高雄園區路科十路１１號７樓Ａ室,22.8378181,120.250114,電子零組件業,其他光電材料及元件製造業,,偏光板
群創光電股份有限公司Ｌ６廠,高雄市路竹區南科高雄園區路科十路１１號Ｂ室,22.8378181,120.250114,電子零組件業,液晶面板及其組件製造業,,２６４ 光電材料及原件
吉全螺帽有限公司,高雄市路竹區中華路７０１之２１號,22.84662,120.24751299999998,金屬製品業,螺絲、螺帽及鉚釘製造業,線材,螺絲帽、螺絲帽加工
合峻鋁業股份有限公司,高雄市路竹區文南里中華路５９６號,22.84722,120.24684099999999,基本金屬業,鋁鑄造業,,鋁、錠、６０６３圓錠
立國實業股份有限公司,高雄市路竹區順安路２１３巷１８號,22.839345899999998,120.24252299999999,金屬製品業,螺絲、螺帽及鉚釘製造業,,螺絲
長興材料工業股份有限公司路竹廠,高雄市路竹區後鄉里長興路２２號,22.8467922,120.243629,化學材料業,塑膠原料製造業,,不飽和聚酯類、印刷電路用銅積層板
川湖科技股份有限公司,高雄市路竹區後鄉里順安路２７５巷１３６號,22.8371449,120.243141,機械設備業,機械傳動設備製造業,,導軌、滑軌、鉸鏈
國亨化學股份有限公司,高雄市路竹區後鄉里長興路６６號,22.8459225,120.24224099999999,化學材料業,塑膠原料製造業,,聚苯乙烯、ＡＢＳ樹脂、ＳＡＮ樹脂
正合興重工業股份有限公司路竹廠,高雄市路竹區竹南里中山路１９００巷１９６號,22.8425121,120.25648500000001,機械設備業,其他通用機械設備製造業,,各種機械及其零件製造（產業機械、煉鋼整廠）
長亨精密股份有限公司,高雄市路竹區南科高雄園區路科十路９號,22.8399525,120.25664499999999,其他運輸工具零件業,未分類其他運輸工具及其零件製造業,,飛機引擎零組件
鄉林工業股份有限公司,高雄市路竹區後鄉里順安路２７５巷１４０號,22.8361015,120.2432,金屬製品業,螺絲、螺帽及鉚釘製造業,,螺絲、汽車零件
福密實業股份有限公司,高雄市路竹區後鄉里順安路２９５號,22.83752,120.24166899999999,金屬製品業,未分類其他金屬製品製造業,,鐵帶（不含表面處理）
震南鐵線股份有限公司螺絲一廠,高雄市路竹區後鄉里順安路２７５巷２３８號,22.8357964,120.243324,金屬製品業,螺絲、螺帽及鉚釘製造業,,螺絲
裕鈞產業行,高雄市路竹區後鄉里順安路３０５號,22.8367043,120.24225600000001,食品及飼品業,蔬果加工及保藏業,,豆乾
正合興重工業股份有限公司路竹二廠,高雄市路竹區竹南里中山路１９００巷１９８號,22.8424587,120.257225,機械設備業,未分類其他專用機械設備製造業,,各種機械及其零件製造（產業機械、煉鋼整廠）
聯潤科技股份有限公司,高雄市路竹區南科高雄園區路科十路１號３樓,22.841238,120.262573,電力設備業,其他家用電器製造業,,掃地機器人
萬潤科技股份有限公司總廠,高雄市路竹區南科高雄園區路科十路１號３樓除外,22.841238,120.262573,機械設備業,機械傳動設備製造業,,被動元件設備／ＬＥＤ設備／半導體設備
聯合骨科器材股份有限公司高雄廠,高雄市路竹區南科高雄園區路科一路１６號,22.840377800000002,120.262543,其他製造業,其他醫療器材及用品製造業,,人工關節鍛、鑄件
三和合成股份有限公司,高雄市路竹區北嶺里中山南路１號,22.84046,120.264481,化學材料業,塑膠原料製造業,,聚醯胺樹脂
鴻君科技股份有限公司路科廠,高雄市路竹區南科高雄園區路科一路１２號,22.8396721,120.26258899999999,其他製造業,其他醫療器材及用品製造業,,醫療器材及用品
正好產業股份有限公司,高雄市路竹區中山南路２１號,22.8394451,120.26531999999999,食品及飼品業,動物飼品製造業,,養豬濃縮飼料、玉米粉、飼料、全脂黃豆粉
雅各科技股份有限公司,高雄市路竹區南科高雄園區路科一路１０號,22.8385468,120.262833,其他製造業,其他未分類製造業,,電子用黏性精密材料、耐高溫耐溶劑特殊膠帶
新穎實業有限公司,高雄市路竹區北嶺里中山南路３９號,22.8380852,120.264641,食品及飼品業,未分類其他食品製造業,,輔助飼料，飼料添加物（一般）
泰山企業股份有限公司路竹廠,高雄市路竹區北嶺里中山南路４１號,22.8377171,120.2648,金屬製品業,其他金屬容器製造業,,容器（鐵桶）加工
久中五金企業有限公司,高雄市路竹區竹南里中山路１５７７號,22.846397399999997,120.2632,金屬製品業,金屬結構製造業,,廠房鋼結構
蘇氏精密工具股份有限公司,高雄市路竹區竹南里中山路１５４３巷３１、３２號,22.84684,120.26348899999999,金屬製品業,金屬刀具及手工具製造業,,高速鋼麻花鑽頭、金屬品、高速鋼
台灣賽孚思科技股份有限公司高科總部,高雄市路竹區南科高雄園區路科三路１５號,22.83821,120.258629,化學製品業,未分類其他化學製品製造業,,ＴＭＧ／ＴＭＩ／ＴＥＧ／ＰＤＭＡＴＥ
友達光電股份有限公司高雄廠,高雄市路竹區南科高雄園區路科三路９號,22.83821,120.258629,電子零組件業,液晶面板及其組件製造業,,彩色濾光片
立大農畜興業股份有限公司冷凍食品廠,高雄市路竹區北嶺里中山南路４７號,22.836208300000003,120.265251,食品及飼品業,肉類其他加工及保藏業,,冷凍豬肉類、中式香腸、雞塊、西式香腸
鑫科材料科技股份有限公司路科分公司,高雄市路竹區南科高雄園區路科八路１號,22.8363171,120.261009,基本金屬業,未分類其他基本金屬製造業,,靶材、雙金屬合金料管及其零組件
長興開發科技股份有限公司,高雄市路竹區南科高雄園區路科八路２號,22.836803399999997,120.259224,化學製品業,未分類其他化學製品製造業,,研磨溶液、研磨墊、研磨劑、清洗劑
廣泰金屬工業股份有限公司路竹廠,高雄市路竹區南科高雄園區路科三路８號,22.8353424,120.26136799999999,金屬製品業,未分類其他金屬製品製造業,,焊接材科
唐榮車輛科技股份有限公司南科分公司,高雄市路竹區南科高雄園區路科三路１６號,22.8353424,120.26136799999999,汽車及零件業,汽車零件製造業,,汽車、車體、汽車零件
熒茂光學股份有限公司路科廠,高雄市路竹區南科高雄園區路科三路７號（１樓Ａ室除外、２樓Ａ室除外、５樓Ａ室除外）,22.8363533,120.2591,電子零組件業,其他光電材料及元件製造業,,其他電子零組件（觸控面板）
鼎熒精密股份有限公司路科廠,高雄市路竹區南科高雄園區路科三路７號１樓Ａ室、２樓Ａ室、５樓Ａ室,22.8363533,120.2591,電子零組件業,未分類其他電子零組件製造業,,行動裝置鏡頭模組沖壓件
上和精密股份有限公司,高雄市路竹區鴨寮里保安路９２號,22.8477955,120.267723,金屬製品業,金屬模具製造業,,螺絲、螺蝐用模具
上和精密股份有限公司路竹第二廠,高雄市路竹區鴨寮里保安路９４之１號,22.8479271,120.26799,金屬製品業,金屬模具製造業,,其他機械
集晟實業股份有限公司二廠,高雄市路竹區復興路６６８號,22.842123,120.279587,金屬製品業,金屬表面處理業,,螺絲、螺帽
萬毅企業股份有限公司,高雄市路竹區三爺里民族路２５、２７號,22.8404942,120.27623,金屬製品業,金屬刀具及手工具製造業,,機配件（沖具、模具、工具、刀具）
萬淵企業股份有限公司,高雄市路竹區三爺里民族路２１、２３號,22.8411,120.27581799999999,金屬製品業,螺絲、螺帽及鉚釘製造業,,螺絲，螺帽
富利企業社,高雄市路竹區三爺里民族路６５號,22.8396015,120.27671799999999,金屬製品業,螺絲、螺帽及鉚釘製造業,,螺絲、螺帽
承逸石材有限公司,高雄市路竹區鴨寮里復興路３９２號,22.8444157,120.277092,非金屬礦物製品業,石材製品製造業,,石材
路竹新益工廠股份有限公司第二廠,高雄市路竹區鴨寮里復興路６６７號,22.84339,120.280556,金屬製品業,螺絲、螺帽及鉚釘製造業,,螺絲、螺帽、袋帽、磨光鋼棒
瑞展實業有限公司,高雄市路竹區鴨寮里復興路３００之６號、復興路３０８號,22.8442917,120.275742,金屬製品業,金屬表面處理業,,金屬表面處理
集偉工業股份有限公司,高雄市路竹區鴨寮里復興路３００號,22.8442917,120.275742,金屬製品業,金屬表面處理業,,螺絲、螺絲表面處理
本億模具股份有限公司二廠,高雄市路竹區三爺里民族路６號,22.84121,120.27462,金屬製品業,金屬模具製造業,,模具
瀛新企業股份有限公司路竹廠,高雄市路竹區鴨寮里復興路３００之１號,22.844896300000002,120.27638999999999,金屬製品業,螺絲、螺帽及鉚釘製造業,,線材、螺絲
永騰工業有限公司,高雄市路竹區鴨寮里復興路３００之２號,22.844896300000002,120.27638999999999,金屬製品業,螺絲、螺帽及鉚釘製造業,盤元,螺絲代工
華泰工業股份有限公司,高雄市路竹區鴨寮里復興路３４７號,22.845264399999998,120.277046,金屬製品業,金屬熱處理業,,金屬材料、螺絲、螺帽、螺栓熱處理
竹華工業股份有限公司,高雄市路竹區三爺里復興路８００號,22.83967,120.281319,金屬製品業,螺絲、螺帽及鉚釘製造業,,螺絲
毅錩金屬股份有限公司路竹廠,高雄市路竹區三爺里民族路２號,22.841436399999996,120.27411699999999,金屬製品業,金屬表面處理業,,各種鋼鋁板裁剪及成型加工（烤漆）
台帽螺帽股份有限公司,高雄市路竹區鴨寮里復興路２８４號,22.84512,120.275566,金屬製品業,螺絲、螺帽及鉚釘製造業,,螺帽
群詠科技有限公司,高雄市路竹區三爺里復興路７８８號,22.840498,120.282249,電腦電子及光學品業,其他光學儀器及設備製造業,,光學儀器及設備
乙慧企業社,高雄市路竹區鴨寮里復興路３６７巷８８號,22.846027399999997,120.27892299999999,金屬製品業,金屬模具製造業,,金屬手工具及模具，其他金屬製品
鑫利企業社,高雄市路竹區鴨寮里復興路３６７巷４００號,22.8456154,120.2804,金屬製品業,螺絲、螺帽及鉚釘製造業,,螺絲
暉冠工業股份有限公司,高雄市路竹區鴨寮里復興路８４９號,22.840993899999997,120.28308100000001,塑膠製品業,其他塑膠製品製造業,,塑膠製品（電子零件、玩具、汽機車零件）
英德工業股份有限公司二廠,高雄市路竹區三爺里民族路１３２號,22.8372421,120.277657,金屬製品業,螺絲、螺帽及鉚釘製造業,,螺帽、螺絲
鑫利五金有限公司,高雄市路竹區復興路３６７巷３６３號１樓,22.8453045,120.28166200000001,金屬製品業,螺絲、螺帽及鉚釘製造業,,螺絲
三傑飼料股份有限公司,高雄市路竹區復興路２８２號,22.84596,120.27548999999999,食品及飼品業,動物飼品製造業,,有機肥料、天然沸石、純高氮有機肥料
增慶企業有限公司,高雄市路竹區鴨寮里復興路２８２之２號,22.84596,120.27548999999999,機械設備業,金屬切削工具機製造業,,金屬加工用機械（沖棒）
瑞紳工業股份有限公司,高雄市路竹區鴨寮里復興路２８２之３號,22.84596,120.27548999999999,金屬製品業,螺絲、螺帽及鉚釘製造業,,螺帽（加工製造、五金零件）
品盛精密股份有限公司,高雄市路竹區民族路９５之２號,22.8370457,120.27835800000001,金屬製品業,金屬刀具及手工具製造業,,金屬手工具及模具
竹陞興企業有限公司,高雄市路竹區三爺里民族路９５號,22.8370457,120.27835800000001,金屬製品業,螺絲、螺帽及鉚釘製造業,,螺絲
如柏工廠股份有限公司,高雄市路竹區鴨寮里復興路３４３號,22.84635,120.275604,金屬製品業,螺絲、螺帽及鉚釘製造業,,螺帽
竹陞企業股份有限公司一廠,高雄市路竹區三爺里民族路１３８號,22.8368359,120.27790800000001,金屬製品業,螺絲、螺帽及鉚釘製造業,,螺絲
萬賢企業股份有限公司,高雄市路竹區三爺里民族路９７號,22.8366184,120.278625,金屬製品業,金屬模具製造業,,沖具、模具
超宏精密實業有限公司,高雄市路竹區鴨寮里新民路３９３號,22.845411300000002,120.27372700000001,金屬製品業,金屬模具製造業,,沖針
健德膠業有限公司,高雄市路竹區民權路２９巷５號,22.837833399999997,120.282028,橡膠製品業,其他橡膠製品製造業,,塑膠管灣頭、橡膠皮帶、橡膠防舷碰墊、橡膠
顯鏜門窗企業行,高雄市路竹區復興路８７３巷９號,22.84025,120.283752,金屬製品業,金屬建築組件製造業,,金屬結構及建築組件
啟祐企業社,高雄市路竹區鴨寮里復興路３６７巷５５弄３７號,22.8472176,120.27595500000001,金屬製品業,螺絲、螺帽及鉚釘製造業,,其他金屬製品、螺絲
英德工業股份有限公司抽線廠,高雄市路竹區三爺里復興路８１２號,22.8386784,120.283272,金屬製品業,螺絲、螺帽及鉚釘製造業,,螺帽、螺絲
英德工業股份有限公司,高雄市路竹區復興路８２０、８２８、８３０號,22.8379173,120.282867,金屬製品業,螺絲、螺帽及鉚釘製造業,,螺帽、螺絲
金元達金屬股份有限公司路竹廠,高雄市路竹區三爺里民權路２９巷２之１號,22.836584100000003,120.28128799999999,金屬製品業,金屬熱處理業,,五金熱處理加工
和泰產業股份有限公司,高雄市路竹區民權路２９巷２號,22.836584100000003,120.28128799999999,金屬製品業,螺絲、螺帽及鉚釘製造業,,鋼鐵螺絲、螺帽
英德工業股份有限公司三廠,高雄市路竹區復興路８８５號,22.838645899999996,120.283813,金屬製品業,螺絲、螺帽及鉚釘製造業,,螺帽、螺絲
東鈁精密股份有限公司,高雄市路竹區三爺里三民路１２號１樓,22.835722,120.279655,金屬製品業,金屬模具製造業,合金工具鋼、沖棒,模具
達彬企業有限公司,高雄市路竹區復興路１９８號,22.8475857,120.27304099999999,金屬製品業,金屬模具製造業,,沖棒
竹陞企業股份有限公司,高雄市路竹區三爺里民權路６０號,22.834877,120.280823,金屬製品業,螺絲、螺帽及鉚釘製造業,,螺絲
義勝精機有限公司,高雄市路竹區復興路８２５巷９５號,22.839311600000002,120.28571299999999,金屬製品業,螺絲、螺帽及鉚釘製造業,,螺絲、螺帽
小崗山螺絲股份有限公司,高雄市路竹區三爺里民權路４９號,22.834974300000003,120.281158,金屬製品業,螺絲、螺帽及鉚釘製造業,盤元,螺絲
本億模具股份有限公司,高雄市路竹區三爺里民族路１４７號,22.834322,120.279747,金屬製品業,金屬模具製造業,,模具、沖具、工具、刀具
佑春企業股份有限公司二廠,高雄市路竹區三爺里復興路９２２號,22.836031,120.284149,金屬製品業,螺絲、螺帽及鉚釘製造業,,螺絲
協盛展業有限公司,高雄市路竹區社東里東安路３６巷１１００之７號,22.847036399999997,120.287132,金屬製品業,螺絲、螺帽及鉚釘製造業,,螺絲、螺帽
仕翔工程工業有限公司,高雄市阿蓮區玉庫里６０－６８號,22.8410072,120.306351,金屬製品業,未分類其他金屬製品製造業,,天車
裕順機械工程股份有限公司玉庫廠,高雄市阿蓮區玉庫里玉庫６０之６８號,22.8410072,120.306351,機械設備業,未分類其他專用機械設備製造業,,臺車、油壓設備
冠誠國際股份有限公司阿蓮廠,高雄市阿蓮區玉庫里玉庫１之３７號,22.8439236,120.307236,金屬製品業,螺絲、螺帽及鉚釘製造業,,螺絲
聖順誠企業有限公司,高雄市阿蓮區玉庫里玉庫１１８之１７號,22.8439388,120.30646499999999,金屬製品業,螺絲、螺帽及鉚釘製造業,,螺絲
利豐工業社,高雄市阿蓮區玉庫里玉庫５０之１號,22.8424587,120.31019599999999,金屬製品業,螺絲、螺帽及鉚釘製造業,,螺絲
萬樺金屬企業股份有限公司二廠,高雄市阿蓮區玉庫里玉庫１２６－１、１２６－６號,22.8442688,120.30585500000001,金屬製品業,金屬模具製造業,,彎管、鐵工模具、沖床零件加工
屢鑫有限公司,高雄市阿蓮區玉庫里玉庫１１８之１２號,22.8374348,120.30731999999999,金屬製品業,螺絲、螺帽及鉚釘製造業,,螺絲
賀冠照明科技有限公司阿蓮廠,高雄市阿蓮區玉庫里玉庫１１８－２０號,22.8373451,120.30966200000002,電力設備業,照明器具製造業,,燈具
宇竑彩色印刷有限公司,高雄市阿蓮區玉庫里玉庫１３號,22.844099,120.31253799999999,印刷及儲存媒體複製業,印刷業,,紙容器、印刷、印刷品裝訂及加工
華瑋工業股份有限公司,高雄市阿蓮區玉庫里１之８５號,22.840301500000002,120.31318700000001,金屬製品業,螺絲、螺帽及鉚釘製造業,,螺絲
明冠企業社,高雄市岡山區潭底路３２５巷１６之１號,22.8364544,120.307976,金屬製品業,螺絲、螺帽及鉚釘製造業,,螺絲加工
韋合工廠股份有限公司,高雄市岡山區潭底里潭底路３２６號,22.836595499999998,120.310524,金屬製品業,金屬建築組件製造業,,金屬結構及建築組件
合德企業社,高雄市阿蓮區玉庫里玉庫１之４５號,22.8371983,120.31314099999999,金屬製品業,螺絲、螺帽及鉚釘製造業,,螺絲
元發實業社,高雄市阿蓮區玉庫里玉庫１之１８號,22.8374233,120.313515,橡膠製品業,工業用橡膠製品製造業,,橡膠製品
銓貿五金企業有限公司,高雄市岡山區潭底里潭底路３２２號,22.8356113,120.31147,金屬製品業,金屬模具製造業,,金屬手工具及模具
峻欣企業股份有限公司阿蓮廠,高雄市阿蓮區玉庫里玉庫１之３５號,22.839571,120.31503300000001,電力設備業,配線器材製造業,,電力控制箱
信盛精工股份有限公司,高雄市岡山區潭底里潭底路３０１、３０３號,22.8341141,120.3094,電力設備業,其他電力設備及配備製造業,,端子、多極端子接插座、絕緣套管
勳穎企業有限公司,高雄市岡山區潭底路２６０巷１５號,22.8345337,120.311272,金屬製品業,螺絲、螺帽及鉚釘製造業,,螺絲
柏昇企業社,高雄市阿蓮區復安里復安６８－２０號,22.84327,120.32278400000001,金屬製品業,螺絲、螺帽及鉚釘製造業,,螺絲
立暘實業有限公司,高雄市阿蓮區玉庫里玉庫１之１５號,22.8436413,120.32086899999999,電腦電子及光學品業,其他電腦週邊設備製造業,,其他電腦週邊設備加工
源溢企業有限公司,高雄市阿蓮區玉庫里玉庫路１之１４號,22.8439217,120.321175,金屬製品業,螺絲、螺帽及鉚釘製造業,,其他金屬製品、螺絲
承昇塑膠實業有限公司,高雄市阿蓮區玉庫里玉庫１－１６號,22.843635600000002,120.32070900000001,塑膠製品業,其他塑膠製品製造業,,塑膠杯、塑膠罐
通允股份有限公司,高雄市阿蓮區玉庫里玉庫２－１９號,22.8447,120.3209,塑膠製品業,其他塑膠製品製造業,,塑鋼門斗、塑鋼門片
嘉偉工業有限公司,高雄市阿蓮區玉庫１之６０號,22.8450718,120.3225,金屬製品業,螺絲、螺帽及鉚釘製造業,,螺絲
盈季企業有限公司,高雄市阿蓮區玉庫里玉庫１之２９號,22.8444939,120.31928300000001,其他運輸工具零件業,機車零件製造業,,機車及其零件、排氣管
峰峻企業股份有限公司二廠,高雄市阿蓮區玉庫里１之４號,22.8415451,120.317673,金屬製品業,金屬彈簧及線製品製造業,,其他金屬製品
忠信林企業有限公司阿蓮廠,高雄市阿蓮區玉庫里玉庫１０之２、１０之３號,22.845487600000002,120.31916799999999,機械設備業,未分類其他專用機械設備製造業,,專用機械及其零組件
巨笛有限公司,高雄市阿蓮區復安８１之９４號,22.846418399999997,120.32383700000001,金屬製品業,螺絲、螺帽及鉚釘製造業,,螺絲
冠全實業股份有限公司二廠,高雄市岡山區嘉峰里田厝路６０巷８號,22.8380814,120.318848,金屬製品業,金屬模具製造業,,模具
耀升企業社,高雄市阿蓮區復安里復安路８１之３１號,22.8460445,120.32571399999999,金屬製品業,螺絲、螺帽及鉚釘製造業,,螺絲
振曜有限公司二廠,高雄市阿蓮區復安里復安６７－２號,22.8419285,120.3284,金屬製品業,螺絲、螺帽及鉚釘製造業,,螺絲、螺帽
尚鐿實業有限公司,高雄市阿蓮區復安里復安６７－２號,22.8419285,120.3284,金屬製品業,螺絲、螺帽及鉚釘製造業,,螺絲、螺帽
泰正企業社,高雄市阿蓮區玉庫里玉庫１３之５６號,22.844816199999997,120.316956,金屬製品業,螺絲、螺帽及鉚釘製造業,,螺絲
裕發工程行,高雄市阿蓮區玉庫里玉庫１１－３１號,22.845888100000003,120.31768799999999,金屬製品業,金屬鍛造業,,線架
陸合興發紙器股份有限公司,高雄市阿蓮區復安里復安路８１之８５號,22.845523800000002,120.327408,紙漿、紙及紙製品業,瓦楞紙板及紙容器製造業,,紙箱
基佑企業有限公司,高雄市阿蓮區復安里復安１５６之９號１樓,22.847847,120.321991,金屬製品業,螺絲、螺帽及鉚釘製造業,,螺絲
騏陽模具有限公司,高雄市阿蓮區玉庫里玉庫１之１０號,22.83782,120.31723000000001,金屬製品業,未分類其他金屬製品製造業,,五金零件
漢威股份有限公司,高雄市阿蓮區復安里復安路９５之５０號,22.8473663,120.32595800000001,食品及飼品業,蔬果加工及保藏業,,照明設備（燈管，燈具）
基穎螺絲工廠股份有限公司,高雄市阿蓮區復安里復安１５６之５號,22.8483372,120.321754,金屬製品業,螺絲、螺帽及鉚釘製造業,,螺絲
基穎螺絲工廠股份有限公司阿蓮二廠,高雄市阿蓮區復安里復安１５６之５號,22.8483372,120.321754,金屬製品業,螺絲、螺帽及鉚釘製造業,,螺絲
富煌企業有限公司,高雄市阿蓮區玉庫里玉庫１之２６號,22.8374138,120.316093,金屬製品業,螺絲、螺帽及鉚釘製造業,,螺絲
永城木業有限公司,高雄市阿蓮區復安里復安１１６之３８號、１１６之３９號,22.847820000000002,120.32778200000001,木竹製品製造業,木質容器製造業,,木箱，棧板
銓繹機械有限公司,高雄市阿蓮區復安里復安１１８之２號,22.8492031,120.326225,機械設備業,未分類其他專用機械設備製造業,,螺絲篩選機
宏迎工業股份有限公司,高雄市阿蓮區復安里復安路２２號,22.8410854,120.335373,金屬製品業,螺絲、螺帽及鉚釘製造業,,螺絲
正燿企業行,高雄市阿蓮區復安里復安１１之１１號,22.8395081,120.336891,金屬製品業,金屬彈簧及線製品製造業,,金屬彈簧
林裕工廠股份有限公司二廠,高雄市阿蓮區復安１２之１號,22.839424100000002,120.337166,金屬製品業,螺絲、螺帽及鉚釘製造業,,螺帽
舜倡發企業股份有限公司,高雄市阿蓮區復安里復安１３之６號,22.8393211,120.333519,金屬製品業,螺絲、螺帽及鉚釘製造業,,螺絲
易鐵企業股份有限公司二廠,高雄市阿蓮區復安里復安１３之１１號,22.8377,120.33523600000001,金屬製品業,螺絲、螺帽及鉚釘製造業,,螺絲
昇達鑫興業股份有限公司三廠,高雄市阿蓮區復安里８之２３號,22.8374043,120.33614299999999,金屬製品業,金屬刀具及手工具製造業,,套筒扳手、螺絲起子
林裕工廠股份有限公司,高雄市阿蓮區復安里復安３９號,22.8430443,120.332245,金屬製品業,螺絲、螺帽及鉚釘製造業,,螺帽
政美模具工業有限公司,高雄市阿蓮區復安里復安１５之１５號,22.8364944,120.335625,金屬製品業,螺絲、螺帽及鉚釘製造業,,螺絲、螺帽
錦豪企業社,高雄市永安區保安路９８－１號,22.82742,120.23668700000002,金屬製品業,螺絲、螺帽及鉚釘製造業,,螺絲、螺帽加工
銘鈦模具社,高雄市永安區保寧里保安路９６之２號,22.8271923,120.23678600000001,塑膠製品業,其他塑膠製品製造業,,塑膠製品
永久鋼鐵實業股份有限公司永安廠,高雄市永安區保安路９２之１號,22.8248329,120.23815900000001,基本金屬業,鋼鐵鑄造業,,鋼鐵
誠毅紙器股份有限公司永安廠,高雄市永安區永安路１５、１５－１、１６－６、１６－７號,22.8234234,120.231834,紙漿、紙及紙製品業,瓦楞紙板及紙容器製造業,,紙容器
超總美業科技股份有限公司,高雄市永安區永安路１４之３號,22.822504000000002,120.23073600000001,化學製品業,清潔用品及化粧品製造業,,洗髮精
百士特股份有限公司,高雄市永安區保寧里保安路７８號,22.82316,120.238472,電子零組件業,太陽能電池製造業,,太陽能產品
韋奕工業股份有限公司路竹二廠,高雄市路竹區順安路３８３號,22.832973499999998,120.24086000000001,金屬製品業,螺絲、螺帽及鉚釘製造業,,螺帽
川益科技股份有限公司,高雄市路竹區南科高雄園區路科九路６號,22.8310318,120.251007,電子零組件業,未分類其他電子零組件製造業,,導軌（伺服器軌道）
雄順金屬股份有限公司三廠,高雄市永安區保興二路１０號,22.8255348,120.25113700000001,金屬製品業,其他金屬加工處理業,盤元、鹽酸、磷酸鹽,線材加工
展億環保科技有限公司資源回收再利用廠,高雄市永安區保興二路２００號,22.8239346,120.24968,化學材料業,化學原材料製造業,,氯化鈣
立國實業股份有限公司永安廠,高雄市永安區保寧里保興二路８號,22.824679999999997,120.2457,金屬製品業,螺絲、螺帽及鉚釘製造業,,其他金屬製品
和頌企業股份有限公司二廠,高雄市永安區保興一路７號,22.8238258,120.244125,汽車及零件業,汽車零件製造業,,機械設備製造、汽機車零件製造、自行車零件製造、航空器零件製造等
和頌企業股份有限公司,高雄市永安區保寧里保興一路７號１樓,22.8238258,120.244125,汽車及零件業,汽車零件製造業,,機械設備製造、汽機車零件製造、自行車零件製造、航空器零件製造、各種精密零件加工
常進工業股份有限公司,高雄市路竹區後鄉里順安路２７５巷２００號,22.8319626,120.2428,金屬製品業,螺絲、螺帽及鉚釘製造業,,螺絲
震南鐵線股份有限公司,高雄市路竹區後鄉里順安路２７５巷２０２號,22.8319759,120.24259199999999,基本金屬業,鋼鐵伸線業,,鋼線加工
震南鐵線股份有限公司路竹廠,高雄市路竹區後鄉里順安路２７５巷２０２號及永安區保安路１２６巷２１８號,22.8319759,120.24259199999999,基本金屬業,鋼鐵伸線業,,鋼線加工
延鴻工業股份有限公司,高雄市路竹區後鄉里順安路２７５巷１６６號,22.833385500000002,120.24311100000001,金屬製品業,金屬熱處理業,,金屬表面處理及熱處理
福德高帽有限公司,高雄市路竹區後鄉里順安路２７５巷１５８號,22.833782199999998,120.2433,金屬製品業,螺絲、螺帽及鉚釘製造業,,鋼鐵螺絲、螺帽
新樺精機股份有限公司,高雄市路竹區後鄉里順安路２７５巷１６０號,22.833782199999998,120.2433,機械設備業,其他通用機械設備製造業,,治具、夾具
喬稜精密工業有限公司,高雄市路竹區後鄉里順安路２７５巷１５６號,22.834014899999996,120.24344599999999,機械設備業,冶金機械製造業,,工作母機（沖床）裝配、自動化機械（機械手）
光南鋼鐵股份有限公司,高雄市路竹區後鄉里順安路２７５巷１７２、１７４號,22.83328,120.242355,金屬製品業,其他金屬加工處理業,,鐵鋼管、鷹架、鋼帶、鋼板
震南鐵線股份有限公司二廠,高雄市路竹區後鄉里順安路２７５巷１５２號,22.8345013,120.243637,金屬製品業,其他金屬加工處理業,,鋼線加工
川巧螺絲工業股份有限公司,高雄市路竹區後鄉里順安路２７５巷１７６號,22.8332539,120.24221000000001,金屬製品業,螺絲、螺帽及鉚釘製造業,,螺絲、螺帽
道錡工業股份有限公司,高雄市路竹區後鄉里順安路２７５巷１７８號,22.8331947,120.24195900000001,金屬製品業,螺絲、螺帽及鉚釘製造業,盤元、線材,螺絲
延隆工業股份有限公司,高雄市路竹區後鄉里順安路２７５巷２４６號,22.834068300000002,120.242676,金屬製品業,金屬熱處理業,,金屬熱處理加工
春祐工業有限公司,高雄市路竹區後鄉里順安路３３５號,22.8331833,120.24178300000001,金屬製品業,金屬模具製造業,,模具
震南鐵線股份有限公司線材廠,高雄市路竹區後鄉里順安路２７５巷２４２號,22.8343468,120.242935,金屬製品業,其他金屬加工處理業,,線材
詮鑫實業股份有限公司,高雄市路竹區後鄉里順安路２７５巷２４８號,22.8338718,120.24238600000001,金屬製品業,其他金屬加工處理業,,螺絲加工
金記模具有限公司,高雄市路竹區後鄉里順安路２７５巷２５０號,22.833784100000003,120.242195,金屬製品業,金屬模具製造業,,金屬手工具及模具
坴賦佳金屬有限公司,高雄市路竹區後鄉里順安路２７５巷２５２號,22.8337212,120.24205,金屬製品業,其他金屬加工處理業,,其他金屬建材處理
良豐不銹鋼管件有限公司二廠,高雄市路竹區北嶺里中山南路８８－１號,22.827981899999997,120.26469399999999,金屬製品業,未分類其他金屬製品製造業,,其他金屬製品
臺鑫食品冷凍事業股份有限公司路竹廠,高雄市路竹區北嶺里中山南路７２號,22.8292675,120.264954,食品及飼品業,肉類其他加工及保藏業,,冷凍肉類
良豐不銹鋼管件有限公司,高雄市路竹區北嶺里中山南路７４號,22.82862,120.26567800000001,金屬製品業,其他金屬加工處理業,,其他金屬製品、其他金屬製品
誠泰工業科技股份有限公司,高雄市路竹區北嶺里中山南路８８號,22.828268100000003,120.265732,橡膠製品業,其他橡膠製品製造業,,熱熔膠、感壓性熱熔膠、防水膜、防水膠
葳凱有限公司路竹廠,高雄市路竹區中山南路８８之２號,22.828268100000003,120.265732,金屬製品業,未分類其他金屬製品製造業,,續接器等金屬製品製造
榮成紙業股份有限公司路竹廠,高雄市路竹區北嶺里中山南路１００之１號,22.82684,120.26563300000001,紙漿、紙及紙製品業,瓦楞紙板及紙容器製造業,,瓦楞紙板、瓦楞紙箱
尖美實業股份有限公司路竹廠,高雄市路竹區北嶺里中山南路１００號,22.82684,120.26563300000001,金屬製品業,金屬建築組件製造業,,不銹鋼門窗、鋁製門窗、五金零件（船舶）
鼎加工業有限公司,高雄市路竹區中山南路９０之１號,22.8274651,120.26608999999999,金屬製品業,其他金屬容器製造業,,塑膠製品、金屬容器
聖東鐵桶股份有限公司,高雄市路竹區北嶺里中山南路９０號,22.8274651,120.26608999999999,金屬製品業,金屬鍛造業,,鐵桶
旺矽科技股份有限公司南部分公司二廠,高雄市路竹區南科高雄園區路科一路５號１樓Ｂ區．２樓Ｂ區,22.8315086,120.26232900000001,電子零組件業,半導體封裝及測試業,,探針卡．晶圓針測機
克瑪里能源科技股份有限公司,高雄市路竹區南科高雄園區路科三路６號,22.83115,120.261131,電力設備業,發電、輸電及配電機械製造業,,氣渦輪機動力設備及相關零組件
誠泰工業科技股份有限公司高科廠,高雄市路竹區南科高雄園區路科三路１號,22.82998,120.26003999999999,橡膠製品業,其他橡膠製品製造業,,熱熔膠、感壓性熱熔膠、防水膜、防水膠
皇亮生醫科技股份有限公司,高雄市路竹區南科高雄園區路科二路５５號１樓,22.8277855,120.2594,其他製造業,其他醫療器材及用品製造業,,醫療器材及用品製造
益生生技開發股份有限公司南科分公司,高雄市路竹區南科高雄園區路科二路５５號３樓,22.8277855,120.2594,其他製造業,其他醫療器材及用品製造業,,檢測試劑
禾研科技股份有限公司南科分公司高科廠,高雄市路竹區南科高雄園區路科二路５５號４樓,22.8277855,120.2594,其他製造業,其他醫療器材及用品製造業,,血液透析器
喜樂醫療器材股份有限公司,高雄市路竹區南科高雄園區路科二路６３號１樓,22.827665300000003,120.2594,其他製造業,其他醫療器材及用品製造業,,骨水泥及注射器
台灣創新生醫股份有限公司,高雄市路竹區南科高雄園區路科二路６３號２樓,22.827665300000003,120.2594,其他製造業,其他醫療器材及用品製造業,,堆疊沈積技術成型之齒科產品與醫療器材及用品
台灣植體科技股份有限公司高科分公司,高雄市路竹區南科高雄園區路科二路６３號５樓,22.827665300000003,120.2594,其他製造業,其他醫療器材及用品製造業,鈦棒,人工牙根
欣全實業股份有限公司高雄一廠,高雄市路竹區中山南路５１號,22.8269615,120.26718899999999,塑膠製品業,其他塑膠製品製造業,,塑膠容器
味全食品工業股份有限公司高雄廠,高雄市路竹區北嶺里中山南路５１號,22.8269615,120.26718899999999,食品及飼品業,乳品製造業,,鮮乳、調味乳（盒裝）、布丁
可成生物科技股份有限公司,高雄市路竹區南科高雄園區路科二路５７號１樓,22.8277836,120.259323,其他製造業,其他醫療器材及用品製造業,鈦粉,非動力手術器械、其他醫療器材及用品
泰陞國際科技股份有限公司,高雄市路竹區南科高雄園區路科二路６５號１樓,22.827661499999998,120.25933799999999,其他製造業,其他醫療器材及用品製造業,,（１）傷口照護敷料及其相關衍生產品（２）液態型無痛皮膚保護膜及其相關衍生產品
傑奎科技股份有限公司南科分公司,高雄市路竹區南科高雄園區路科二路６５號３樓,22.827661499999998,120.25933799999999,其他製造業,其他醫療器材及用品製造業,,人工骨，外固定器，骨釘
亞果生醫股份有限公司,高雄市路竹區南科高雄園區路科二路５７號３樓,22.8277836,120.25931499999999,其他製造業,其他醫療器材及用品製造業,,清水性創傷覆蓋材
旺矽科技股份有限公司南部分公司一廠,高雄市路竹區南科高雄園區路科一路７號,22.832098000000002,120.262245,電子零組件業,半導體封裝及測試業,,探針卡、晶圓針測機
力煒奈米科技股份有限公司高科分公司,高雄市路竹區南科高雄園區路科二路５９號４樓,22.8277817,120.259254,化學材料業,化學原材料製造業,,金屬／金屬氧化物奈米粉體及懸浮液、膠態貴金屬、量子點等材料與奈米應用產品
京達醫材科技股份有限公司,高雄市路竹區南科高雄園區路科二路５９號１樓,22.8277817,120.259254,其他製造業,其他醫療器材及用品製造業,,植體
美環能股份有限公司,高雄市路竹區南科高雄園區路科三路６之２號,22.8316822,120.261131,電子零組件業,太陽能電池製造業,,光電材料及元件、其他太陽能電池
普生股份有限公司南科廠,高雄市路竹區南科高雄園區路科二路６１號３樓,22.827773999999998,120.259178,其他製造業,其他醫療器材及用品製造業,,血小板濃縮液分離管
建佳科技股份有限公司,高雄市路竹區南科高雄園區路科二路６９號２樓,22.827655800000002,120.259178,機械設備業,其他通用機械設備製造業,,其他通用機械．半導體自動化設備．
健鑫生醫科技股份有限公司,高雄市路竹區南科高雄園區路科二路６９號３樓,22.827655800000002,120.259178,其他製造業,其他醫療器材及用品製造業,,柰米敷材凝膠
品毅工業股份有限公司,高雄市路竹區北嶺里中山南路１０２號,22.825353600000003,120.26649499999999,基本金屬業,鋼鐵伸線業,,硬鋼線、黑鐵線（軋鋼製品除外）
山和機工廠二廠,高雄市路竹區北嶺里民主路８９巷３０號,22.824398000000002,120.265266,機械設備業,其他通用機械設備製造業,,機械零件
新揚科技股份有限公司,高雄市路竹區南科高雄園區路科二路８號,22.8294945,120.258873,電子零組件業,未分類其他電子零組件製造業,,軟性銅箔基板及背膠膜
科頂科技工業股份有限公司,高雄市路竹區南科高雄園區路科五路１００號２樓、９８號２樓,22.82757,120.258385,其他製造業,其他醫療器材及用品製造業,,磨牙機
太冠瑪生物科技股份有限公司,高雄市路竹區南科高雄園區路科五路１００號５樓,22.8275738,120.258377,化學製品業,清潔用品及化粧品製造業,,化粧品
怡忠科技股份有限公司,高雄市路竹區南科高雄園區路科五路９０號１樓及１００號１樓,22.827676800000003,120.25833899999999,其他製造業,其他醫療器材及用品製造業,,ＰＡＢＰ
醫百科技股份有限公司,高雄市路竹區南科高雄園區路科五路９０號２樓,22.827676800000003,120.25833899999999,其他製造業,其他醫療器材及用品製造業,,１、牙科臨床技術評估考核及導引系統、２、數位式牙科臨床技術評估昇級系統、３、牙科阻斷麻醉注射模擬教學導引評估系統、４、ＬＥＤ數位影像定位照射儀
長陽生醫國際股份有限公司南科分公司,高雄市路竹區南科高雄園區路科五路９８號４樓Ｃ室,22.82755,120.258278,其他製造業,其他醫療器材及用品製造業,,３Ｄ醫療模型相關列印代工
光焱科技股份有限公司,高雄市路竹區南科高雄園區路科五路９６號１樓Ａ室,22.8275185,120.25814799999999,電腦電子及光學品業,其他光學儀器及設備製造業,,光譜響應量測系統
光宇醫療儀器股份有限公司高雄分公司,高雄市路竹區南科高雄園區路科五路９６號４樓,22.8275185,120.25814799999999,其他製造業,其他醫療器材及用品製造業,,牙科治療枱
鐳鼎科技股份有限公司,高雄市路竹區南科高雄園區路科五路９６號５樓,22.8275185,120.25814799999999,其他製造業,其他醫療器材及用品製造業,,牙科雷射設備
新展工廠股份有限公司,高雄市路竹區北嶺里民主路１１９號,22.82356,120.264664,金屬製品業,螺絲、螺帽及鉚釘製造業,盤元（線材）,螺絲
台灣愛玉生技開發股份有限公司南科分公司,高雄市路竹區南科高雄園區路科五路８６號４樓,22.827653899999998,120.2581,食品及飼品業,未分類其他食品製造業,,保健食品
睿谷科技股份有限公司,高雄市路竹區南科高雄園區路科五路８６號５樓,22.827653899999998,120.2581,其他製造業,其他醫療器材及用品製造業,,鈣磷系骨填補材、生醫陶瓷、牙齒復型材料、可吸收高分子骨填補材
全球安聯科技股份有限公司,高雄市路竹區南科高雄園區路科五路９２號２樓、９６號２樓,22.82749,120.25801100000001,金屬製品業,螺絲、螺帽及鉚釘製造業,,高級工業扣件、醫療器材及相關器械
立創光電股份有限公司高雄科學園區分公司,高雄市路竹區南科高雄園區路科五路８２號４樓,22.8276348,120.25796499999998,電腦電子及光學品業,其他光學儀器及設備製造業,,光學儀器及零組件
微奈科技股份有限公司,高雄市路竹區南科高雄園區路科五路８２號１樓,22.8276329,120.257957,機械設備業,其他通用機械設備製造業,,閥軸
東台精機股份有限公司第一廠,高雄市路竹區南科高雄園區路科三路３號,22.831502899999997,120.25891100000001,機械設備業,金屬切削工具機製造業,,ＰＣＢ鑽孔機／成型機、綜合切削中心機、ＣＮＣ車床、光電產品、專用機
廣泰金屬工業股份有限公司路竹二廠,高雄市路竹區南科高雄園區路科一路９號,22.833828,120.26201599999999,金屬製品業,未分類其他金屬製品製造業,,醫療材料
光陽工業股份有限公司路竹廠,高雄市路竹區北嶺里中山南路６１號,22.82424,120.2682,其他運輸工具零件業,機車製造業,,機車、引擎、機車零件、汽車零件
海華鋼鐵有限公司三廠,高雄市岡山區民主路１號,22.822462100000003,120.265327,金屬製品業,未分類其他金屬製品製造業,,線材伸線
樂利士實業股份有限公司,高雄市路竹區南科高雄園區北嶺六路７７號,22.8307018,120.2697,電腦電子及光學品業,其他光學儀器及設備製造業,,太陽光模擬器
台灣伊格爾博格曼股份有限公司,高雄市路竹區南科高雄園區北嶺二路１８號,22.827732100000002,120.270416,機械設備業,其他通用機械設備製造業,,軸封設計與製造
東台精機股份有限公司路科二廠,高雄市路竹區南科高雄園區路科三路５號,22.8338184,120.259262,機械設備業,金屬切削工具機製造業,,金屬加工用機械設備
泰義工業股份有限公司,高雄市路竹區北嶺里中山南路８９號,22.823001899999998,120.267784,機械設備業,機械傳動設備製造業,,減速機，水車，馬達
亞洲漢威螺帽股份有限公司,高雄市路竹區南科高雄園區北嶺六路３５號,22.82885,120.271355,金屬製品業,未分類其他金屬製品製造業,,螺帽
東麗尖端薄膜股份有限公司,高雄市岡山區南科高雄園區民主路９９號,22.8238125,120.256477,電子零組件業,液晶面板及其組件製造業,,光電保護膜
峻毅工廠股份有限公司,高雄市路竹區三爺里民族路２５１巷２４７號,22.8286228,120.279816,塑膠製品業,塑膠皮、板及管材製造業,,塑膠料、編織布
生合生物科技股份有限公司,高雄市路竹區南科高雄園區北嶺六路６６號,22.8274,120.27530700000001,食品及飼品業,未分類其他食品製造業,,乳酸菌粉；濃縮發酵液；寡糖液、粉：乳酸顆粒及膠囊等；動物飼料添加劑
傳能企業股份有限公司,高雄市路竹區三爺里民族路２５１巷５號,22.831186300000002,120.279,機械設備業,紡織、成衣及皮革生產用機械設備製造業,,工業縫紉機
東鈁精密股份有限公司,高雄市路竹區三爺里民族路２５１巷１５０號,22.8311024,120.27588700000001,金屬製品業,金屬模具製造業,合金工具鋼，沖棒,模具
辰和科技藥業股份有限公司南科分公司,高雄市路竹區南科高雄園區北嶺六路３１號,22.82675,120.274445,藥品及醫用化學品業,西藥製造業,,藥品及醫用化學製品
永立模具股份有限公司,高雄市路竹區三爺里民族路１７３之２號,22.832716,120.2792,金屬製品業,金屬模具製造業,,模具
益昌精密工具股份有限公司二廠,高雄市路竹區三爺里民權路１６５巷１５號,22.832508100000002,120.28080700000001,金屬製品業,金屬刀具及手工具製造業,,固定軸加工
如柏工廠股份有限公司三廠,高雄市路竹區民權路９６巷１３８號１樓,22.828989,120.28335600000001,金屬製品業,螺絲、螺帽及鉚釘製造業,,螺帽
益昌精密工具股份有限公司,高雄市路竹區三爺里三民路６５號,22.8332,120.28014399999999,金屬製品業,金屬刀具及手工具製造業,,固定軸加工
登鈺工廠股份有限公司,高雄市路竹區三爺里民權路９６巷１１１號,22.830211600000002,120.283371,金屬製品業,螺絲、螺帽及鉚釘製造業,,螺帽、螺絲
台灣賽諾世股份有限公司,高雄市路竹區南科高雄園區北嶺六路３３號,22.828096399999996,120.272324,電子零組件業,其他光電材料及元件製造業,,電子材料保護膜
銓益盛機械有限公司,高雄市路竹區三爺里民權路９６巷１１３號,22.83139,120.28326399999999,機械設備業,其他金屬加工用機械設備製造業,,自動搓牙機
萬毅企業股份有限公司,高雄市路竹區三爺里民權路１１０號,22.8336945,120.28036499999999,金屬製品業,金屬刀具及手工具製造業,,機配件（沖具、模具、工具、刀具）
晟田科技工業股份有限公司,高雄市路竹區南科高雄園區北嶺二路１１號,22.8251266,120.272621,其他運輸工具零件業,未分類其他運輸工具及其零件製造業,,研發、設計、製造及銷售：航太產業發動機機匣、起落架及次系統相關零組件、無菌食品充填設備產業相關零組件、半導體及平面顯示器製程設備、管路設備零組件、工業自動化精密傳動零組件
高益企業社,高雄市路竹區三爺里民權路９６巷１８７號,22.829629999999998,120.284676,金屬製品業,螺絲、螺帽及鉚釘製造業,,其他金屬製品
峻昇工廠股份有限公司,高雄市路竹區三爺里民權路６７之２號,22.8341122,120.281158,金屬製品業,螺絲、螺帽及鉚釘製造業,,螺絲、螺帽
盈信塑膠企業股份有限公司,高雄市路竹區三爺里民權路３６０號,22.833437,120.282425,塑膠製品業,其他塑膠製品製造業,,塑膠製品
維拉鑄造股份有限公司二廠,高雄市路竹區民有路１５９號,22.8215332,120.27667199999999,基本金屬業,鋼鐵鑄造業,,鑄件
世鎧精密股份有限公司路竹廠,高雄市路竹區北嶺里民有路１６１號,22.821476,120.276886,基本金屬業,鋼鐵伸線業,,不鏽鋼線材
傑聯工業有限公司,高雄市路竹區北嶺里民有路６２５巷６號,22.8216,120.28031899999999,金屬製品業,螺絲、螺帽及鉚釘製造業,,螺絲
路發實業有限公司,高雄市路竹區北嶺里民有路６２５巷７號,22.8214455,120.279968,金屬製品業,金屬模具製造業,,模具加工
宏源順企業有限公司,高雄市路竹區北嶺里民有路６３５巷１６號,22.821720000000003,120.28094499999999,金屬製品業,金屬彈簧及線製品製造業,,銅線及鋼線加工，不銹鋼線加工
明石金屬股份有限公司,高雄市路竹區北嶺里民有路６３５巷５號,22.8215084,120.2806,金屬製品業,金屬熱處理業,,金屬熱處理、汽機車零件
宏允機械有限公司,高雄市路竹區北嶺里民有路６３５巷１２號,22.8215,120.280914,金屬製品業,未分類其他金屬製品製造業,,鋼鐵零件
竹台螺絲工業有限公司,高雄市路竹區北嶺里民有路６２１號,22.8210258,120.27977,金屬製品業,螺絲、螺帽及鉚釘製造業,,其他金屬製品、螺絲
旺成企業有限公司,高雄市路竹區北嶺里民有路６３５巷３號,22.821209,120.280556,機械設備業,其他通用機械設備製造業,,工業爐、輸送機械、治具
維拉鑄造股份有限公司,高雄市路竹區北嶺里民有路６３５巷８號,22.821306200000002,120.280876,基本金屬業,鋼鐵鑄造業,,鑄件
博耘企業股份有限公司,高雄市路竹區北嶺里民有路６２３號,22.8210068,120.27993799999999,金屬製品業,螺絲、螺帽及鉚釘製造業,,螺絲
耀鑫工業有限公司二廠,高雄市路竹區民有路６３５巷６號,22.8212128,120.280846,金屬製品業,未分類其他金屬製品製造業,,零件加工
耀鑫工業有限公司,高雄市路竹區北嶺里民有路６３５巷１號,22.821064,120.28051799999999,金屬製品業,未分類其他金屬製品製造業,,零件加工
勤益螺絲有限公司二廠,高雄市路竹區民權路２４７、２４９號,22.8326035,120.285027,金屬製品業,螺絲、螺帽及鉚釘製造業,,其他金屬製品
玉錡企業股份有限公司,高雄市路竹區北嶺里民有路６２５巷２號及６２６號Ａ棟,22.8209076,120.280273,金屬製品業,螺絲、螺帽及鉚釘製造業,,螺絲、不銹鋼螺絲
晉華企業股份有限公司,高雄市路竹區北嶺里民有路６３１號,22.8209171,120.280426,機械設備業,未分類其他專用機械設備製造業,,紙器機械、螺絲機械、工業機械
旺成企業有限公司二廠,高雄市路竹區北嶺里民有路６３５巷２號,22.821003,120.28083000000001,機械設備業,其他通用機械設備製造業,,工業爐、輸送機械、治具
凱宇工業有限公司,高雄市路竹區民有路６３７，６３９號,22.8208313,120.28086100000002,機械設備業,其他通用機械設備製造業,,吊具及捲揚機組等工程
岡一機械股份有限公司,高雄市路竹區北嶺里民治路４０巷１７號１樓,22.823205899999998,120.271507,機械設備業,機械傳動設備製造業,鋼鐵、彈簧、鐵氟龍、管材類,機械軸封、軸封整修、迴轉接頭及附屬零件配件
信成模具有限公司,高雄市路竹區三爺里復興路１２２８號,22.830471,120.28658300000001,金屬製品業,金屬模具製造業,,模具
信成模具有限公司一廠,高雄市路竹區三爺里復興路１２２８號,22.830471,120.28658300000001,金屬製品業,金屬模具製造業,,模具
長隆化工有限公司,高雄市路竹區三爺里復興路１２３７之２號,22.8294449,120.288147,化學製品業,塗料、染料及顏料製造業,,塗料表面處理劑
啟新企業社二廠,高雄市岡山區為隨里為隨東路９４號,22.8243656,120.29055,金屬製品業,螺絲、螺帽及鉚釘製造業,,螺絲、螺帽
啟新企業社,高雄市岡山區為隨里為隨東路９２號,22.8240128,120.291214,金屬製品業,螺絲、螺帽及鉚釘製造業,,螺絲、螺帽
柯穎五金企業有限公司,高雄市岡山區為隨東路９６號,22.82385,120.291725,金屬製品業,螺絲、螺帽及鉚釘製造業,,螺帽
燁聯鋼鐵股份有限公司,高雄市岡山區嘉興里興隆街５８１、５９０、５９２、６００、６００之１、６００之２、６００之３、６０２、６０４號,22.833931,120.297379,基本金屬業,鋼鐵軋延及擠型業,,冷軋不銹鋼捲／板、熱軋不銹鋼捲／板、不銹鋼小鋼胚
春旭模具有限公司,高雄市岡山區嘉興里宏中街３６５號,22.82232,120.296967,金屬製品業,金屬刀具及手工具製造業,,金屬手工具及模具，金屬加工用機械設備
佶億工廠股份有限公司,高雄市路竹區三爺里復興路１１３３巷６０號,22.8334522,120.28743,金屬製品業,螺絲、螺帽及鉚釘製造業,,螺帽、螺絲
中鴻鋼鐵股份有限公司熱軋廠,高雄市岡山區嘉興里興隆街５７６、之１、之２、之３、之５號,22.828317600000002,120.300652,基本金屬業,鋼鐵軋延及擠型業,,熱軋鋼捲
怡達砂石有限公司,高雄市岡山區嘉興里宏中街４８０之１號,22.8225918,120.29816399999999,非金屬礦物製品業,未分類其他非金屬礦物製品製造業,,砂石
榮進發企業有限公司,高雄市岡山區為隨里為隨東路７２號,22.8204212,120.291374,金屬製品業,螺絲、螺帽及鉚釘製造業,,螺絲、螺帽加工
鳳儀工廠股份有限公司,高雄市岡山區潭底里潭底路６０號,22.8277359,120.309395,金屬製品業,螺絲、螺帽及鉚釘製造業,,螺絲
元鴻發展股份有限公司,高雄市岡山區嘉興里嘉興路４５２、６４１號,22.826314899999996,120.3074,食品及飼品業,動物飼品製造業,,合板、花板、配合飼料、紙尿褲
利新事業股份有限公司,高雄市岡山區潭底里興隆街６０８號,22.830076199999997,120.305428,化學材料業,化學原材料製造業,,氧氣、氬氣、氮氣
韋合工廠股份有限公司,高雄市岡山區嘉峰里嘉峰路２３之２號,22.8274155,120.311081,金屬製品業,金屬建築組件製造業,,金屬結構及建築組件
億瑋誠精密工業股份有限公司,高雄市岡山區潭底里崑山東巷１２弄４６號,22.8307343,120.310905,金屬製品業,金屬模具製造業,,模具
廣裕螺絲企業股份有限公司,高雄市岡山區嘉興里興北巷６２弄５１號,22.82571,120.30448899999999,金屬製品業,螺絲、螺帽及鉚釘製造業,,其他金屬製品
日精蛋品有限公司,高雄市岡山區嘉峰里宮中街９０巷１６號,22.83054,120.311295,食品及飼品業,未分類其他食品製造業,,雞蛋
隆宇工業有限公司,高雄市岡山區嘉峰里宮中街９０巷１０號,22.83055,120.31143999999999,金屬製品業,螺絲、螺帽及鉚釘製造業,,螺絲、螺帽
順宏興業有限公司,高雄市岡山區嘉峰里嘉峰路２巷３之１號,22.825025600000004,120.31033300000001,金屬製品業,螺絲、螺帽及鉚釘製造業,,螺絲、螺帽及鉚釘製造
東清企業社,高雄市岡山區嘉峰里嘉峰路２巷５號,22.825025600000004,120.31033300000001,金屬製品業,螺絲、螺帽及鉚釘製造業,,螺絲、螺帽加工
峰峻企業股份有限公司,高雄市岡山區嘉峰里嘉峰路９１號,22.8283634,120.312256,金屬製品業,金屬彈簧及線製品製造業,,刺網、網帶、不銹鋼網
來昶企業社,高雄市岡山區嘉峰路２巷１２號,22.824506799999998,120.31033300000001,金屬製品業,螺絲、螺帽及鉚釘製造業,,螺絲加工
劦清企業有限公司二廠,高雄市岡山區嘉峰路２巷２０號,22.824472399999998,120.31069199999999,金屬製品業,螺絲、螺帽及鉚釘製造業,,螺絲
正蒲企業有限公司,高雄市岡山區嘉峰里嘉峰路６０巷８號１樓,22.827274300000003,120.31273700000001,機械設備業,其他金屬加工用機械設備製造業,,打頭機自動檢測器
春昱企業社,高雄市岡山區嘉峰里嘉峰路２巷３０號１樓,22.824533499999998,120.311195,金屬製品業,螺絲、螺帽及鉚釘製造業,,螺絲、帽＝＞模具
國振工業股份有限公司,高雄市岡山區潭底里潭底路２２１之１７、２９１號,22.83322,120.30961599999999,金屬製品業,螺絲、螺帽及鉚釘製造業,,螺絲、螺帽
總通興業有限公司二廠,高雄市岡山區嘉峰里嘉峰路６０巷３１之１１號,22.8275185,120.3132,機械設備業,輸送機械設備製造業,,吊重機、輸送設備零件
銘陽模具企業社,高雄市岡山區嘉興里嘉華路１８６巷１號,22.8242245,120.311371,金屬製品業,金屬模具製造業,,沖壓模具
永義企業工廠,高雄市岡山區嘉興里嘉華路２０６號,22.8230762,120.30965400000001,機械設備業,輸送機械設備製造業,,螺絲、螺帽、機械零件
瑞瀧企業股份有限公司,高雄市岡山區嘉興里嘉華路２８０號,22.82272,120.30794499999999,金屬製品業,螺絲、螺帽及鉚釘製造業,,螺絲
春雨工廠股份有限公司嘉興廠,高雄市岡山區嘉華路２７９號,22.82272,120.30794499999999,金屬製品業,螺絲、螺帽及鉚釘製造業,盤元,螺絲、磨光鋼棒、攻牙螺絲、球化線材、螺帽
威辰精密有限公司,高雄市岡山區嘉興里嘉華路１８８號,22.823636999999998,120.311249,金屬製品業,金屬建築組件製造業,,六角、Ｔ沖、夾仔
大昌瑋工業有限公司二廠,高雄市岡山區嘉華路８０巷１１５號,22.82441,120.31226299999999,金屬製品業,螺絲、螺帽及鉚釘製造業,,螺絲、螺帽
三可實業社,高雄市岡山區嘉興里興北巷６２弄１２號,22.8231754,120.304626,食品及飼品業,碾榖業,,碾榖、磨粉及澱粉製品
詮錩模具有限公司,高雄市岡山區嘉興里嘉華路１８６巷２號,22.8239517,120.31192800000001,金屬製品業,金屬模具製造業,,模具
梓鎔企業有限公司,高雄市岡山區嘉興里興北巷７０弄１８號,22.8239727,120.30313100000001,金屬製品業,螺絲、螺帽及鉚釘製造業,,螺絲、螺帽
鑫尚企業股份有限公司,高雄市岡山區嘉華路８０巷１０１、１０３號,22.824596399999997,120.31278999999999,金屬製品業,螺絲、螺帽及鉚釘製造業,,螺絲、螺帽、鉚釘製造
利泰牙板有限公司二廠,高雄市岡山區嘉華路８０巷６８號,22.8256836,120.313744,金屬製品業,金屬模具製造業,,金屬手工具及模具
春雨生醫股份有限公司,高雄市岡山區嘉興里嘉華路２６９號,22.8221188,120.306656,金屬製品業,金屬表面處理業,,手工具（粉末冶金），模型槍，濾水器
尚峯模具有限公司,高雄市岡山區嘉興里嘉華路１３８號,22.8235645,120.31226299999999,金屬製品業,金屬模具製造業,,模具
岡山永和精工有限公司二廠,高雄市岡山區嘉峰路６０巷３８號,22.8270988,120.314507,金屬製品業,螺絲、螺帽及鉚釘製造業,,螺絲
佐善工業有限公司,高雄市岡山區嘉興里嘉華路８０巷９１號,22.8246574,120.31340800000001,金屬製品業,螺絲、螺帽及鉚釘製造業,,螺絲加工
協晉紙器有限公司,高雄市岡山區嘉興里嘉華路１４１號,22.8229237,120.31159199999999,紙漿、紙及紙製品業,瓦楞紙板及紙容器製造業,,紙箱
凱雍工業股份有限公司二廠,高雄市岡山區潭底里潭底路２８０號,22.8338547,120.3117,金屬製品業,螺絲、螺帽及鉚釘製造業,,螺絲
義昇螺絲有限公司,高雄市岡山區華崗里嘉華路１３５之２３號,22.8231831,120.31221000000001,金屬製品業,螺絲、螺帽及鉚釘製造業,,螺絲、螺帽
正新螺絲工廠股份有限公司二廠,高雄市岡山區嘉興里嘉華路１３５之１００號,22.8231831,120.31221000000001,金屬製品業,螺絲、螺帽及鉚釘製造業,,螺絲
金華興企業社,高雄市岡山區嘉興里嘉華路１３５之２０號,22.8231831,120.31221000000001,機械設備業,其他金屬加工用機械設備製造業,,機械鐵板加工
掌全企業有限公司,高雄市岡山區嘉興里嘉華路１３５之２７號,22.8231831,120.31221000000001,金屬製品業,未分類其他金屬製品製造業,,其他金屬製品
允通晟工業有限公司,高雄市岡山區嘉興里嘉華路１３５之８７號,22.8231831,120.31221000000001,金屬製品業,螺絲、螺帽及鉚釘製造業,,螺絲加工
冠均食品有限公司,高雄市岡山區嘉興里嘉華路１３５號,22.8231831,120.31221000000001,食品及飼品業,未分類其他食品製造業,,其他食品
明軒螺絲有限公司一廠,高雄市岡山區嘉華路１３５之２７號,22.8231831,120.31221000000001,金屬製品業,螺絲、螺帽及鉚釘製造業,,螺絲、螺帽、其他金屬製品
麗敏企業有限公司嘉興廠,高雄市岡山區嘉華路１３５之２９號,22.8231831,120.31221000000001,金屬製品業,螺絲、螺帽及鉚釘製造業,,螺絲
豐譯企業社嘉華廠,高雄市岡山區嘉華路１３５之５２號,22.8231831,120.31221000000001,金屬製品業,螺絲、螺帽及鉚釘製造業,,華司
上興釣具企業社,高雄市岡山區嘉華路１３５之８０號,22.8231831,120.31221000000001,其他製造業,體育用品製造業,,育樂用品
吉瞬興業股份有限公司,高雄市岡山區嘉華路１３５之８１、１３５之８３、１３５之８５號,22.8231831,120.31221000000001,金屬製品業,螺絲、螺帽及鉚釘製造業,,其他金屬製品
茂宥工具股份有限公司,高雄市岡山區嘉華路１３５之９８號,22.8231831,120.31221000000001,金屬製品業,金屬模具製造業,,沖棒、Ｔ沖
鍇泰工業有限公司,高雄市岡山區興北巷６８號,22.8230553,120.30313100000001,金屬製品業,未分類其他金屬製品製造業,,其他金屬製品
毅豐橡膠工業股份有限公司,高雄市岡山區嘉興里嘉興路２９１號,22.8221569,120.3045,橡膠製品業,工業用橡膠製品製造業,,電容器封口
豪茂螺帽工廠股份有限公司嘉華廠,高雄市岡山區嘉興里嘉華路８０巷１２１號,22.825483300000002,120.314346,金屬製品業,螺絲、螺帽及鉚釘製造業,,螺絲．螺帽
于旺螺絲工業有限公司,高雄市岡山區嘉華路１３５－６號,22.8221531,120.311668,金屬製品業,螺絲、螺帽及鉚釘製造業,,螺絲
岡山永和精工有限公司,高雄市岡山區嘉峰里嘉峰路６０巷３５、３５之１號,22.8277359,120.3156,金屬製品業,螺絲、螺帽及鉚釘製造業,,螺絲
鍇泰工業有限公司二廠,高雄市岡山區嘉華路８０巷９０號,22.8247414,120.314674,金屬製品業,未分類其他金屬製品製造業,,其他金屬製品
寸真實業有限公司二廠,高雄市岡山區嘉華路８０巷８８號,22.8244534,120.31456000000001,其他製造業,體育用品製造業,,纖維竿、天線桿及相關系列釣竿等釣魚用品
昌昇起重工程行,高雄市岡山區嘉興里嘉華路７２之１號,22.8239288,120.314568,橡膠製品業,其他橡膠製品製造業,,橡膠顆粒
鼎鑫企業行,高雄市岡山區嘉興里信中街６１巷１３５之１號,22.8205414,120.30936399999999,金屬製品業,螺絲、螺帽及鉚釘製造業,,螺絲加工（其他金屬加工處理）
皇晉工業有限公司嘉興廠,高雄市岡山區嘉興里嘉華路８０巷１００號,22.8246746,120.315292,金屬製品業,螺絲、螺帽及鉚釘製造業,盤元,螺絲
勇勁企業社,高雄市岡山區嘉興里信中街６１巷９５之２５號,22.820356399999998,120.307465,金屬製品業,螺絲、螺帽及鉚釘製造業,,螺絲、螺帽
勝宏企業社,高雄市岡山區嘉興里嘉華路８０巷１３７號,22.825622600000003,120.315773,金屬製品業,螺絲、螺帽及鉚釘製造業,,螺絲加工
三逸企業社,高雄市岡山區嘉興里嘉華路１８１巷１８弄５號,22.82084,120.3107,金屬製品業,其他金屬加工處理業,,其他金屬加工
鴻鑫五金企業社,高雄市岡山區嘉興里嘉華路４７之４８號,22.8231182,120.314278,金屬製品業,螺絲、螺帽及鉚釘製造業,,螺絲（五金）加工
翊喬螺絲有限公司,高雄市岡山區嘉華路４７之８號,22.8231182,120.314278,金屬製品業,螺絲、螺帽及鉚釘製造業,,螺絲
東昇紙器工廠股份有限公司,高雄市岡山區嘉華路４７號,22.8231182,120.314278,紙漿、紙及紙製品業,瓦楞紙板及紙容器製造業,,紙器、紙箱
億成螺絲有限公司,高雄市岡山區華崗里拕子中街９４巷１５號,22.8267136,120.32125900000001,金屬製品業,螺絲、螺帽及鉚釘製造業,,螺絲
登財精密工業股份有限公司,高雄市岡山區華崗里拕子中街６７號,22.825681699999997,120.32166299999999,金屬製品業,金屬模具製造業,,牙板沖棒、成形銑刀、六角模
明瞭螺絲工廠股份有限公司,高雄市岡山區華崗里拕子中街１２１號,22.8260937,120.32040400000001,金屬製品業,螺絲、螺帽及鉚釘製造業,,螺絲加工
德銘晉有限公司,高雄市岡山區華崗里拕子三街５２號,22.8259773,120.32001499999998,金屬製品業,螺絲、螺帽及鉚釘製造業,,螺絲、螺帽
德宏恩企業股份有限公司,高雄市岡山區華崗里拕子三街５０號,22.825933499999998,120.32,機械設備業,未分類其他專用機械設備製造業,,其他金屬製品、其他機械
奕鋒超硬模具有限公司,高雄市岡山區華崗路８７號１樓,22.8246326,120.3238,金屬製品業,金屬模具製造業,,模具
信誠螺帽工廠,高雄市岡山區華崗里拕子南街３３號,22.8247814,120.32044199999999,金屬製品業,螺絲、螺帽及鉚釘製造業,,螺帽
全盈工業社,高雄市岡山區華崗里華崗路１０５巷２號,22.8244457,120.323334,金屬製品業,螺絲、螺帽及鉚釘製造業,,螺絲、螺帽
清翔塑膠有限公司,高雄市岡山區華崗里華崗路１８５號,22.824356100000003,120.321266,塑膠製品業,塑膠皮、板及管材製造業,,塑膠軟管
國珍模具企業有限公司,高雄市岡山區華崗里華崗路５１－１號,22.8247719,120.324951,金屬製品業,螺絲、螺帽及鉚釘製造業,,螺絲
國育企業股份有限公司,高雄市岡山區華崗里華崗路３３號,22.824802399999996,120.325562,金屬製品業,螺絲、螺帽及鉚釘製造業,,螺絲
甫商有限公司,高雄市岡山區嘉興里嘉華路２號,22.8243027,120.318092,金屬製品業,螺絲、螺帽及鉚釘製造業,,模具、螺絲
亨金工業社二廠,高雄市岡山區華崗里華崗路９、１１號,22.8249378,120.327347,機械設備業,其他通用機械設備製造業,,機械零件，機械
儀昌工廠股份有限公司二廠,高雄市岡山區華崗里大埔二街１３５巷６６號,22.82347,120.318878,金屬製品業,螺絲、螺帽及鉚釘製造業,,螺絲、螺帽
全葳工業有限公司,高雄市岡山區華崗里大埔二街１３５巷６２號,22.82316,120.31903799999999,金屬製品業,螺絲、螺帽及鉚釘製造業,,螺絲螺帽及鉚釘製造
新模螺絲股份有限公司三廠,高雄市岡山區嘉興里嘉華路５號,22.823856399999997,120.317871,金屬製品業,螺絲、螺帽及鉚釘製造業,,螺絲
新模螺絲股份有限公司,高雄市岡山區嘉興里嘉華路７號,22.823856399999997,120.317764,金屬製品業,螺絲、螺帽及鉚釘製造業,,螺絲，螺帽
億成螺絲有限公司,高雄市岡山區華崗路７號,22.824972199999998,120.32798799999999,金屬製品業,螺絲、螺帽及鉚釘製造業,,螺絲
揚模有限公司,高雄市岡山區嘉興里嘉華路９號,22.823865899999998,120.3176,金屬製品業,螺絲、螺帽及鉚釘製造業,,螺絲
進隆螺絲工廠,高雄市岡山區嘉興里嘉華路８０巷２１０號,22.8256779,120.316185,金屬製品業,螺絲、螺帽及鉚釘製造業,,螺絲割溝
力信企業社,高雄市岡山區華崗里華崗路５號,22.82517,120.328331,金屬製品業,螺絲、螺帽及鉚釘製造業,,螺絲
甫商有限公司三廠,高雄市岡山區嘉華路８０巷１１０－１號,22.8252125,120.31630700000001,金屬製品業,螺絲、螺帽及鉚釘製造業,,模具、螺絲
益信興業股份有限公司高雄廠,高雄市岡山區嘉興里嘉華路２６之１號,22.824493399999998,120.316658,機械設備業,其他通用機械設備製造業,,機器製造
力凱機電股份有限公司,高雄市岡山區嘉興里嘉華路２６之３號,22.824493399999998,120.316658,機械設備業,輸送機械設備製造業,,起重機、昇降機、輸送機、化工設備、精密零件
鎮洲工業股份有限公司,高雄市岡山區嘉興里嘉華路２６號,22.824493399999998,120.316658,機械設備業,其他通用機械設備製造業,,五金機械零件、汽車零件、機車零件、模具
昇達貴有限公司,高雄市岡山區嘉興里嘉華路１７巷１弄２８號,22.8229,120.318321,金屬製品業,金屬刀具及手工具製造業,,套筒扳手
金品工業社,高雄市岡山區嘉華路１５號１樓,22.8237438,120.31720700000001,金屬製品業,螺絲、螺帽及鉚釘製造業,,螺絲、螺帽
佳立工程行,高雄市岡山區嘉興里嘉華路８０巷１１０號,22.8250561,120.316,金屬製品業,金屬建築組件製造業,,金屬結構及建築組件
金豐庶工業有限公司二廠,高雄市岡山區嘉興里嘉華路１７號,22.8237324,120.31700000000001,金屬製品業,螺絲、螺帽及鉚釘製造業,,螺絲加工
至盈實業股份有限公司六廠,高雄市岡山區嘉華路１７之２１號,22.8237324,120.31700000000001,金屬製品業,螺絲、螺帽及鉚釘製造業,,螺絲、螺帽
至盈實業股份有限公司五廠,高雄市岡山區嘉華路１７之２１號,22.8237324,120.31700000000001,金屬製品業,螺絲、螺帽及鉚釘製造業,,螺絲、螺帽
永義企業工廠二廠,高雄市岡山區華崗里嘉新東路二段８１巷７６號,22.8232632,120.327377,金屬製品業,螺絲、螺帽及鉚釘製造業,,螺絲、螺帽、機械零件
甫商有限公司一廠,高雄市岡山區嘉華路２６－２０號,22.824192,120.31633000000001,金屬製品業,螺絲、螺帽及鉚釘製造業,,模具及螺絲
甫商有限公司五廠,高雄市岡山區嘉華路４０－１號,22.824170000000002,120.316124,金屬製品業,螺絲、螺帽及鉚釘製造業,,模具、螺絲
信誠螺帽工廠二廠,高雄市岡山區華崗里嘉新東路二段１１１號,22.8244114,120.328781,金屬製品業,螺絲、螺帽及鉚釘製造業,,其他金屬製品
拓廣企業有限公司二廠,高雄市岡山區嘉興里嘉華路１７巷１弄１號,22.823308899999997,120.31691699999999,金屬製品業,螺絲、螺帽及鉚釘製造業,,（螺絲組合華司）墊圈
鉎益工業有限公司,高雄市岡山區華崗里嘉新東路二段１１３號,22.82459,120.328949,金屬製品業,螺絲、螺帽及鉚釘製造業,,其他金屬製品
誠豐億企業社,高雄市岡山區華崗里大埔二街８３之１號,22.8212357,120.320862,機械設備業,其他金屬加工用機械設備製造業,,金屬加工用機械設備
國原彎管企業社,高雄市岡山區大埔二街８７號,22.8212357,120.320862,金屬製品業,其他金屬加工處理業,,彎管
福輝螺絲工廠股份有限公司,高雄市岡山區嘉興里嘉華路２１號,22.823555,120.316429,金屬製品業,螺絲、螺帽及鉚釘製造業,,螺絲、螺帽
壹發企業工廠,高雄市岡山區嘉興里嘉華路４５之１３號,22.824144399999998,120.315849,金屬製品業,螺絲、螺帽及鉚釘製造業,,螺絲、螺帽（刮溝）
廣運螺絲有限公司,高雄市岡山區嘉華路４５之４９號,22.824144399999998,120.315849,金屬製品業,螺絲、螺帽及鉚釘製造業,,五金螺絲
詠鋒精密有限公司,高雄市岡山區嘉華路４５之４９號,22.824144399999998,120.315849,金屬製品業,金屬模具製造業,鋼材、模具煉鋼,沖具或其加工
上富螺絲股份有限公司,高雄市岡山區嘉華路４５之５０號,22.824144399999998,120.315849,金屬製品業,金屬彈簧及線製品製造業,,螺絲（特殊）
宇冠昇股份有限公司,高雄市岡山區嘉興里嘉華路２３號,22.823583600000003,120.316254,金屬製品業,螺絲、螺帽及鉚釘製造業,,螺絲加工
正立螺絲有限公司,高雄市岡山區華崗里大埔二街８５巷１６號,22.821275699999997,120.32,金屬製品業,螺絲、螺帽及鉚釘製造業,,螺絲、螺帽
百發工業股份有限公司,高雄市岡山區嘉興里嘉華路２５之２號,22.8236,120.316124,金屬製品業,螺絲、螺帽及鉚釘製造業,,螺絲
至盈實業股份有限公司,高雄市岡山區嘉興里嘉華路２５號,22.8236,120.316124,金屬製品業,螺絲、螺帽及鉚釘製造業,,螺絲、螺帽
合順工廠股份有限公司二廠,高雄市岡山區嘉興里嘉華路５０之１號,22.824102399999997,120.31563600000001,金屬製品業,金屬模具製造業,,螺絲加工
喬亞股份有限公司二廠,高雄市岡山區嘉華路５０號,22.824102399999997,120.31563600000001,金屬製品業,螺絲、螺帽及鉚釘製造業,,螺絲
慶豐企業社,高雄市岡山區華崗里大埔一街２５號,22.821628600000004,120.32604199999999,金屬製品業,螺絲、螺帽及鉚釘製造業,,螺絲加工
俊皇企業社,高雄市岡山區華崗里大埔一街２５號,22.821628600000004,120.32604199999999,金屬製品業,螺絲、螺帽及鉚釘製造業,,其他金屬製品
建利韋企業有限公司,高雄市岡山區華崗里大埔一街２５號,22.821628600000004,120.32604199999999,金屬製品業,螺絲、螺帽及鉚釘製造業,,其他金屬製品
笙展有限公司,高雄市岡山區華崗里大埔一街３９巷２０號,22.821126899999996,120.324715,金屬製品業,螺絲、螺帽及鉚釘製造業,,螺絲加工
志斌食品股份有限公司,高雄市岡山區嘉興里嘉華路２７之１號,22.823587399999997,120.31591,食品及飼品業,調味品製造業,,豆瓣醬，醬菜，醬豆腐，辣椒醬
光志工廠,高雄市岡山區嘉興里嘉華路２７號,22.823587399999997,120.31591,金屬製品業,螺絲、螺帽及鉚釘製造業,,螺絲、螺帽、機械五金零件
得益企業社,高雄市岡山區華崗里大埔一街１６號１樓,22.8219,120.32692,金屬製品業,螺絲、螺帽及鉚釘製造業,,螺絲
岡展工業有限公司,高雄市岡山區大埔二街８８巷１０號,22.82068,120.321335,金屬製品業,螺絲、螺帽及鉚釘製造業,,螺絲、螺帽
建世企業股份有限公司三廠,高雄市岡山區華崗里大埔一街３９巷２２弄２１號,22.8206253,120.32359299999999,金屬製品業,螺絲、螺帽及鉚釘製造業,,螺絲、螺帽
興基達企業有限公司,高雄市岡山區大埔二街８８巷１２號,22.8205166,120.32148000000001,塑膠製品業,其他塑膠製品製造業,,塑膠射出
永銓螺絲有限公司高雄廠,高雄市岡山區華崗里大埔二街８５巷２３號,22.8207378,120.31995400000001,金屬製品業,螺絲、螺帽及鉚釘製造業,,螺絲．螺帽
瑞龍企業行,高雄市岡山區三和里山隙路２７號,22.828310000000002,120.33735700000001,金屬製品業,螺絲、螺帽及鉚釘製造業,,螺帽
登財精密工業股份有限公司二廠,高雄市岡山區三和里山隙路２０號,22.827611899999997,120.33710500000001,金屬製品業,金屬模具製造業,,其他金屬製品（沖棒、模具）牙板
弘德裕企業有限公司,高雄市岡山區三和里山隙路１６號,22.827377300000002,120.33645600000001,金屬製品業,螺絲、螺帽及鉚釘製造業,,螺絲、螺帽
中喬貿易有限公司,高雄市岡山區三和里山隙路１２號,22.827013,120.33627299999999,金屬製品業,螺絲、螺帽及鉚釘製造業,,螺絲
展聯股份有限公司,高雄市岡山區三和里中崙寮路６號,22.827104600000002,120.33311499999999,機械設備業,污染防治設備製造業,,土方、再生級配料
政春工業有限公司,高雄市岡山區三和里中崙寮路８號,22.8292789,120.33145900000001,金屬製品業,螺絲、螺帽及鉚釘製造業,線材,螺絲、螺帽、鋼鐵，鋼鐵產品
舜倡發企業股份有限公司一廠,高雄市岡山區三和里中崙寮路５３號,22.8336658,120.336075,金屬製品業,螺絲、螺帽及鉚釘製造業,,螺絲
詮豐精密工具股份有限公司,高雄市田寮區新興里公館１９號,22.829784399999998,120.369919,機械設備業,金屬切削工具機製造業,,螺紋栓規（環規）牙環規、模具
詮豐食品股份有限公司,高雄市田寮區新興里公館１９號,22.829784399999998,120.369919,飲料業,其他酒精飲料製造業,,酒精飲料
台灣中油股份有限公司天然氣事業部永安液化天然氣廠,高雄市永安區新港里新興路１之２０號,22.8167362,120.21069299999999,化學材料業,化學原材料製造業,,天然氣氣體
遠東氣體工業股份有限公司永安工廠,高雄市永安區新港里新興路１之２１號,22.8167362,120.21069299999999,化學材料業,化學原材料製造業,,液氧、液氮、液氬、氮氣，氬氣，混合氣體
裕發精機有限公司永安廠,高雄市永安區保安路６３之１號,22.820385,120.239418,機械設備業,泵、壓縮機、活栓及活閥製造業,,抽水馬達
首帝實業有限公司,高雄市永安區維新里永工三路１３號,22.81476,120.24908400000001,木竹製品製造業,其他木竹製品製造業,,木竹製品
立慶紙器股份有限公司,高雄市永安區維新里維新路光明九巷８７之１０號,22.81486,120.247749,紙漿、紙及紙製品業,瓦楞紙板及紙容器製造業,,紙箱
力大螺絲工廠股份有限公司永安廠,高雄市永安區維新里永工三路９、１１號,22.8142872,120.249756,金屬製品業,螺絲、螺帽及鉚釘製造業,,其他金屬製品、螺絲
美和實業股份有限公司岡山廠,高雄市永安區維新里永工三路１５號,22.8159027,120.24945100000001,紙漿、紙及紙製品業,瓦楞紙板及紙容器製造業,,瓦楞（紙板，紙箱），牛皮紙袋（含塑膠編織）
有益鋼鐵股份有限公司二廠,高雄市永安區維新里永工十路１號,22.8132725,120.248962,金屬製品業,其他金屬加工處理業,不銹鋼熱軋黑皮鋼板（捲）剔退鋼板,不銹鋼製品裁剪整平
有益鋼鐵股份有限公司,高雄市永安區維新里永工十路２號,22.8132725,120.248962,金屬製品業,其他金屬加工處理業,不銹鋼熱軋黑皮鋼板（捲）,不銹鋼製品熱處理、整平、裁剪、酸洗
冠豪冷凍企業股份有限公司,高雄市永安區維新里永工三路９號,22.8135414,120.24974099999999,機械設備業,採礦及營造用機械設備製造業,,冷凍冷藏庫板、隔間庫機、機櫃
台灣金蜂股份有限公司,高雄市永安區維新里永工二路１５號,22.8150234,120.250755,其他運輸工具零件業,機車零件製造業,,汽機車零件，模具，治具
誼榮鋼鐵股份有限公司,高雄市永安區維新里永工三路１０號,22.813722600000002,120.25059499999999,金屬製品業,金屬表面處理業,,盤元．線材加工金屬製品等
煜盛股份有限公司,高雄市永安區維新里永工九路６、６之２號,22.8164864,120.250221,非金屬礦物製品業,未分類其他非金屬礦物製品製造業,,輕重質碳酸鈣、滑石粉、飼料碳酸鈣、耐火材料，熱拌標線材料
嶸業鋼鐵股份有限公司,高雄市永安區維新里永工三路８號,22.813029999999998,120.250626,金屬製品業,其他金屬加工處理業,,盤元等
見龍化學工業股份有限公司,高雄市永安區維新里永工二路１２號,22.8137283,120.251427,化學材料業,塑膠原料製造業,,發泡性、聚苯乙烯
春星工業股份有限公司永安廠,高雄市永安區永工二路１１號,22.8137283,120.251427,基本金屬業,鋼鐵伸線業,,其他化學製藥、鋼鐵、金屬表面處理及熱處理、其他化學製藥、鋼鐵
宗連工業股份有限公司,高雄市永安區永工三路５號,22.812152899999997,120.249573,金屬製品業,金屬表面處理業,,表面處理
大洲鋼鐵股份有限公司,高雄市永安區維新里永工九路１號,22.8162727,120.251305,金屬製品業,其他金屬加工處理業,,竹節鋼筋
丸長螺絲股份有限公司,高雄市永安區維新里永工九路２之２號,22.8162727,120.251305,金屬製品業,螺絲、螺帽及鉚釘製造業,,螺桿、螺絲類、其他金屬加工
見龍化學工業股份有限公司吹膜廠,高雄市永安區維新里永工二路９號,22.8130684,120.2513,化學材料業,塑膠原料製造業,,聚苯乙烯塑料
衛普實業股份有限公司永安二廠,高雄市永安區維新里永工三路６號,22.812079999999998,120.250473,塑膠製品業,塑膠皮、板及管材製造業,,塑膠製品、塑膠製品
晴綺光學股份有限公司,高雄市永安區永工二路１９號,22.8162613,120.25180800000001,其他製造業,眼鏡製造業,,光學鏡片
高立熱處理工業股份有限公司,高雄市永安區維新里永工二路２１號,22.816265100000003,120.25181599999999,金屬製品業,未分類其他金屬製品製造業,,機械五金器具、工具等零件、熱處理加工機械
信元鋁業股份有限公司貳廠,高雄市永安區維新里永工二路２３號,22.81662,120.251617,基本金屬業,鋁材軋延、擠型及伸線業,鋁錠．廢料．鋁合金錠．鋁擠型料,鋁製品加工（鋁門窗、鋁合金、鋁擠型）
大立高分子工業股份有限公司永安廠,高雄市永安區維新里永工二路１８號,22.815279,120.252342,化學材料業,塑膠原料製造業,,醇酸樹脂、不飽和聚脂樹脂、聚丙稀酸脂樹脂
見龍化學工業股份有限公司永安廠,高雄市永安區維新里永工二路１０號,22.8132458,120.25232700000001,化學材料業,塑膠原料製造業,,通用級聚苯乙烯
海華鋼鐵有限公司永安二廠,高雄市永安區維新里永工二路２２號,22.81639,120.252365,金屬製品業,金屬熱處理業,,線材球化退火加工處理
衛普實業股份有限公司,高雄市永安區維新里永工三路４號,22.811256399999998,120.25014499999999,塑膠製品業,塑膠膜袋製造業,,塑膠膜、不織布
鳳山木業股份有限公司永安廠,高雄市永安區維新里永工三路３號,22.8109226,120.249748,木竹製品製造業,合板及組合木材製造業,,木製品（木芯板）
台灣卜蜂企業股份有限公司高雄廠,高雄市永安區維新里永安工業區永工二路７號,22.8115444,120.251534,食品及飼品業,動物飼品製造業,,配合飼料、玉米粉、高梁粉，全脂熟豆粉，大
日嘉工業股份有限公司,高雄市永安區維新里永工七路６號,22.817421,120.25233500000002,基本金屬業,鋼鐵鑄造業,廢鐵電極棒矽鐵錳鐵,特殊鋼，特殊鑄鋼及一般鑄鋼
慈陽科技工業股份有限公司永安廠,高雄市永安區維新里永工七路３號,22.8166752,120.25293,基本金屬業,未分類其他基本金屬製造業,,氧化鋅、再製鋅錠
璟茂科技股份有限公司永安廠,高雄市永安區維新里永工一路１７之２號,22.815561300000002,120.253616,電子零組件業,積體電路製造業,,磊晶晶圓（ＥＰＩ）、蕭特基晶圓（ＳＫＹ）、元件晶圓、晶粒
璟茂科技股份有限公司二廠,高雄市永安區維新里永工一路１７之３號,22.815561300000002,120.253616,電子零組件業,未分類其他電子零組件製造業,,半導體（整流器）、標準品（ＧＰＰ）、快速品、ＰＬＡＮＡＲ、ＴＶＳ、ＦＲＥＤ等晶圓產品
台京企業股份有限公司高雄廠,高雄市永安區維新里永工一路１１之１號,22.8142281,120.253647,金屬製品業,螺絲、螺帽及鉚釘製造業,,螺絲
朋亞機械工業股份有限公司,高雄市永安區維新里永工一路１１號,22.8142281,120.253647,機械設備業,輸送機械設備製造業,,堆高機、鏟裝機裝配
志善企業有限公司,高雄市永安區維新里保安路６巷２之２號,22.815771100000003,120.243675,金屬製品業,金屬模具製造業,,塑膠成型模具
世豐螺絲股份有限公司永安廠,高雄市永安區維新里永工三路１號,22.810136800000002,120.249619,金屬製品業,螺絲、螺帽及鉚釘製造業,,螺絲、烤漆、防銹
王冠鋁業股份有限公司第一廠,高雄市永安區維新里永工一路１９號,22.816028600000003,120.253708,基本金屬業,鋁材軋延、擠型及伸線業,,鋁擠型，鋁門窗，鋁合金
慈陽金屬工業股份有限公司,高雄市永安區維新里永工七路１號,22.8166962,120.253525,金屬製品業,金屬表面處理業,,熱浸鍍鋅、機械鍍鋅
慶圖金屬開發股份有限公司,高雄市永安區維新里永工三路２號,22.8100262,120.25044299999999,金屬製品業,金屬表面處理業,,螺絲加工
昀辰企業有限公司,高雄市永安區維新里永工一路９號,22.813816100000004,120.25408200000001,汽車及零件業,汽車零件製造業,,汽車零件
鶴壽瓦楞紙器股份有限公司永安廠,高雄市永安區維新里永工五路５、６號,22.8100777,120.251526,紙漿、紙及紙製品業,瓦楞紙板及紙容器製造業,,瓦楞紙盒、紙箱、紙板
原本生化科技股份有限公司,高雄市永安區維新里永工六路２之１號,22.81403,120.254471,食品及飼品業,未分類其他食品製造業,,食用酵素
台灣端板鋼鐵企業股份有限公司高雄廠,高雄市永安區維新里永工一路１２號,22.8151741,120.254547,金屬製品業,鍋爐、金屬貯槽及壓力容器製造業,,端板、不銹鋼桶、高壓球型貯槽等
聚惠工業股份有限公司,高雄市永安區維新里永工一路１０號,22.814674399999998,120.2547,其他運輸工具零件業,機車零件製造業,,塑膠樹脂電鍍品、金屬電鍍品、機車排氣管
勝一化工股份有限公司,高雄市永安區維新里永工一路５號,22.8117542,120.25393700000001,化學材料業,化學原材料製造業,,醋酸酯類、醚醇酯類、甲醇、甲醛
名佃工業股份有限公司永安廠,高雄市永安區維新里永工五路１１號,22.8090076,120.24947399999999,金屬製品業,金屬熱處理業,,金屬熱處理
名鎮工業股份有限公司永安廠,高雄市永安區維新里永工五路９號,22.8090076,120.24947399999999,金屬製品業,金屬熱處理業,,金屬熱處理
聖揮股份有限公司永安廠,高雄市永安區維新里永工一路１５號,22.815952300000003,120.25491299999999,金屬製品業,金屬表面處理業,,金屬製品表面處理
億築企業股份有限公司,高雄市永安區維新里永工一路１６號,22.815952300000003,120.25491299999999,基本金屬業,鋼鐵鑄造業,,機械零件、船泊零件
王冠鋁業股份有限公司第二廠,高雄市永安區維新里永工一路１４號,22.815496399999997,120.255028,金屬製品業,金屬建築組件製造業,,鋁擠型料、鋁門窗、鋁製品加工
勝一化工股份有限公司永安二廠,高雄市永安區維新里永工一路１８號,22.8169785,120.254646,化學材料業,化學原材料製造業,,丙二醇甲醚、二丙二醇甲醚
台灣關西塗料股份有限公司,高雄市永安區維新里永工二路６號,22.809551199999998,120.25235,化學製品業,塗料、染料及顏料製造業,,ＰＣＭ、（烤漆）、自動車、工業用
高興昌鋼鐵股份有限公司永安廠,高雄市永安區維新里永工一路６、８號,22.812920000000002,120.255196,基本金屬業,鋼鐵軋延及擠型業,,冷軋鋼捲
海華鋼鐵有限公司永安廠,高雄市永安區維新里永工五路７號,22.808526999999998,120.25028200000001,金屬製品業,金屬熱處理業,,線材球化退火加工處理
海雄鋼鐵有限公司,高雄市永安區維新里永工五路７號（部份使用）,22.808526999999998,120.25028200000001,金屬製品業,金屬彈簧及線製品製造業,,金屬線材加工
高寧工業股份有限公司,高雄市永安區維新里永工二路１之１號,22.8086472,120.2517,化學製品業,未分類其他化學製品製造業,,濾紙加工，水處理器材（過濾循環）
久能興業有限公司永安廠,高雄市永安區維新里維新路８３之７號,22.808120000000002,120.250092,機械設備業,其他金屬加工用機械設備製造業,,臥式切削中心機
農生企業股份有限公司永安廠,高雄市永安區永安工業區永工二路２號,22.8089581,120.252472,食品及飼品業,動物飼品製造業,,動物飼料
國精化學股份有限公司永安廠,高雄市永安區維新里永工五路２號,22.809698100000002,120.254021,化學材料業,塑膠原料製造業,,ＵＶ光固化材料、不飽和聚酯樹脂、塗料樹脂、ＰＵ樹脂
聰義工業股份有限公司,高雄市永安區維新里保安路４３號,22.8097515,120.24305,機械設備業,未分類其他專用機械設備製造業,,機械零件、五金、機械修理
久能興業有限公司,高雄市永安區維新里維新路光明十巷８之１６號,22.8077583,120.24533100000001,機械設備業,其他金屬加工用機械設備製造業,,臥式切削中心機
信元鋁業股份有限公司,高雄市永安區維新里永工五路３號,22.8091469,120.254524,金屬製品業,金屬建築組件製造業,鋁錠、廢料、鋁合金錠、鋁擠型料,鋁製品加工（鋁門窗、鋁合金、鋁擠型）
菘興工業股份有限公司,高雄市永安區維新里維新路３５號,22.8080425,120.253014,電力設備業,發電、輸電及配電機械製造業,,振動馬達
豪力星企業有限公司,高雄市岡山區本洲里本洲一街２５６號,22.8125935,120.256828,基本金屬業,其他基本金屬鑄造業,,其他基本金屬
濰鵬企業有限公司永安廠,高雄市永安區維新里維新路４１－５號,22.8076229,120.25218999999998,金屬製品業,未分類其他金屬製品製造業,,螺絲、頭部塗裝烤漆
惠揚企業行,高雄市永安區維新路２９之１０號,22.8080559,120.253281,金屬製品業,螺絲、螺帽及鉚釘製造業,,螺帽機械零件
台橡股份有限公司岡山廠,高雄市岡山區本洲里本工一路３９號,22.8150578,120.263939,化學材料業,合成橡膠原料製造業,,橡膠製品、ＴＰＲ
長亨精密股份有限公司本洲廠,高雄市岡山區本洲里本工一路４１號,22.814197500000002,120.26318400000001,其他運輸工具零件業,未分類其他運輸工具及其零件製造業,,飛機引擎零組件
頂高科技股份有限公司,高雄市岡山區本洲里本工一路４３號,22.8139038,120.26278700000002,其他運輸工具零件業,未分類其他運輸工具及其零件製造業,,航空器及其零件
朔元企業股份有限公司岡山廠,高雄市岡山區本洲里本工三路２５號,22.81519,120.26473200000001,金屬製品業,金屬表面處理業,,鋼鐵（鋼板裁剪）、鋁（鋁材裁剪）、鋼鐵、鋁
松隆金屬股份有限公司,高雄市岡山區本洲里本工西路２１號,22.8144417,120.264839,基本金屬業,鍊鋁業,,鋅合金錠加工製造及其他金屬買賣
寶薰股份有限公司,高雄市岡山區本洲里本工六路６６號,22.81415,120.26206200000001,金屬製品業,螺絲、螺帽及鉚釘製造業,,其他金屬製品
恆懋五金加工廠有限公司本洲二廠,高雄市岡山區本洲里本工西路１９號,22.8134212,120.263306,金屬製品業,金屬表面處理業,,盤元酸洗、退火、球化、抽線加工
大鎪科技股份有限公司本洲廠,高雄市岡山區本洲里本工六路６２號,22.8133316,120.2625,機械設備業,其他通用機械設備製造業,,金屬加工用機械設備
天聲工業股份有限公司岡山廠,高雄市岡山區本洲里本工西路２３號,22.8153877,120.26534299999999,金屬製品業,其他金屬加工處理業,,其他金屬製品、鋼管、鋼板、鋼帶
益鑫利企業有限公司,高雄市岡山區本工西路３８號,22.8140621,120.26534299999999,金屬製品業,其他金屬加工處理業,鋅、錫,螺絲加工
恆懋五金加工廠有限公司本洲廠,高雄市岡山區本洲里本工西路１７號,22.8128986,120.262932,金屬製品業,金屬表面處理業,,盤元酸洗、退火、球化、抽線加工
允鑫五金工業股份有限公司本洲廠,高雄市岡山區本洲里本工三路３０號,22.8161068,120.26503000000001,金屬製品業,螺絲、螺帽及鉚釘製造業,,螺絲、螺帽
升育鋼鐵股份有限公司,高雄市岡山區本洲里本工西路３６號,22.8135033,120.265472,基本金屬業,鋼鐵軋延及擠型業,,鋼管、鍍鋅鋼管
巨擘科技股份有限公司高雄廠,高雄市岡山區本洲里本工一路３５號,22.81695,120.26521299999999,電腦電子及光學品業,資料儲存媒體製造業,,ＣＤ－Ｒ、ＤＶＤ－Ｒ、ＤＶＤ－ＲＷ、空白光碟片、ＣＯＡＴＩＮ
天益興業有限公司岡山廠,高雄市岡山區本洲里本工西路３０號,22.8120728,120.263733,機械設備業,輸送機械設備製造業,,推高機修配、買賣、出租
榮泉鋼鐵股份有限公司,高雄市岡山區本工西路４６號,22.8139133,120.26623500000001,金屬製品業,其他金屬加工處理業,,鋼板裁剪
塑恒股份有限公司本洲廠,高雄市岡山區本洲里本工五路１７號,22.8127651,120.265472,塑膠製品業,其他塑膠製品製造業,,金屬結構及建築組件（金屬門窗）、其他製品（塑鋼門窗）
台灣盛百股份有限公司,高雄市岡山區本洲里本工西三路１號,22.8135376,120.26613600000002,金屬製品業,金屬模具製造業,,模具鋼鐵
宗炬企業股份有限公司岡山廠,高雄市岡山區本洲里本工六路５２號,22.8119469,120.2639,機械設備業,未分類其他專用機械設備製造業,鋼材、鐵材、ＣＮＣ車床用之車刀,誘導體、Ｓ－１８變換導槽、入口導管
新光鋼鐵股份有限公司高雄本洲二廠,高雄市岡山區本洲里本工西路５０號,22.8144531,120.26656299999999,金屬製品業,其他金屬加工處理業,,鋼構、特殊鋼
將運螺絲工業有限公司,高雄市岡山區本洲里本工一路３１號,22.817365600000002,120.26514399999999,金屬製品業,螺絲、螺帽及鉚釘製造業,,螺絲附華司
大楊實業股份有限公司二廠,高雄市岡山區本洲里本工一路３３號,22.817365600000002,120.26514399999999,金屬製品業,螺絲、螺帽及鉚釘製造業,,螺絲、螺帽
廣億精密科技股份有限公司,高雄市岡山區本洲里本工五路６６號,22.8121681,120.26503000000001,金屬製品業,金屬表面處理業,,金屬製品烤漆
新光鋼鐵股份有限公司高雄本洲廠,高雄市岡山區本洲里本工西路２５號,22.816694299999998,120.26615100000001,金屬製品業,其他金屬加工處理業,,鋼鐵、鋼鐵構件製作及組裝
翔程興業股份有限公司岡山廠,高雄市岡山區本工六路５０號,22.811731299999998,120.264137,石油及煤製品業,石油及煤製品製造業,,油類製品加工
彬騰企業股份有限公司,高雄市岡山區本洲里本工五路６２號,22.811994600000002,120.26525900000001,電腦電子及光學品業,其他通訊傳播設備製造業,,遙控器．電動窗簾．Ｅ化設備
禾億五金有限公司,高雄市岡山區本洲里本工西三路６號,22.812921499999998,120.266449,金屬製品業,螺絲、螺帽及鉚釘製造業,,螺絲
名曜工業股份有限公司,高雄市岡山區本洲里本工西三路８號,22.813221,120.266655,金屬製品業,螺絲、螺帽及鉚釘製造業,,螺帽加工
昌層企業社,高雄市岡山區本洲里本洲三街８０號,22.8123341,120.260857,機械設備業,其他金屬加工用機械設備製造業,,機械零件加工
鋼驊企業股份有限公司,高雄市岡山區本洲里本工六路２９號,22.811388,120.263527,金屬製品業,金屬模具製造業,,其他金屬製品、其他金屬製品、模具鍛造
錦德氣體股份有限公司,高雄市岡山區本洲里本工五路１５號,22.812454199999998,120.266159,化學材料業,化學原材料製造業,,工業氣體、環保氣體
宏海塑膠股份有限公司,高雄市岡山區本洲里本工六路４６號,22.8116055,120.264877,塑膠製品業,塑膠皮、板及管材製造業,,ＰＶＣ膠布
大楊實業股份有限公司,高雄市岡山區本洲里本工西路２７號,22.81707,120.266342,金屬製品業,螺絲、螺帽及鉚釘製造業,,其他金屬製品
寶萊特貿易有限公司岡山廠,高雄市岡山區本洲里本工一路２９號,22.8176746,120.265739,食品及飼品業,未分類其他食品製造業,,海苔片
肯揚工業股份有限公司二廠,高雄市岡山區本工西三路１０、１２號,22.813732100000003,120.267128,金屬製品業,金屬表面處理業,,金屬表面處理及熱處理
繼旭興業有限公司,高雄市岡山區本洲里本工西三路１６號,22.8139553,120.267342,塑膠製品業,塑膠膜袋製造業,,ＦＩＬＭ及ＴＡＰＥ加工、電子材料用保護膜加工
海仙食品有限公司岡山廠,高雄市岡山區本工一路２７號,22.817567800000003,120.26625800000001,食品及飼品業,未分類其他食品製造業,,海苔加工製品
芳生螺絲股份有限公司岡山二廠,高雄市岡山區本洲里本工環西路８號,22.8187065,120.26380900000001,金屬製品業,其他金屬加工處理業,,金屬加工處理，其他金屬製品
豪騏實業有限公司,高雄市岡山區本洲里本工西路２８號,22.81091,120.263405,化學製品業,未分類其他化學製品製造業,,化工顏料．電鍍加工
永錩隆股份有限公司,高雄市岡山區本洲里本工六路２７號,22.810907399999998,120.264076,金屬製品業,金屬表面處理業,,金屬表面處理及熱處理、金屬表面處理及熱處理
世暘工廠產業股份有限公司本洲抽線廠,高雄市岡山區本洲六街１００號,22.8183842,120.26536599999999,基本金屬業,鋼鐵伸線業,,盤元伸線
芳生螺絲股份有限公司岡山廠,高雄市岡山區本洲里本工二路１７號,22.8160954,120.267532,金屬製品業,螺絲、螺帽及鉚釘製造業,,螺絲
榮發企業股份有限公司,高雄市岡山區本洲里本工西三路１８號,22.814413100000003,120.26773100000001,金屬製品業,螺絲、螺帽及鉚釘製造業,,螺絲、螺帽加工
榮發企業股份有限公司二廠,高雄市岡山區本洲里本工西三路２６號,22.814754500000003,120.267807,金屬製品業,螺絲、螺帽及鉚釘製造業,,螺絲加工
慶達科技股份有限公司科技廠,高雄市岡山區本洲里本工六路３８號,22.8111744,120.2654,金屬製品業,螺絲、螺帽及鉚釘製造業,,螺絲
得意中華食品有限公司二廠,高雄市岡山區本洲里本工西路２９號,22.817316100000003,120.26693700000001,食品及飼品業,蔬果加工及保藏業,,其他食品，鐵蛋，豆乾，滷味
蘭州工程股份有限公司,高雄市岡山區本洲里本工西二路２１號,22.8125534,120.267128,金屬製品業,其他金屬加工處理業,,摩擦壓接續接器、鋼筋
大楊實業股份有限公司三廠,高雄市岡山區本工西路２６號,22.8106613,120.2632,金屬製品業,螺絲、螺帽及鉚釘製造業,,螺絲，螺帽
肯揚工業股份有限公司,高雄市岡山區本洲里本工西二路２５號,22.8137932,120.267876,金屬製品業,金屬表面處理業,,金屬表面處理及熱處理
榮陞精密工業股份有限公司本洲廠,高雄市岡山區本洲里本工六路２３號,22.810707100000002,120.26467099999999,金屬製品業,金屬模具製造業,,模具設計、機械零件、治具、五金加工
肯揚工業股份有限公司一廠,高雄市岡山區本洲里本工西二路２３號,22.813022600000004,120.26760900000001,金屬製品業,金屬表面處理業,,金屬表面處理及熱處理
得意中華食品有限公司,高雄市岡山區本洲里本工一路２５號,22.8175716,120.267067,食品及飼品業,蔬果加工及保藏業,,其他食品、鐵蛋、豆乾、滷味
彤駿企業有限公司岡山廠,高雄市岡山區本洲里本工六路３２、３６號,22.8109379,120.26574699999999,金屬製品業,金屬表面處理業,,螺絲電鍍加工
梧濟工業股份有限公司,高雄市岡山區本洲里本工五路５０號,22.811388,120.26653300000001,金屬製品業,其他金屬加工處理業,,鋼鐵及非鐵金屬之加工裁割
毅程工業股份有限公司本洲廠,高雄市岡山區本洲里本工西三路２８號,22.815176,120.26825,金屬製品業,螺絲、螺帽及鉚釘製造業,,五金批發業、國際貿易業、螺絲、螺帽、螺絲釘、及鉚釘等製品製造
慶達科技股份有限公司科技二廠,高雄市岡山區本洲里本工六路２１號,22.8104076,120.264885,金屬製品業,螺絲、螺帽及鉚釘製造業,,螺絲
萬璁實業有限公司,高雄市岡山區本洲里本工三路２２號,22.814022100000003,120.26834099999999,基本金屬業,鋁材軋延、擠型及伸線業,,鋁擠型
顗綸企業有限公司,高雄市岡山區本洲里本工西二路２７號,22.8142681,120.26851699999999,金屬製品業,其他金屬加工處理業,,磷酸鹽加工
誠鈦企業有限公司,高雄市岡山區本洲里本工西二路２９號,22.814586600000002,120.268578,基本金屬業,鋁材軋延、擠型及伸線業,,鋁管
高容企業有限公司,高雄市岡山區本洲里本工西三路３０號,22.815761600000002,120.268677,金屬製品業,未分類其他金屬製品製造業,,不銹鋼對焊彎頭、三通、大小頭、管帽、分歧管
璋育企業有限公司,高雄市岡山區本洲里本工西路１６號,22.809831600000003,120.26321399999999,橡膠製品業,工業用橡膠製品製造業,,橡膠製品
高錩精密工業股份有限公司,高雄市岡山區本洲里本工五路４２、４６號,22.8110065,120.2669,金屬製品業,粉末冶金業,,雷射切割
郁成股份有限公司,高雄市岡山區本洲里本工西二路３１號,22.81481,120.268845,金屬製品業,螺絲、螺帽及鉚釘製造業,,螺絲加工
富聖工廠股份有限公司,高雄市岡山區本洲里本工西三路３２號,22.815936999999998,120.26880600000001,金屬製品業,螺絲、螺帽及鉚釘製造業,,其他金屬製品
崇譽貿易有限公司,高雄市岡山區本洲里本工六路１８號,22.8100586,120.265472,金屬製品業,螺絲、螺帽及鉚釘製造業,,螺絲
商后企業有限公司高雄廠,高雄市岡山區本洲里本工六路１９號,22.8100586,120.265472,金屬製品業,螺絲、螺帽及鉚釘製造業,,螺絲
綠大實業股份有限公司,高雄市岡山區本洲里本工五路１１號,22.811595899999997,120.267738,機械設備業,污染防治設備製造業,油,有害廢棄物處理
興宇鋁業有限公司,高雄市岡山區本洲里本工六路３０號,22.8104687,120.26644099999999,基本金屬業,鍊鋁業,,澆鑄鋁、矽鋁合金錠、鋁錠、矽田合金
安尼克五金制造有限公司,高雄市岡山區本洲里本工西三路３６號,22.8160782,120.268906,金屬製品業,未分類其他金屬製品製造業,,螺絲
力勤實業股份有限公司岡山廠,高雄市岡山區本洲里本工西二路３５號,22.81539,120.269104,化學製品業,塗料、染料及顏料製造業,,塗料樹脂
高氧實業有限公司岡山本洲廠,高雄市岡山區本洲里本工三路２０號,22.813509,120.26896699999999,化學材料業,化學原材料製造業,,氧氣
台灣富品工業股份有限公司,高雄市岡山區本洲里本工西路１８號,22.8094635,120.26320600000001,金屬製品業,螺絲、螺帽及鉚釘製造業,,螺絲加工
銘聯鋼鐵股份有限公司,高雄市岡山區本洲里本工六路２６號,22.810194,120.2669,基本金屬業,鋼鐵軋延及擠型業,,鋼板
尚福模具廠股份有限公司,高雄市岡山區本洲里本工西二路２６號,22.814220000000002,120.26956200000001,金屬製品業,金屬模具製造業,,碳化鎢模具
三聯科技股份有限公司高雄廠,高雄市岡山區本工六路１７號,22.8097153,120.26624299999999,電腦電子及光學品業,量測、導航及控制設備製造業,,傾斜管、ＶＧ感應器、應變片
怡發鋼鐵企業有限公司,高雄市岡山區本洲里本工二路１５號,22.8156319,120.26956899999999,金屬製品業,其他金屬加工處理業,,不銹鋼管買賣金屬加工處理（鋼鐵材裁剪）
西武實業有限公司,高雄市岡山區本工西路１０號,22.8089581,120.26323700000002,電力設備業,其他家用電器製造業,,通管器（家庭用）
新龍光塑料股份有限公司,高雄市岡山區本洲里本工西二路３號,22.809175500000002,120.26523600000002,化學材料業,塑膠原料製造業,,發泡性聚苯乙烯、塑膠粒（魚箱）
大寶精密工具股份有限公司本洲廠,高雄市岡山區本洲里本工一路２３號,22.8165836,120.269539,金屬製品業,金屬刀具及手工具製造業,,螺絲攻、牙板、牙輪、瑞銑刀、牙規
大寶鈦金科技股份有限公司,高雄市岡山區本工一路２３號,22.8165836,120.269539,基本金屬業,未分類其他基本金屬製造業,,金屬加工
超烽實業股份有限公司,高雄市岡山區本洲里本工西二路２８、３０號,22.8146229,120.26983600000001,金屬製品業,螺絲、螺帽及鉚釘製造業,,螺絲、螺帽、鉚釘
啟凱螺絲工廠股份有限公司,高雄市岡山區本洲里本工五路３６號,22.8104439,120.267784,金屬製品業,其他金屬加工處理業,,螺絲加工
亞帝發工業股份有限公司,高雄市岡山區本洲里本工西一路１號,22.8131046,120.2696,其他運輸工具零件業,機車零件製造業,,機車
美加力工業股份有限公司本洲廠,高雄市岡山區本洲里本工六路１６號,22.8099747,120.26725,金屬製品業,金屬表面處理業,,金屬表面處理加工
大吉汽車企業股份有限公司岡山廠,高雄市岡山區本洲里本工西二路１２號,22.80933,120.26621999999999,汽車及零件業,車體製造業,,大型客車車體製造
大億車體有限公司岡山廠,高雄市岡山區本洲里本工西二路１２號,22.80933,120.26621999999999,汽車及零件業,車體製造業,,大型客車車體製造
香港商瑞師精密科技股份有限公司台灣分公司高雄一廠,高雄市岡山區本洲里本工二路１１號,22.815136,120.270164,金屬製品業,螺絲、螺帽及鉚釘製造業,,螺絲、螺帽
尚佑昇有限公司本洲廠,高雄市岡山區本工二路１１號,22.815136,120.270164,金屬製品業,未分類其他金屬製品製造業,,金屬表面處理
劦茂金屬股份有限公司,高雄市岡山區本洲里本工西路８號,22.808526999999998,120.263443,金屬製品業,其他金屬加工處理業,,金屬結構及建築組件
漢陽塗料工業股份有限公司,高雄市岡山區本洲里本工五路３２號,22.810257,120.268105,化學製品業,塗料、染料及顏料製造業,,塗料（烤漆）
亞太精鍍股份有限公司,高雄市岡山區本洲里本工六路１２號,22.8097878,120.267555,金屬製品業,金屬表面處理業,,扣件三價鉻電鍍
昀辰企業有限公司本洲廠,高雄市岡山區本工六路１０２號,22.8194332,120.258675,汽車及零件業,汽車零件製造業,,汽車零件
銳禾工業有限公司,高雄市岡山區本洲里本工西一路３號,22.8141937,120.270226,金屬製品業,螺絲、螺帽及鉚釘製造業,,螺絲
星禾企業有限公司,高雄市岡山區本洲里本工七路２０號,22.8086872,120.266075,金屬製品業,螺絲、螺帽及鉚釘製造業,,螺絲、ＲＴＴＭ４Ｘ１２、Ｍ４Ｘ８、Ｍ３．５Ｘ１４、Ｍ５．５Ｘ５０、Ｍ８Ｘ２５
金雨星工業股份有限公司,高雄市岡山區本洲里本工六路５、７號,22.809179999999998,120.267288,金屬製品業,螺絲、螺帽及鉚釘製造業,,加工、螺絲、螺帽、柳釘
建達五金工業有限公司岡山廠,高雄市岡山區本洲里本工五路３０號,22.8099728,120.26846299999998,金屬製品業,螺絲、螺帽及鉚釘製造業,,螺絲加工
舜發不銹鋼有限公司,高雄市岡山區本洲里本洲一街７５巷１之８號,22.8088284,120.259949,金屬製品業,未分類其他金屬製品製造業,,不銹鋼製品
翔一精密科技股份有限公司,高雄市岡山區本洲里本工七路１６號,22.8085632,120.266586,金屬製品業,金屬模具製造業,,模具
上秉實業有限公司岡山廠,高雄市岡山區本洲里本工西二路１號,22.808075,120.265266,金屬製品業,金屬熱處理業,,表面處理
劦茂金屬股份有限公司二廠,高雄市岡山區本洲里本工西路２號,22.8077755,120.263474,金屬製品業,金屬建築組件製造業,,金屬結構及建築組件
展群機械股份有限公司,高雄市岡山區本洲里本洲路２００號,22.8077526,120.26381699999999,機械設備業,機械傳動設備製造業,,鋼軌機械製造、安裝
貫申有限公司,高雄市岡山區本洲里本工七路１０號,22.808485,120.266975,金屬製品業,其他金屬加工處理業,,金屬加工處理－不銹鋼板裁剪
威億工業股份有限公司,高雄市岡山區本工七路８號,22.808485,120.266975,汽車及零件業,汽車零件製造業,,塑膠製品－塑膠保險桿、汽車零件－汽車水箱護罩
聯裕工業股份有限公司,高雄市岡山區本洲里本工五路２８號,22.80979,120.26891299999998,金屬製品業,金屬建築組件製造業,,角鋼（架）
優普洛科技股份有限公司,高雄市岡山區本洲里本工西二路８號,22.807947199999997,120.266075,金屬製品業,螺絲、螺帽及鉚釘製造業,,其他金屬製品－螺絲螺帽及鉚釘
久美特企業股份有限公司本洲廠,高雄市岡山區本洲里本洲路１９６號,22.807533300000003,120.26522800000001,金屬製品業,金屬表面處理業,,螺絲加工
宬富科技有限公司,高雄市岡山區本洲里本工六路３號,22.80857,120.267944,金屬製品業,其他金屬加工處理業,,金屬扣件、螺絲等機械式覆鋅加工
世暘工廠產業股份有限公司本洲廠,高雄市岡山區本洲里本工二路１８號,22.815012,120.271561,金屬製品業,螺絲、螺帽及鉚釘製造業,,螺帽、螺絲
萬賢企業股份有限公司岡山廠,高雄市岡山區本工六路６號,22.808989999999998,120.268654,金屬製品業,金屬模具製造業,,沖具、模具
曜伸實業有限公司,高雄市岡山區本洲里本工六路１０６號,22.820556600000003,120.257874,基本金屬業,鋼鐵伸線業,,伸線加工
嘏億塑膠有限公司本洲廠,高雄市岡山區本洲里本工七路６號,22.8082466,120.26775400000001,汽車及零件業,汽車零件製造業,,塑膠製品－塑膠保險桿、汽車零件－汽車水箱護罩、輪圈蓋
九鑫鋼鐵有限公司,高雄市岡山區本洲里本工五路２６、２６之１號,22.809364300000002,120.269279,基本金屬業,鋼鐵鑄造業,,鐵管、鋼板
台灣金振盛企業有限公司岡山廠,高雄市岡山區本洲里本工六路１號,22.808464100000002,120.26815,金屬製品業,螺絲、螺帽及鉚釘製造業,,螺帽加工
台灣鴻德麵食開發股份有限公司,高雄市岡山區本洲路１９２號,22.807346300000003,120.26588400000001,食品及飼品業,麵條及粉條類食品製造業,,麵條、粉條類食品
品福企業有限公司,高雄市岡山區本洲里本工路１１、１３、１５之１號、本工六路２號,22.8093662,120.269653,金屬製品業,金屬表面處理業,,金屬表面處理及熱處理
台灣翼帽股份有限公司,高雄市岡山區本洲里本工路１５號,22.8093662,120.269653,金屬製品業,螺絲、螺帽及鉚釘製造業,,螺帽
直正精密股份有限公司,高雄市岡山區本洲里本工一路８號,22.8159924,120.27198,金屬製品業,金屬模具製造業,,精密鋼模、機械及材料、五金零件
椿樺化學股份有限公司本洲廠,高雄市岡山區本洲里本洲路１９０號及本工七路１號,22.8073864,120.26676200000001,化學材料業,塑膠原料製造業,,合成樹脂、塑膠及橡膠、合成樹脂、塑膠及橡膠
祐銓工業股份有限公司,高雄市岡山區本洲里岡山北路３３３巷１１２號,22.813301100000004,120.276794,金屬製品業,金屬模具製造業,,碳化鎢、合金鋼模具、衝頭
欣昶鋼鐵企業有限公司,高雄市岡山區灣裡里岡山北路１９６號,22.8156452,120.276131,基本金屬業,鋼鐵軋延及擠型業,,鋼管，管路
佰霖有限公司,高雄市岡山區灣裡里岡山北路２００號,22.81626,120.276505,家具業,其他非金屬家具製造業,,各式門片
巨輪興股份有限公司,高雄市岡山區灣裡里岡山北路１９９號,22.8125648,120.27841200000002,金屬製品業,金屬刀具及手工具製造業,,千斤頂
晉通化學工業股份有限公司,高雄市岡山區岡山北路１２０號,22.8124962,120.277023,塑膠製品業,其他塑膠製品製造業,,ＯＰＰ膠帶
擇興源科技有限公司,高雄市岡山區灣裡里岡山北路１９３巷６號,22.8120842,120.278053,機械設備業,其他金屬加工用機械設備製造業,,其他金屬加工機械零組件
易連工業股份有限公司,高雄市岡山區本工環東路１號,22.8135643,120.2755,金屬製品業,螺絲、螺帽及鉚釘製造業,,螺絲、螺帽、鉚釘等五金扣件
新豎室裝有限公司,高雄市岡山區本洲里本洲路９３巷１１號,22.8120174,120.2774,金屬製品業,金屬建築組件製造業,,高級窗簾布、百葉窗、舞臺電動布幕、立式窗
晟銘窗簾有限公司,高雄市岡山區本洲里本洲路９３巷９號,22.81202,120.277275,金屬製品業,金屬建築組件製造業,,高級窗簾布、百葉窗、立式窗
久耐銹企業股份有限公司,高雄市岡山區灣裡里岡山北路１９３巷１０、１２號,22.8119049,120.27811399999999,金屬製品業,金屬表面處理業,,防銹處理
修附電機股份有限公司,高雄市岡山區本工路６６號,22.8147335,120.274971,機械設備業,泵、壓縮機、活栓及活閥製造業,,通用機械設備
嘉營企業有限公司岡山廠,高雄市岡山區本洲里本洲路９３巷５號,22.812025100000003,120.27703899999999,塑膠製品業,其他塑膠製品製造業,,塑膠射出品
六造企業有限公司,高雄市岡山區本洲里本洲路９３巷１號,22.8120232,120.2768,機械設備業,輸送機械設備製造業,鋼鐵、其他機械,天車
佳展塑膠興業股份有限公司岡山廠,高雄市岡山區本洲里本洲路９１巷９號,22.8116741,120.277321,汽車及零件業,汽車零件製造業,,汽機車零件
將登科技股份有限公司,高雄市岡山區本工環東路３號,22.8126717,120.2755,石油及煤製品業,石油及煤製品製造業,,潤滑油加工
至泰興業股份有限公司,高雄市岡山區灣裡里岡山北路１９３巷１６號,22.811563500000002,120.27819099999999,金屬製品業,螺絲、螺帽及鉚釘製造業,,螺絲、螺帽、鉚釘製造
權鋒企業股份有限公司,高雄市岡山區本洲里本洲路９１巷７號,22.811672199999997,120.2772,金屬製品業,螺絲、螺帽及鉚釘製造業,,螺絲、螺帽
慶鈺工業股份有限公司,高雄市岡山區灣裡里岡山北路１９５號,22.8117447,120.279358,基本金屬業,銅材軋延、擠型及伸線業,,銅管
普森針織廠,高雄市岡山區本洲里本洲路９１巷５號,22.81168,120.2771,紡織業,其他紡織品製造業,,花邊布，針織布
旗欣股份有限公司,高雄市岡山區本洲里本洲路９１巷１號,22.8116837,120.276855,電子零組件業,未分類其他電子零組件製造業,,連接器（含電子接頭）
托福實業股份有限公司五廠,高雄市岡山區灣裡里岡山北路１９３巷１８號,22.8113918,120.27818300000001,金屬製品業,螺絲、螺帽及鉚釘製造業,盤元線材,螺絲
華興合板股份有限公司,高雄市岡山區本洲里岡山北路１２５號,22.811534899999998,120.27658100000001,木竹製品製造業,合板及組合木材製造業,,合板、木器、化妝合板
元禎企業股份有限公司高雄廠,高雄市岡山區本洲里本工路２５號,22.815736800000003,120.274376,化學製品業,清潔用品及化粧品製造業,,清潔劑、精鍊劑、塗料等
日螺工業有限公司,高雄市岡山區本洲里本洲路８９號,22.81126,120.277,金屬製品業,螺絲、螺帽及鉚釘製造業,,螺絲、螺帽
奇沛有限公司,高雄市岡山區本洲里本洲路９１巷８號,22.81116,120.277473,化學製品業,塗料、染料及顏料製造業,,油漆
純聚股份有限公司高雄廠,高雄市岡山區本洲里本工二路８號,22.8129425,120.274635,化學製品業,未分類其他化學製品製造業,,溶劑（電子材料使用）
滿廷工業有限公司,高雄市岡山區本洲里本洲路９１巷４號,22.8111572,120.277267,機械設備業,未分類其他專用機械設備製造業,,機械五金零件、機械裝配、盤元鈕線加工
璽涤食具實業有限公司岡山廠,高雄市岡山區本洲路９１巷２號,22.811161,120.27716799999999,機械設備業,其他通用機械設備製造業,,餐具清洗業
奇樺科技股份有限公司岡山廠,高雄市岡山區本洲里本工路５６號,22.814,120.2741,橡膠製品業,工業用橡膠製品製造業,,黏鐵橡膠華司、黏鋁橡膠華司
志豐螺帽有限公司,高雄市岡山區本洲里本洲路８７號,22.811132399999998,120.276978,金屬製品業,螺絲、螺帽及鉚釘製造業,,螺帽、螺絲、鉚釘製造
永根機械股份有限公司二廠,高雄市岡山區灣裡里岡山北路１９３巷２８號,22.8109169,120.278015,汽車及零件業,汽車零件製造業,,汽車零件
冠帝企業股份有限公司高雄廠,高雄市岡山區灣裡里岡山北路１９３巷２８號,22.8109169,120.278015,機械設備業,污染防治設備製造業,,ＲＯ廢水處理系統
長益螺絲股份有限公司二廠,高雄市岡山區本洲里本洲路９９號,22.8109818,120.276688,金屬製品業,螺絲、螺帽及鉚釘製造業,,螺絲
汶旦堂食品有限公司岡山廠,高雄市岡山區灣裡里岡山北路１９３巷２２號,22.810726199999998,120.27818300000001,食品及飼品業,烘焙炊蒸食品製造業,砂糖、豆餡、果凍粉、白豆沙、紙盒、紙箱、麥芽糖、洋菜粉,糖果及烘培食品
愛普生實業有限公司,高雄市岡山區本洲里本洲路８５號,22.8107853,120.277344,塑膠製品業,其他塑膠製品製造業,,塑膠製品
台力橡膠股份有限公司岡山廠,高雄市岡山區本洲里本工路５０號,22.813528100000003,120.2739,橡膠製品業,工業用橡膠製品製造業,,橡膠華司、ＴＰＥ加工
祥博企業股份有限公司高雄廠,高雄市岡山區灣裡里岡山北路１９３巷３０號,22.810503,120.27788500000001,機械設備業,污染防治設備製造業,,水處理機械、污染防治設備、建築裝配結構組
統鴻冷凍開發股份有限公司,高雄市岡山區灣裡里岡山北路１９３巷３６號,22.8103485,120.277596,金屬製品業,金屬結構製造業,,非金屬家具及裝設品、金屬結構及建築組件
尚安工具有限公司,高雄市岡山區灣裡里岡山北路１９３巷２９號,22.810323699999998,120.27840400000001,金屬製品業,金屬模具製造業,,模具
鏗寶工業股份有限公司岡山廠,高雄市岡山區灣裡里岡山北路１９３巷３１號,22.8102627,120.27833600000001,機械設備業,其他通用機械設備製造業,,鑄鐵件鑄造
高力熱處理工業股份有限公司高雄二廠,高雄市岡山區本洲里本工二路３之１號,22.8128948,120.27365900000001,機械設備業,其他通用機械設備製造業,,金屬加工
高力熱處理工業股份有限公司高雄總廠,高雄市岡山區本洲里本工二路３號,22.8128948,120.27365900000001,機械設備業,冶金機械製造業,,機械設備製造業，金屬製品製造業
明源酒廠有限公司,高雄市岡山區灣裡里岡山北路１９３巷２１弄２號（Ｂ１棟）,22.8101215,120.27847299999999,飲料業,其他酒精飲料製造業,,葡萄酒，高梁酒，威士忌，果粒酒，人參酒，料理酒，米酒
元弘丞企業有限公司,高雄市岡山區灣裡里岡山北路１９３巷３５、３７號,22.81007,120.278152,金屬製品業,螺絲、螺帽及鉚釘製造業,,其他金屬製品（螺絲加工）
明湘企業有限公司,高雄市岡山區岡山北路１９３巷２１弄６號,22.810068100000002,120.27854199999999,金屬製品業,螺絲、螺帽及鉚釘製造業,,其他金屬製品
金盛世紙業有限公司高雄廠,高雄市岡山區本工東二路１號,22.811327,120.27460500000001,紙漿、紙及紙製品業,家庭及衛生用紙製造業,,衛生紙，面紙，擦手紙，其他家庭及衛生用紙
瑞裕企業社,高雄市岡山區灣裡里岡山北路１９３巷３９號,22.8100052,120.27809099999999,金屬製品業,未分類其他金屬製品製造業,,油壓沖棒、螺絲工具
鑫銹企業有限公司一廠,高雄市岡山區本洲里本工環北路１號,22.816,120.27307900000001,金屬製品業,金屬表面處理業,,熱銹寶烤漆、達克銹烤漆
國興模具有限公司,高雄市岡山區灣裡里岡山北路１９３巷４１號,22.8099461,120.27803,金屬製品業,金屬模具製造業,,模具
虹京資源股份有限公司,高雄市岡山區本洲里本工東二路８號、本工二路１之１號,22.8118229,120.27381899999999,化學製品業,未分類其他化學製品製造業,,偏釩酸銨、鉬酸
璞方生醫科技股份有限公司,高雄市岡山區本洲里本工一路６號,22.815486899999996,120.27278100000001,化學製品業,清潔用品及化粧品製造業,,體膚保養化妝品
台銘貿易有限公司,高雄市岡山區灣裡里岡山北路１９３巷５１弄１、３號,22.809760999999998,120.278275,非金屬礦物製品業,未分類其他非金屬礦物製品製造業,,螢石
歐亞科技環保工程股份有限公司,高雄市岡山區本洲里本工環東路５號,22.809997600000003,120.276474,機械設備業,污染防治設備製造業,,靜電油煙淨化器
萬發實業有限公司,高雄市岡山區本洲里本工環東路９號,22.809997600000003,120.276474,石油及煤製品業,石油及煤製品製造業,,液化石油氣、驗瓶、及液化石油氣
宜久國際企業有限公司,高雄市岡山區灣裡里岡山北路１９３巷４７號,22.8097515,120.277847,電力設備業,其他家用電器製造業,,太陽能熱水器
凡民企業社,高雄市岡山區灣裡里岡山北路１９３巷３８號,22.8097973,120.27731299999999,機械設備業,食品、飲料及菸草製作用機械設備製造業,,製麵機械
世鎧精密股份有限公司,高雄市岡山區本洲里本工一路１、３、５號,22.8144245,120.2726,金屬製品業,螺絲、螺帽及鉚釘製造業,,螺絲螺栓
平直有限公司,高雄市岡山區灣裡里岡山北路１９３巷４９號,22.8096828,120.277763,機械設備業,金屬切削工具機製造業,,機械代工
盛匯工業股份有限公司,高雄市岡山區本洲里本工路３６、３８、４０號,22.8123112,120.273125,金屬製品業,螺絲、螺帽及鉚釘製造業,線材、淬火油、甲醇、丙烷,螺絲製品製造
聯鑫自動化科技有限公司,高雄市岡山區灣裡里岡山北路１９３巷５１弄４５號,22.8096733,120.279579,電腦電子及光學品業,量測、導航及控制設備製造業,,流量顯示控制器
英鉅精密有限公司,高雄市岡山區灣裡里岡山北路１９３巷５１弄４１號,22.80954,120.279449,金屬製品業,金屬模具製造業,,金屬模具加工
永達順模具有限公司,高雄市岡山區灣裡里岡山北路１９３巷５１弄３７號,22.8094139,120.279312,金屬製品業,金屬模具製造業,,模具
金典油炭科技股份有限公司,高雄市岡山區本洲里本工三路６號,22.8101654,120.27475700000001,石油及煤製品業,石油及煤製品製造業,,燃料油
鴻立科技有限公司,高雄市岡山區灣裡里岡山北路１９３巷５１弄３１號,22.809206,120.27912099999999,電腦電子及光學品業,量測、導航及控制設備製造業,,電機儀器修理
奇研精工有限公司,高雄市岡山區灣裡里岡山北路１９３巷５１弄２９號,22.8091412,120.27906000000002,機械維修及安裝業,產業用機械設備維修及安裝業,,機器設備安裝及拆卸、冷座工程
金展成工業有限公司岡山廠,高雄市岡山區灣裡里岡山北路１９３巷５１弄２７號,22.8090763,120.27898400000001,金屬製品業,其他金屬加工處理業,,螺絲；鐵線
振裕塑膠工廠,高雄市岡山區灣裡里岡山北路１９３巷５１弄２５號,22.8090038,120.278885,塑膠製品業,塑膠膜袋製造業,,塑膠製品
廣美科技股份有限公司一廠,高雄市岡山區灣裡里岡山北路１９３巷５５號,22.8089733,120.277176,汽車及零件業,汽車零件製造業,,汽機車車燈零件
春福來企業有限公司一廠,高雄市岡山區灣裡里岡山北路１９３巷５１弄１８號,22.8088779,120.27878600000001,金屬製品業,金屬模具製造業,,模具
鑫鉅鋒實業有限公司,高雄市岡山區灣裡里岡山北路１９３巷５１弄２１號,22.8088779,120.27878600000001,金屬製品業,金屬刀具及手工具製造業,,牙板
明石金屬股份有限公司二廠,高雄市路竹區北嶺里民有路６２８號,22.820331600000003,120.2807,金屬製品業,金屬熱處理業,,其他金屬製品、金屬熱處理、汽機車零件
頂吉興科技股份有限公司,高雄市岡山區本洲里本工東二路１２號,22.810707100000002,120.273354,金屬製品業,螺絲、螺帽及鉚釘製造業,,螺絲、螺帽製造
鍵瑋企業股份有限公司本洲廠,高雄市岡山區本工東二路１１號,22.810707100000002,120.273354,金屬製品業,螺絲、螺帽及鉚釘製造業,,其他金屬製品
銓城螺絲股份有限公司岡山廠,高雄市岡山區本工東二路１１號,22.810707100000002,120.273354,金屬製品業,螺絲、螺帽及鉚釘製造業,,螺絲加工
曾國工業有限公司分廠,高雄市岡山區灣裡里育才路７２巷１５號,22.8086948,120.27723700000001,金屬製品業,未分類其他金屬製品製造業,,螺絲、帽加工
明石金屬股份有限公司三廠,高雄市路竹區北嶺里民有路６３０號,22.8204174,120.281227,金屬製品業,金屬熱處理業,,金屬熱處理、汽機車零件
吉瞬興業股份有限公司本洲廠,高雄市岡山區本洲里本工三路５號,22.8093,120.27453600000001,金屬製品業,螺絲、螺帽及鉚釘製造業,,螺絲、螺帽
三仕企業股份有限公司第三廠,高雄市岡山區灣裡里育才路７２巷９號,22.8083572,120.27803,金屬製品業,螺絲、螺帽及鉚釘製造業,盤元線,螺絲、螺帽、螺帽成型機
富產機械有限公司,高雄市岡山區本洲里本工東二路１６號,22.810346600000003,120.272926,機械設備業,污染防治設備製造業,,污泥脫水機，污泥乾燥設備（環保設備）
盛匯工業股份有限公司東二廠,高雄市岡山區本工東二路１５號,22.810346600000003,120.272926,金屬製品業,螺絲、螺帽及鉚釘製造業,線材,螺絲製品製造
皆豪鋼構股份有限公司,高雄市岡山區為隨里為隨西路１５８號,22.818313600000003,120.284218,金屬製品業,金屬結構製造業,,廠房、鋼構建物工程
粲弘有限公司,高雄市岡山區本洲里本洲路６１號,22.8082771,120.276817,塑膠製品業,其他塑膠製品製造業,,塑膠踏墊
禾億五金有限公司二廠,高雄市岡山區本洲里本工三路９號,22.81055,120.27259099999999,金屬製品業,螺絲、螺帽及鉚釘製造業,,螺絲
國暐工業股份有限公司,高雄市岡山區灣裡里育才路６０號,22.808197,120.27941100000001,機械設備業,金屬切削工具機製造業,,機件加工、零組件
新裕膠業股份有限公司,高雄市岡山區本洲里育才路７２巷５號,22.8080883,120.278328,橡膠製品業,工業用橡膠製品製造業,,橡膠管
俞鑫企業有限公司,高雄市岡山區灣裡里育才路５２號,22.808279000000002,120.27988400000001,金屬製品業,螺絲、螺帽及鉚釘製造業,,螺絲
晴岡企業有限公司,高雄市岡山區灣裡里育才路５４之１號,22.808218,120.279823,金屬製品業,螺絲、螺帽及鉚釘製造業,,螺絲
三仕企業股份有限公司第二廠,高雄市岡山區本洲里育才路７２巷１７、１９號,22.8080921,120.27714499999999,金屬製品業,螺絲、螺帽及鉚釘製造業,盤元線,螺絲、螺帽
羽陽科技股份有限公司,高雄市岡山區本洲里育才路７２巷２１號,22.8080921,120.27714499999999,電子零組件業,未分類其他電子零組件製造業,電子,電子
歐科企業有限公司本洲廠,高雄市岡山區本洲里本工東二路１８號,22.81015,120.27261399999999,石油及煤製品業,石油及煤製品製造業,,潤滑油
益綠環保科技股份有限公司,高雄市岡山區本洲里本工東二路２２號,22.81015,120.27261399999999,非金屬礦物製品業,水泥及混凝土製品製造業,,磚，環保磚，污泥處理
翔程興業股份有限公司環科廠,高雄市岡山區本洲里本工三路１１號,22.8111153,120.2718,石油及煤製品業,石油及煤製品製造業,,燃料油，重質油
祥久軸瓦有限公司,高雄市岡山區灣裡里灣裡路１６２號,22.8128262,120.28537,機械設備業,機械傳動設備製造業,,巴式軸承
三仕企業股份有限公司,高雄市岡山區本洲里育才路７２巷１６號,22.80785,120.277344,金屬製品業,螺絲、螺帽及鉚釘製造業,盤元線,螺絲、螺帽、螺帽成型機
普敦高週波熱處理有限公司岡山廠,高雄市岡山區灣裡里灣裡路１５６號,22.8125687,120.28530900000001,金屬製品業,金屬熱處理業,,金屬加工
駿赫螺絲工業股份有限公司,高雄市岡山區灣裡里育才路７２巷１２號,22.807703,120.277534,金屬製品業,螺絲、螺帽及鉚釘製造業,,螺絲加工
台灣善美的股份有限公司岡山廠,高雄市岡山區本洲里本工東一路６號Ｂ棟２樓,22.808321,120.274925,食品及飼品業,水產加工及保藏業,,冷凍食品
雋興機械工業有限公司,高雄市岡山區灣裡里灣裡路１５８號,22.81258,120.28546100000001,機械設備業,其他通用機械設備製造業,,閥
強茂股份有限公司岡山二廠,高雄市岡山區灣裡里岡山北路３４號,22.810010000000002,120.28386699999999,電子零組件業,未分類其他電子零組件製造業,電子零件,電子整流器
力大螺絲工廠股份有限公司本洲廠,高雄市岡山區本工東一路１號,22.8086414,120.27413200000001,金屬製品業,螺絲、螺帽及鉚釘製造業,,螺絲
鈺宗工業工廠股份有限公司,高雄市岡山區灣裡里灣裡路１０７號,22.8126717,120.28563700000001,金屬製品業,螺絲、螺帽及鉚釘製造業,,螺絲
領風產品開發有限公司,高雄市岡山區灣裡里灣裡路１７６號,22.812862399999997,120.285774,塑膠製品業,其他塑膠製品製造業,,環保餐具
科藝精密工業有限公司,高雄市岡山區灣裡里灣裡路１７６號,22.812862399999997,120.285774,金屬製品業,金屬模具製造業,,模具加工、量測、逆向曲面製作
益遠螺絲工業有限公司,高雄市岡山區為隨西路９５號,22.8185863,120.28503400000001,金屬製品業,螺絲、螺帽及鉚釘製造業,,不鏽鋼螺絲加工
翊喬螺絲有限公司第二廠,高雄市岡山區為隨里為隨西路９７號,22.8185863,120.28503400000001,金屬製品業,螺絲、螺帽及鉚釘製造業,,螺絲加工
世良螺絲有限公司,高雄市岡山區為隨里為隨西路９８號,22.8185863,120.28503400000001,金屬製品業,螺絲、螺帽及鉚釘製造業,,螺絲加工
儒昌工業股份有限公司,高雄市岡山區灣裡里育才路７２巷３號,22.8074245,120.278648,金屬製品業,螺絲、螺帽及鉚釘製造業,鐵線,螺絲、螺絲加工
伸和興業有限公司,高雄市岡山區為隨里為隨西路９３號,22.8177,120.285522,塑膠製品業,塑膠皮、板及管材製造業,,塑膠製品
聯銘橡膠工業股份有限公司,高雄市岡山區灣裡里育才路６８號,22.8074017,120.27912099999999,橡膠製品業,工業用橡膠製品製造業,,電溶器封口
瑞晉興業股份有限公司,高雄市岡山區灣裡里岡山北路１８、２０、２２號,22.8101768,120.2845,塑膠製品業,其他塑膠製品製造業,,塑膠製品
立堉金屬企業股份有限公司,高雄市岡山區為隨西路１７２號,22.819772699999998,120.28438600000001,金屬製品業,螺絲、螺帽及鉚釘製造業,,螺絲
宥禾機械有限公司,高雄市岡山區灣裡里育才路７２巷７號,22.807188,120.278015,機械設備業,輸送機械設備製造業,馬達、鋼索,吊車
捷仕美精工股份有限公司,高雄市岡山區為隨里為隨西路８５號,22.8177013,120.28580500000001,電子零組件業,未分類其他電子零組件製造業,,端子、壓模、模片
強鑫工業股份有限公司,高雄市岡山區灣裡里灣裡路１１１號,22.81302,120.286224,金屬製品業,螺絲、螺帽及鉚釘製造業,,螺絲，螺帽，等其他大小尺寸五金扣件製造及買賣，國際貿易批發業
丞曜實業有限公司,高雄市岡山區本工路２６號,22.8101139,120.271477,金屬製品業,螺絲、螺帽及鉚釘製造業,,螺絲
承品企業有限公司,高雄市岡山區灣裡里育才路７２巷６號,22.807027800000004,120.278244,基本金屬業,銅材軋延、擠型及伸線業,,接地棒
健坤企業股份有限公司分廠,高雄市岡山區本洲里本洲路５５之２號,22.8070812,120.27686299999999,金屬製品業,螺絲、螺帽及鉚釘製造業,,螺帽、尼龍螺帽、焊接螺帽、特殊螺帽、銅螺帽、白鐵螺帽、鋁螺帽
興信鍛品工業有限公司,高雄市岡山區灣裡里育才路１１號,22.8070431,120.279655,金屬製品業,金屬刀具及手工具製造業,,套筒
聚亨企業股份有限公司二廠,高雄市岡山區為隨里為隨西路７１之１號,22.8177261,120.286079,基本金屬業,鋼鐵伸線業,,球狀化線材，螺絲
聚亨企業股份有限公司三廠,高雄市岡山區為隨里為隨西路７１之２號,22.8177261,120.286079,金屬製品業,金屬熱處理業,,螺絲
台灣鍍膜科技股份有限公司,高雄市岡山區本洲里本工東一路３號,22.80804,120.273582,金屬製品業,其他金屬加工處理業,,ＰＶＤ鍍膜代工ＣＲＮ、ＴＩＡＬＮ、ＤＬＣ、ＣＲ、ＴＩ、ＴＩＮ、ＴＩＣＮ、等原料膜種
小菲力企業有限公司,高雄市岡山區灣裡里育才路１３號,22.80688,120.2795,食品及飼品業,調味品製造業,,胡椒粉、柴魚粉
順茂工業有限公司育才廠,高雄市岡山區灣裡里育才路９巷２號,22.8069363,120.27990700000001,金屬製品業,其他金屬加工處理業,,磷酸鹽加工
強茂股份有限公司,高雄市岡山區灣裡里岡山北路２４號,22.809160000000002,120.284332,電子零組件業,未分類其他電子零組件製造業,電子零件,電子整流器
聖鑫興業有限公司岡山廠,高雄市岡山區灣裡里岡山北路１８之６號,22.809803,120.28495,基本金屬業,鍊鋁業,,鋁錠
雅瑟實業股份有限公司,高雄市岡山區灣裡里岡山北路１８之６號,22.809803,120.28495,金屬製品業,金屬熱處理業,,螺絲熱處理
証盛工業股份有限公司,高雄市岡山區灣裡里岡山北路１８之１號,22.809803,120.28495,金屬製品業,螺絲、螺帽及鉚釘製造業,,其他金屬製品、其他金屬製品、螺絲、螺絲加工
森驊企業有限公司,高雄市岡山區灣裡里岡山北路１８之２號丁棟,22.809803,120.28495,化學製品業,清潔用品及化粧品製造業,,洗手皂
皇華實業股份有限公司,高雄市岡山區灣裡里岡山北路１８之５號,22.809803,120.28495,金屬製品業,其他金屬容器製造業,,鐵桶、模具及加工
瑞兆豐五金有限公司,高雄市岡山區灣裡里育才路７２巷２號,22.806757,120.27869399999999,金屬製品業,未分類其他金屬製品製造業,,其他金屬製品
仲暘企業有限公司,高雄市岡山區本工東二路２６號,22.8091,120.271942,食品及飼品業,調味品製造業,,酵素制劑系列、氧化鈣（貝殼粉）
鎰璋實業有限公司岡山二廠,高雄市岡山區為隨里為隨路１－８號,22.815143600000003,120.29508200000001,金屬製品業,螺絲、螺帽及鉚釘製造業,,螺絲
鋐興科技有限公司,高雄市岡山區為隨里為隨西路１０號,22.8122826,120.29138200000001,金屬製品業,金屬模具製造業,,金屬模具
昇和有限公司,高雄市岡山區為隨里為隨西路１０７號,22.8151741,120.28975700000001,金屬製品業,螺絲、螺帽及鉚釘製造業,,螺絲
世鈞企業社,高雄市岡山區為隨西路１０５號,22.8151741,120.28975700000001,金屬製品業,螺絲、螺帽及鉚釘製造業,,螺絲割尾加工
新格鋁業有限公司弍廠,高雄市岡山區為隨西路１５－４號,22.8121624,120.291023,金屬製品業,金屬建築組件製造業,,鋁門窗鋁材
佐邦五金企業有限公司,高雄市岡山區為隨里為隨西路６９巷１號,22.8154621,120.289452,金屬製品業,螺絲、螺帽及鉚釘製造業,,螺絲、螺帽
世暘工廠產業股份有限公司,高雄市岡山區為隨里為隨西路１５號,22.8124847,120.290443,金屬製品業,螺絲、螺帽及鉚釘製造業,,螺帽
得允精密有限公司,高雄市岡山區為隨里為隨西路６７巷８號,22.815176,120.28928400000001,金屬製品業,金屬模具製造業,,模具加工
達固扣件科技有限公司岡山廠,高雄市岡山區為隨里為隨西路１３巷４號,22.8120422,120.29083999999999,金屬製品業,螺絲、螺帽及鉚釘製造業,盤元．線材,螺絲
鉦羅斯企業有限公司,高雄市岡山區為隨西路６９巷３號,22.815437300000003,120.2893,金屬製品業,螺絲、螺帽及鉚釘製造業,,螺絲、螺帽
世暘工廠產業股份有限公司為隨廠,高雄市岡山區為隨西路１５－７號,22.812720000000002,120.28998600000001,金屬製品業,未分類其他金屬製品製造業,,螺帽
永弘昇有限公司,高雄市岡山區為隨里為隨西６９巷６號,22.8120079,120.290756,食品及飼品業,未分類其他食品製造業,,海參加工
沅旺企業社,高雄市岡山區為隨里為隨西路１３巷６號、６之１號,22.8120079,120.290756,金屬製品業,未分類其他金屬製品製造業,,模具、沖棒
朝進有限公司二廠,高雄市岡山區為隨里為隨西路６９巷５號,22.815422100000003,120.2892,金屬製品業,螺絲、螺帽及鉚釘製造業,,螺絲、螺帽
浤發股份有限公司,高雄市岡山區為隨里為隨西路６７巷１１號,22.8148861,120.28910800000001,機械設備業,其他金屬加工用機械設備製造業,,螺絲機械及零件
造成精密工業股份有限公司,高雄市岡山區為隨里為隨西路１３巷８之１號,22.8119678,120.29066499999999,金屬製品業,金屬模具製造業,,其他機械、汽車及其零件、機車及其零件
阡賀實業有限公司,高雄市岡山區為隨里為隨西路１３巷８號,22.8119678,120.29066499999999,金屬製品業,螺絲、螺帽及鉚釘製造業,,螺帽加工
新晹工業股份有限公司,高雄市岡山區為隨里為隨西路６７巷１２號,22.8151379,120.28908500000001,機械設備業,其他金屬加工用機械設備製造業,,機械另件
源順企業社,高雄市岡山區為隨里為隨西路１３巷３號,22.811784699999997,120.290916,金屬製品業,未分類其他金屬製品製造業,,各種規格、銅管、鋁管
欣益貿易有限公司,高雄市岡山區為隨里為隨西路６９巷２、４號,22.81568,120.28913899999999,食品及飼品業,未分類其他食品製造業,,海參加工
世大牙板股份有限公司二廠,高雄市岡山區為隨里為隨西路３號,22.8115845,120.29116100000002,機械設備業,其他通用機械設備製造業,,機械零件、牙板
世大牙板股份有限公司,高雄市岡山區為隨里為隨西路１３巷５號,22.8117485,120.290833,機械設備業,其他通用機械設備製造業,,牙板
承興工業社,高雄市岡山區臺上里為隨西路６７巷１４號,22.8151169,120.28897099999999,機械設備業,其他通用機械設備製造業,,機械零件
永才利機械企業有限公司,高雄市岡山區為隨西路６７巷１５號,22.81486,120.288948,機械設備業,採礦及營造用機械設備製造業,,機械零件、螺絲成型機
全春吉有限公司,高雄市岡山區為隨西路１３巷１２號,22.8118973,120.290489,塑膠製品業,其他塑膠製品製造業,塑膠,塑膠軸承
慈祐企業有限公司,高雄市岡山區為隨里為隨西路１３巷７號,22.8117142,120.290741,機械設備業,污染防治設備製造業,,集塵設備、乾燥設備、化工機械、抽送風機
忠信林企業有限公司,高雄市岡山區為隨里為隨西路６７巷１６號,22.8151035,120.288895,機械設備業,木工機械設備製造業,,木工機械、各種工作母機
天薪工業有限公司,高雄市岡山區為隨里為隨西路６７巷１７號,22.814842199999998,120.288872,金屬製品業,金屬模具製造業,,零組件加工
皇鑫化粧品工廠,高雄市岡山區為隨里為隨西路６９巷１１號,22.815360000000002,120.288895,化學製品業,清潔用品及化粧品製造業,,化妝品
旭貿模具有限公司,高雄市岡山區為隨里為隨西路６９巷８號,22.8156452,120.28894,金屬製品業,金屬模具製造業,,模具、模具加工
聯英興業股份有限公司,高雄市岡山區為隨里為隨西路６９巷１０號,22.81563,120.288849,機械設備業,其他通用機械設備製造業,,自動控制機械、自動控制器
新佳吉實業有限公司,高雄市岡山區為隨里為隨西路６７巷２１號,22.81481,120.288719,金屬製品業,螺絲、螺帽及鉚釘製造業,,螺絲
朝進有限公司,高雄市岡山區為隨里為隨西路６９巷１５號,22.815321,120.28870400000001,金屬製品業,螺絲、螺帽及鉚釘製造業,,螺絲、螺帽
全陞模具工業股份有限公司,高雄市岡山區為隨里為隨西路６９巷１２號,22.81561,120.28875,金屬製品業,金屬模具製造業,,各式儀器配件模具
日升塑膠有限公司,高雄市岡山區為隨里為隨西路６７巷２３號,22.8147964,120.28863500000001,塑膠製品業,其他塑膠製品製造業,,塑膠製品
繽塑企業有限公司,高雄市岡山區為隨里為隨西路６９巷１７號,22.8153,120.288605,塑膠製品業,其他塑膠製品製造業,,塑膠粒、塑膠製品
九茂電梯有限公司,高雄市岡山區為隨里為隨西路６７巷２７號,22.814767800000002,120.28848300000001,機械設備業,輸送機械設備製造業,,電梯保養
農洲農機有限公司,高雄市岡山區為隨西路６９巷１６號,22.815579999999997,120.28854399999999,機械設備業,農用及林用機械設備製造業,,各種機械各種農業機械及其配件（耕耘機除）
盈益企業股份有限公司,高雄市岡山區為隨里為隨西路６７巷２４號,22.815033,120.288475,金屬製品業,螺絲、螺帽及鉚釘製造業,,螺絲
安安食品工業有限公司,高雄市岡山區為隨里為隨西路６９巷１９號,22.8152733,120.28841399999999,食品及飼品業,蔬果加工及保藏業,,辣豆瓣醬，豆鼓辣椒醬，豆瓣醬，蒜蓉辣椒
啟發企業社,高雄市岡山區為隨里為隨西路６７巷２６號,22.81501,120.288353,金屬製品業,金屬表面處理業,,金屬表面處理及熱處理
正曄發電機廠,高雄市岡山區為隨西路６９巷２０號,22.8155441,120.28834499999999,電力設備業,發電、輸電及配電機械製造業,,發電機
昆承電子材料有限公司,高雄市岡山區為隨西路６７巷３３號,22.814729999999997,120.28825400000001,塑膠製品業,塑膠外殼及配件製造業,,塑膠製品
伯獅精工股份有限公司,高雄市岡山區嘉為街２００號,22.8191185,120.29261000000001,金屬製品業,螺絲、螺帽及鉚釘製造業,,螺絲
臺灣派頓化學製藥股份有限公司,高雄市岡山區為隨里為隨東路５０號,22.81829,120.290123,藥品及醫用化學品業,西藥製造業,,藥品
巨福科技有限公司岡山一廠,高雄市岡山區新樂街１９３號,22.8106613,120.291527,塑膠製品業,其他塑膠製品製造業,,塑膠料、塑膠模
惠億企業股份有限公司,高雄市岡山區為隨里為隨西路６９巷２１號,22.8152313,120.28816200000001,塑膠製品業,其他塑膠製品製造業,,塑膠盒
海崴生物科技股份有限公司,高雄市岡山區為隨東路５８巷２６號,22.818958300000002,120.29116100000002,食品及飼品業,未分類其他食品製造業,,褐藻醣膠
義德機電有限公司,高雄市岡山區為隨西路６７巷３０號,22.8149681,120.2881,機械設備業,其他通用機械設備製造業,,專用生產機械、其他電子零組件、電力機械器材、其他電力器材、專
台羽五金有限公司,高雄市岡山區為隨里為隨東路５８巷２２號,22.81897,120.29109199999999,金屬製品業,未分類其他金屬製品製造業,,五金零件
正揚鋼鐵有限公司,高雄市岡山區為隨里為隨東路５８巷２０號,22.8189754,120.29101599999998,基本金屬業,鋼鐵軋延及擠型業,,鋼捲
永河明企業社,高雄市岡山區為隨里為隨東路５８巷１８號,22.818977399999998,120.29095500000001,木竹製品製造業,合板及組合木材製造業,,中古棧板
麗錡科技股份有限公司載帶廠,高雄市岡山區為隨東路５８巷１０號,22.8189888,120.290726,塑膠製品業,其他塑膠製品製造業,,塑膠製品
麗瑋科技股份有限公司,高雄市岡山區為隨里為隨東路５８巷８號,22.818996399999996,120.29065700000001,金屬製品業,螺絲、螺帽及鉚釘製造業,,螺絲篩選、電機材料
新倡發工業股份有限公司二廠,高雄市岡山區臺上里新樂街１９５號,22.81097,120.29007,金屬製品業,螺絲、螺帽及鉚釘製造業,,螺帽、螺絲
聚亨企業股份有限公司,高雄市岡山區岡山里新樂街７９之１號；嘉新西路３０巷１、３、９、１１、１３號,22.81097,120.29007,金屬製品業,螺絲、螺帽及鉚釘製造業,,球狀化線材、螺絲
利安鑫食品有限公司,高雄市岡山區為隨里為隨東路５８巷２７、２９號,22.8191986,120.29109199999999,食品及飼品業,水產加工及保藏業,,其他食品（調味品：滷包香料粉）、虱目魚丸
麗錡科技股份有限公司,高雄市岡山區為隨里為隨東路５８巷６號,22.8189983,120.290581,機械設備業,其他通用機械設備製造業,,機器設備
奇比精密有限公司高雄廠,高雄市岡山區為隨里為隨東路５８巷２５號,22.8192,120.291023,金屬製品業,金屬模具製造業,,金屬模具
孫記食品廠,高雄市岡山區為隨里為隨東路５８巷３１號,22.8193169,120.29135900000001,食品及飼品業,蔬果加工及保藏業,,豆腐及豆類製品
智品精密機械有限公司,高雄市岡山區為隨里為隨東路５８巷２３號,22.8192139,120.290947,機械設備業,未分類其他專用機械設備製造業,,生產機械
茂智科技有限公司岡山廠,高雄市岡山區為隨里為隨東路５８巷２１號,22.8192062,120.290878,機械設備業,未分類其他專用機械設備製造業,,生產機械
春雨工廠股份有限公司岡山五廠,高雄市岡山區岡山里新樂街１９１號,22.8102837,120.291367,金屬製品業,金屬彈簧及線製品製造業,盤元,鐵線
世岱興業股份有限公司,高雄市岡山區岡山里新樂街１８９號,22.8101025,120.29203000000001,基本金屬業,銅材軋延、擠型及伸線業,,銅管二次加工
崴塏有限公司,高雄市岡山區為隨里為隨東路５８巷１７號,22.819212,120.290733,金屬製品業,金屬模具製造業,,沖具、沖棒、前後沖
智富機械有限公司,高雄市岡山區為隨里為隨東路５８巷１５號,22.8192158,120.29065700000001,金屬製品業,未分類其他金屬製品製造業,,其他金屬製品
允業企業有限公司,高雄市岡山區為隨里為隨東路５８巷１３號,22.819212,120.2906,金屬製品業,螺絲、螺帽及鉚釘製造業,,螺絲製品
澄輿企業有限公司,高雄市岡山區為隨里為隨東路５８巷３３號,22.819543799999998,120.291351,食品及飼品業,動植物油脂製造業,,其他製品－動、植物性油脂加工
勝球科技股份有限公司科技廠,高雄市岡山區為隨里為隨東路５８巷７、９號,22.819229999999997,120.290451,金屬製品業,螺絲、螺帽及鉚釘製造業,,螺絲
吉弘生物科技股份有限公司,高雄市岡山區為隨里為隨東路５８巷１、３、５號,22.819229999999997,120.290329,食品及飼品業,麵條及粉條類食品製造業,,麵
盛弘油脂有限公司,高雄市岡山區為隨東路６６巷３８號,22.819583899999998,120.29117600000001,食品及飼品業,動物飼品製造業,,動物油，油粕
永裕顏料有限公司,高雄市岡山區為隨里為隨東路６６巷３２號,22.819561,120.291031,化學製品業,塗料、染料及顏料製造業,,顏料
幸福顏料有限公司,高雄市岡山區為隨里為隨東路６６巷３０號,22.819562899999998,120.29096200000001,化學製品業,塗料、染料及顏料製造業,,顏料
來克車業有限公司岡山廠,高雄市岡山區為隨里為隨東路６６巷２２、２６號,22.819574399999997,120.29081000000001,其他運輸工具零件業,自行車製造業,,電動自行車
縉電自動化科技有限公司,高雄市岡山區為隨里為隨東路６０之１號,22.8191624,120.2899,機械設備業,輸送機械設備製造業,,機械設備
勤益螺絲有限公司,高雄市岡山區為隨里為隨東路６０之３號,22.8191624,120.2899,金屬製品業,螺絲、螺帽及鉚釘製造業,,螺絲
鉅源工程有限公司,高雄市岡山區為隨里為隨東路６０之５號,22.8191624,120.2899,機械設備業,其他通用機械設備製造業,,其他金屬加工用機械加工
先豪科技有限公司,高雄市岡山區為隨里為隨東路６６巷２０號,22.81958,120.29068000000001,化學製品業,未分類其他化學製品製造業,,防銹劑、離型劑
偉新廣告工程行,高雄市岡山區為隨里為隨東路６０－２號,22.8192863,120.28990900000001,金屬製品業,未分類其他金屬製品製造業,,其他金屬製品
柏叡企業社,高雄市岡山區為隨東路６６巷１０號,22.8196049,120.2904,金屬製品業,螺絲、螺帽及鉚釘製造業,,螺絲、螺帽及鉚釘製造
皇晉工業有限公司岡山廠,高雄市岡山區為隨里為隨東路６６巷８號,22.8196125,120.290329,金屬製品業,螺絲、螺帽及鉚釘製造業,盤元,螺絲
先豪科技有限公司二廠,高雄市岡山區為隨東路６６巷２９號,22.8199272,120.29116100000002,化學製品業,未分類其他化學製品製造業,,除垢劑、離型劑
宸尉企業有限公司,高雄市岡山區為隨東路６６巷６號,22.81962,120.29026,金屬製品業,螺絲、螺帽及鉚釘製造業,螺絲、沖模,螺絲、沖模、牙板
東震精密有限公司,高雄市岡山區為隨里為隨東路６６巷２５號、２７號,22.8199272,120.291023,金屬製品業,未分類其他金屬製品製造業,,金屬製品製造業
真原股份有限公司高雄廠,高雄市岡山區為隨里為隨東路６６巷２號,22.819623899999996,120.29019199999999,金屬製品業,鍋爐、金屬貯槽及壓力容器製造業,,鍋爐、電熱媒加熱器
友利得金屬股份有限公司,高雄市岡山區為隨里為隨東路６２之２號,22.8194828,120.28991699999999,金屬製品業,其他金屬加工處理業,,合金鋼圓棒，鋁材、不銹鋼棒
上展國際實業有限公司岡山廠,高雄市岡山區為隨里為隨東路６２之３號,22.8194828,120.28991699999999,金屬製品業,螺絲、螺帽及鉚釘製造業,,螺絲
鴻昇螺絲有限公司,高雄市岡山區為隨東路６２號,22.8194828,120.28991699999999,金屬製品業,螺絲、螺帽及鉚釘製造業,,螺絲加工
泰惟機械有限公司岡山廠,高雄市岡山區為隨東路６６巷２１號,22.81993,120.29088600000001,機械設備業,其他通用機械設備製造業,,迴轉爐製作修繕．集塵設備製作修繕．熔解爐製作修繕．冷灰桶製作修繕等客訂工具製作修繕
美紅興業有限公司,高雄市岡山區為隨里為隨東路６６巷１９號,22.81993,120.29081699999999,化學製品業,清潔用品及化粧品製造業,,液劑、乳劑、洗髮精、定型液、髮油
儷橙企業有限公司,高雄市岡山區為隨里為隨西路９１號,22.8177223,120.28788,食品及飼品業,動植物油脂製造業,,食品調油
峻欣企業股份有限公司,高雄市岡山區為隨里為隨東路６６巷９號,22.81993,120.290466,機械設備業,其他金屬加工用機械設備製造業,,其他機械設備製造
盛香津食品工廠,高雄市岡山區為隨里為隨東路６６巷５號,22.81993,120.290329,食品及飼品業,調味品製造業,,食品罐頭加工
聚川壓克力雷射切割廠,高雄市岡山區為隨里為隨東路６６巷１號,22.81993,120.29019199999999,塑膠製品業,塑膠皮、板及管材製造業,,塑膠製品（塑膠板）
泰華貿易有限公司,高雄市岡山區為隨里為隨東路６８號,22.819862399999998,120.2899,金屬製品業,螺絲、螺帽及鉚釘製造業,,螺絲
川鎧精密機械有限公司,高雄市岡山區為隨里為隨東路６８之２號,22.8198662,120.2899,金屬製品業,金屬模具製造業,,模具加工
信瀧企業有限公司,高雄市岡山區為隨里為隨東路６８之５號,22.8198662,120.2899,金屬製品業,金屬模具製造業,,高速鋼
寰宇熱能企業有限公司,高雄市岡山區為隨東路６８之８號,22.8198662,120.2899,電力設備業,其他電力設備及配備製造業,,其他電力設備
長日泰企業社,高雄市岡山區為隨里為隨東路６８之６號,22.8198662,120.2899,塑膠製品業,其他塑膠製品製造業,,塑膠粒
淑女實業有限公司,高雄市岡山區為隨里為隨東路６８之７號,22.8198662,120.2899,金屬製品業,金屬刀具及手工具製造業,,起子頭
益進工具企業有限公司,高雄市岡山區為隨里為隨東路６８之１０號,22.8198662,120.2899,金屬製品業,金屬模具製造業,,高速鋼
豪茂螺帽工廠股份有限公司,高雄市岡山區岡山里新樂街１６８號,22.8090954,120.293152,金屬製品業,螺絲、螺帽及鉚釘製造業,,螺帽、螺絲
建銘興業有限公司岡山廠,高雄市岡山區為隨里為隨西路９９號,22.817997000000002,120.287682,金屬製品業,螺絲、螺帽及鉚釘製造業,,螺絲加工成型
維俊企業股份有限公司,高雄市岡山區新樂街１６６號,22.8089962,120.293259,金屬製品業,未分類其他金屬製品製造業,,螺絲帽加工
育和精密有限公司,高雄市岡山區為隨西路１０１號,22.81808,120.287628,金屬製品業,金屬模具製造業,,金屬模具製造
育和精密有限公司二廠,高雄市岡山區為隨西路１０３號,22.818157199999998,120.287582,金屬製品業,金屬模具製造業,,金屬模具製造
皆舜實業股份有限公司,高雄市岡山區灣裡里岡山北路２巷５５弄２號,22.810791000000002,120.288132,金屬製品業,螺絲、螺帽及鉚釘製造業,,１．螺絲２．螺帽３．套筒
鑫冠螺絲有限公司,高雄市岡山區新樂街１６２號,22.80879,120.29332,金屬製品業,螺絲、螺帽及鉚釘製造業,,螺絲
新華人電機有限公司,高雄市岡山區為隨里岡山北路２巷３９號,22.810370000000002,120.28836100000001,電力設備業,發電、輸電及配電機械製造業,,馬達、泵浦
欣家豐科技股份有限公司,高雄市岡山區灣裡里岡山北路２巷５２號,22.8104343,120.28818500000001,機械設備業,機械傳動設備製造業,樹脂、油脂,ＵＶ ＴＡＰＥ
聰笙有限公司,高雄市岡山區灣裡里岡山北路２巷５３號,22.8104343,120.28818500000001,金屬製品業,未分類其他金屬製品製造業,,其他五金製品
金勝豐螺絲有限公司,高雄市岡山區灣裡里岡山北路２巷５５弄８號,22.8108673,120.28748300000001,金屬製品業,螺絲、螺帽及鉚釘製造業,,螺絲加工
精工鑄造股份有限公司,高雄市岡山區新樂街１５５、１５７號,22.8084068,120.29279299999999,基本金屬業,未分類其他基本金屬製造業,,鑄件、離心管、左刀
鉅侖科技股份有限公司科技廠,高雄市岡山區灣裡里岡山北路２巷５０、５１號,22.8101387,120.288025,機械設備業,其他通用機械設備製造業,氣缸，電腦,客製化半導體設備
宇來企業股份有限公司,高雄市岡山區灣裡里岡山北路２巷５５弄３號,22.8105316,120.287613,金屬製品業,螺絲、螺帽及鉚釘製造業,,螺絲打頭加工、螺絲
勤立船舶科技有限公司,高雄市岡山區岡山里新樂街１５３號,22.808239999999998,120.292892,其他運輸工具零件業,船舶及浮動設施製造業,,遊艇製造及加工
嘉華盛科技股份有限公司,高雄市岡山區為隨里為隨西路８８號,22.8180275,120.286629,基本金屬業,鋼鐵鑄造業,,五金零件、航太零件、生醫器材
進豐興企業股份有限公司分廠,高雄市岡山區岡山里新樂街１５６號,22.808151199999998,120.29369399999999,基本金屬業,鋼鐵伸線業,鹽酸、線材、皮膜劑,鋼線加工
泓威精密股份有限公司,高雄市岡山區灣裡里岡山北路２巷４７號,22.8097839,120.288017,金屬製品業,螺絲、螺帽及鉚釘製造業,,螺絲．螺帽加工
峻昌電機有限公司,高雄市岡山區灣裡里岡山北路２巷４６號,22.8096943,120.288017,機械設備業,其他通用機械設備製造業,,電器箱組裝
克雷爾科技股份有限公司,高雄市岡山區灣裡里岡山北路２巷４５號,22.8096027,120.288017,機械設備業,電子及半導體生產用機械設備製造業,,半導體零件組裝
富玥生技股份有限公司,高雄市岡山區灣裡里岡山北路２巷４２號,22.8094234,120.288017,化學製品業,清潔用品及化粧品製造業,,保養品
進豐興企業股份有限公司,高雄市岡山區新樂街１４６號,22.8077831,120.29381599999999,基本金屬業,鋼鐵伸線業,線材、鹽酸、皮膜劑,鋼線加工
東懋精密股份有限公司,高雄市岡山區灣裡里岡山北路２巷４１號,22.8093319,120.28801000000001,汽車及零件業,汽車零件製造業,,汽車零件
晟發工業股份有限公司,高雄市岡山區岡山里新樂街１２７之１號,22.807512300000003,120.292511,機械設備業,泵、壓縮機、活栓及活閥製造業,,抽水機、抽水機另件
峻昇泵浦有限公司,高雄市岡山區岡山里新樂街１２７之２號,22.807512300000003,120.292511,機械設備業,泵、壓縮機、活栓及活閥製造業,,泵浦
春雨工廠股份有限公司岡山一廠,高雄市岡山區大寶街７７、１００號,22.8080158,120.289955,基本金屬業,鋼鐵伸線業,盤元,鐵線
春雨工廠股份有限公司岡山二廠,高雄市岡山區大寶街１００之１號,22.8080158,120.289955,金屬製品業,金屬彈簧及線製品製造業,盤元,鐵線
春雨工廠股份有限公司岡山三廠,高雄市岡山區大寶街１００之２號、新樂街１６９號,22.8080158,120.289955,金屬製品業,金屬彈簧及線製品製造業,盤元,鐵線
春雨工廠股份有限公司,高雄市岡山區大寶街１００號,22.8080158,120.289955,金屬製品業,其他金屬加工處理業,不銹鋼線、盤元、元棒,磨光盤元、冷拉捲線、球狀化鋼材熱處理加工
皆豪實業股份有限公司,高雄市岡山區為隨里為隨西路１３８號,22.818939999999998,120.28631599999999,金屬製品業,金屬結構製造業,,鋼結構工程
清水化學股份有限公司,高雄市岡山區成功路５１７號,22.814373,120.30081899999999,食品及飼品業,未分類其他食品製造業,,精製纖維健康食品（蒟蒻粉）
悠鍛企業有限公司,高雄市岡山區台上里成功路５１９之１號,22.814373,120.30081899999999,金屬製品業,螺絲、螺帽及鉚釘製造業,,螺絲加工
台灣鑄造工業股份有限公司,高雄市岡山區臺上里成功路５１７之１號,22.814373,120.30081899999999,金屬製品業,未分類其他金屬製品製造業,,可鍛鑄鐵管子接頭，各種零件
長順冷凍企業有限公司,高雄市岡山區臺上里成功路５１７之３號,22.814373,120.30081899999999,機械設備業,其他通用機械設備製造業,,各種拼裝組合式冷凍冷藏庫、精密儀器
春弘企業股份有限公司,高雄市岡山區臺上里成功路５１７之５號,22.814373,120.30081899999999,金屬製品業,螺絲、螺帽及鉚釘製造業,,螺絲、螺帽、五金零件加工
高旺螺絲工業有限公司,高雄市岡山區臺上里成功路４８９號,22.8132458,120.30066699999999,金屬製品業,螺絲、螺帽及鉚釘製造業,,螺絲、螺帽
西河堂自動化設備有限公司,高雄市岡山區灣裡里岡山北路２巷３７號,22.808970000000002,120.288017,機械設備業,未分類其他專用機械設備製造業,不鏽鋼,全新世代超高速自動製糊機
乾利有限公司,高雄市岡山區灣裡里岡山北路２巷３６號,22.80888,120.288017,金屬製品業,金屬模具製造業,,模具
高旺五金工業有限公司岡山廠,高雄市岡山區成功路４８９號２樓（Ａ棟）,22.8135414,120.300827,金屬製品業,螺絲、螺帽及鉚釘製造業,,螺絲、螺帽
華鉅鋼鐵有限公司,高雄市岡山區灣裡里岡山北路２巷３５號,22.8085747,120.288246,基本金屬業,鋼鐵伸線業,,鍍鋅鋼帶、鍍鋅鋼板
新倡發工業股份有限公司,高雄市岡山區新樂街１３４號,22.80736,120.29438,金屬製品業,螺絲、螺帽及鉚釘製造業,,螺帽、螺絲
晉禾企業股份有限公司,高雄市岡山區岡山里新樂街１０７號,22.807218600000002,120.29333500000001,金屬製品業,螺絲、螺帽及鉚釘製造業,,中碳螺絲
晉禾企業股份有限公司分廠,高雄市岡山區新樂街１１５號,22.807184200000002,120.293396,金屬製品業,螺絲、螺帽及鉚釘製造業,,中碳螺絲
春日機械工業股份有限公司台上廠,高雄市岡山區大寶街６０號,22.8076954,120.289749,機械設備業,未分類其他專用機械設備製造業,,螺絲成型機、模具
瑞峰電器企業股份有限公司,高雄市岡山區臺上里成功路４６４之３號,22.8122234,120.30071299999999,其他運輸工具零件業,自行車零件製造業,,電器其他運輸自行車零件
賀冠照明科技有限公司,高雄市岡山區臺上里成功路４６４之４號,22.8122234,120.30071299999999,電力設備業,照明器具製造業,,燈具
大森木型有限公司,高雄市岡山區臺上里成功路４６０巷２號,22.8110886,120.300308,木竹製品製造業,其他木竹製品製造業,,木模
燁昌鋼鐵股份有限公司二廠,高雄市岡山區成功路４６６巷２號,22.812412300000002,120.300995,金屬製品業,其他金屬加工處理業,其他金屬製品,低碳鋼線加工
勇鑽企業有限公司,高雄市岡山區成功路４６０巷１號,22.811321300000003,120.300674,金屬製品業,螺絲、螺帽及鉚釘製造業,,螺絲（加工）
億鑫有限公司,高雄市岡山區成功路４６０巷１號,22.811321300000003,120.300674,金屬製品業,螺絲、螺帽及鉚釘製造業,,螺絲加工
日日信企業有限公司,高雄市岡山區成功路４６６巷６號,22.8124313,120.30116299999999,機械設備業,輸送機械設備製造業,,輸送機
祺曄泵浦機電有限公司,高雄市岡山區臺上里成功路４６６巷３、５號,22.8127232,120.30126200000001,機械設備業,泵、壓縮機、活栓及活閥製造業,,抽水機、機器零件
金富泓有限公司,高雄市岡山區成功路４６０巷８號,22.8108883,120.300453,金屬製品業,金屬模具製造業,,牙板
澤毅科技工業有限公司岡山廠,高雄市岡山區成功路４６６巷８號,22.8124313,120.301239,機械設備業,其他金屬加工用機械設備製造業,,機械設備製造業
尚鎂企業社,高雄市岡山區臺上里成功路４６６巷７號,22.812734600000002,120.30133799999999,機械設備業,未分類其他專用機械設備製造業,,軋盒機、機械修理
交盛螺絲有限公司岡山廠,高雄市岡山區臺上里成功路４６０巷１０之１號,22.8107929,120.300491,金屬製品業,螺絲、螺帽及鉚釘製造業,,螺絲、螺帽
廣豐特殊鋼有限公司,高雄市岡山區臺上里成功路４６０巷１０號,22.8107929,120.300491,金屬製品業,其他金屬加工處理業,,特殊合金鋼，鋼皮模板，中高碳素，高速鋼
金草企業有限公司,高雄市岡山區嘉興里信中街２９５號,22.8157635,120.307396,紡織業,紡織製成品製造業,,棉被、枕頭、床單、坐墊
