id,grid,name,type,lat,lng
7211425507,480,圓滿川湘菜海鮮,restaurant,25.0385313,121.5850622
4384740026,360,麥當勞,fast_food,25.0724837,121.4960273
3514374814,479,漢堡大師,fast_food,25.0377947,121.5746495
3550647397,439,春梅子餐廳,restaurant,25.0517081,121.5357573
3656268829,514,金華麵店,restaurant,25.0292578,121.5235073
3760220091,365,頂呱呱,fast_food,25.0754775,121.5766644
2406793659,478,Spaggo - Pasta House,restaurant,25.0309917,121.5603710
5680820504,443,摩斯漢堡,restaurant,25.0528250,121.6060677
4928425283,438,Joe Alley brunch,cafe,25.0556795,121.5324419
6373399411,249,肯德基,fast_food,25.1156676,121.5282813
3379237109,479,瓦城大心,restaurant,25.0354358,121.5670365
3438534393,734,姊妹小吃店,restaurant,24.9568132,121.5384255
5110348737,440,田季發爺,restaurant,25.0483623,121.5612358
5551876723,557,Bebe sweet,restaurant,25.0131447,121.5351452
3707814897,762,紫苑潮州砂鍋粥,restaurant,24.9449477,121.3769695
7138715806,213,岡山眷村涼麵,restaurant,25.1356885,121.5030158
3835327765,649,邱記涼麵,restaurant,24.9842757,121.5597773
1844866487,248,仙客來,restaurant,25.1188847,121.5128936
6140337455,514,賊十三,restaurant,25.0197411,121.5313303
4496468491,548,同心園小館,restaurant,25.0040129,121.4135617
4386830987,191,地瓜湯米粉湯,restaurant,25.1502765,121.5483802
7175334765,405,詹詹自囍,restaurant,25.0696191,121.6182268
7080016490,515,春花微笑,restaurant,25.0251719,121.5345282
4462659061,324,地中海餐廳,restaurant,25.0947133,121.5151033
3275559061,442,磚窯古早味懷舊餐廳,restaurant,25.0528760,121.5836940
5219053323,249,露特西亞Lutetia,cafe,25.1142214,121.5274824
2918997923,475,牛店,restaurant,25.0425721,121.5048228
4786107211,479,Cozzi Café,cafe,25.0404212,121.5670714
3752360125,139,Buona Pasta,restaurant,25.1742427,121.4518384
1720014709,327,摩斯漢堡,fast_food,25.0837116,121.5555709
4173012793,439,印度風情(即將開幕),restaurant,25.0528700,121.5455044
3341995475,640,龍鳳美而美,restaurant,24.9829716,121.4229751
5372146607,555,深坑臭豆腐,restaurant,25.0074696,121.5091801
3654087652,438,HEY CAFE,cafe,25.0485918,121.5223631
2912371601,138,士林豪大大雞排,fast_food,25.1697200,121.4398915
2168323069,439,金好家客家菜,restaurant,25.0517112,121.5396200
6140337459,515,光一,cafe,25.0192173,121.5335780
3262991961,437,小潘牛肉麵,restaurant,25.0494588,121.5088071
4986591813,368,2018搞食堂,restaurant,25.0730451,121.6072450
5505377672,601,大力小吃,restaurant,25.0004113,121.5398018
4524863624,439,赤神日式豬排,restaurant,25.0496410,121.5437102
3670390140,478,門司燒きカレー,restaurant,25.0429122,121.5557960
3854086751,321,鴨對寶燒臘,restaurant,25.0882705,121.4665070
4483165494,325,星巴客,cafe,25.0884109,121.5264918
4070047187,601,聰明油飯,restaurant,24.9907527,121.5415178
6189317567,360,長疆羊肉爐,restaurant,25.0742308,121.4912089
3835345479,650,如意小吃,restaurant,24.9838907,121.5683743
3722754930,515,爭鮮迴轉壽司,restaurant,25.0266037,121.5436786
7194706771,366,鷹堡52,restaurant,25.0823517,121.5810120
6357749096,602,頂鼎麻油雞,restaurant,24.9988636,121.5572847
6926448485,402,金龍食堂,restaurant,25.0580332,121.5642825
3034547265,439,三花日式料理,restaurant,25.0534413,121.5372404
5564549022,444,山東餃子館,restaurant,25.0528367,121.6172495
7175334756,211,金牛座牛排屋,restaurant,25.1283014,121.4676262
7095347143,439,泉。精緻鍋物,restaurant,25.0447400,121.5478916
7211425499,336,新風味生猛活海鮮,restaurant,25.0850880,121.6945233
7004130373,437,石尚恐龍主題餐廳,restaurant,25.0435808,121.5141837
4217382153,478,凪,restaurant,25.0382710,121.5498348
7365964054,397,店小二,restaurant,25.0653914,121.4989643
2558221482,472,笑咪咪三明治,restaurant,25.0307100,121.4721036
5678641621,476,珍珠水果特調,cafe,25.0325615,121.5300982
7130802011,401,胖張水煎包,restaurant,25.0574107,121.5531022
4226190589,406,原牧炙燒牛排/鍋燒麵,restaurant,25.0686307,121.6329170
4547470789,324,貝思提,cafe,25.0889219,121.5095831
6090439071,325,阿姨鹽水雞,restaurant,25.0879893,121.5236120
5621089407,640,大嘴巴,restaurant,24.9826157,121.4234064
1973476978,476,摩斯漢堡,fast_food,25.0423539,121.5318734
2563901890,648,小蒙牛,restaurant,24.9831326,121.5369253
5981891184,601,風箏人咖啡,cafe,25.0002723,121.5460852
3463539663,598,三媽臭臭鍋,restaurant,24.9950711,121.5017529
3663951136,511,阿華肉羹,restaurant,25.0184701,121.4805499
3860789100,593,台南鍋燒意麵,restaurant,24.9913317,121.4234956
4360380423,515,三隻貓頭鷹,restaurant,25.0232294,121.5427324
3837459793,640,福德食堂,restaurant,24.9786124,121.4196430
4062838189,138,醃大王情人果,fast_food,25.1688026,121.4434323
5109347771,514,永茂自助餐,restaurant,25.0248502,121.5317804
3912889158,363,金榜書局,restaurant,25.0830021,121.5472772
7271135356,139,歐奇娜娃早午餐,restaurant,25.1688576,121.4467561
7004248048,327,大戶屋日本料理,restaurant,25.0836913,121.5577938
5273028686,555,四海遊龍,restaurant,25.0132527,121.5121418
6881370463,438,圓安廚,restaurant,25.0490618,121.5262481
6903271899,433,豐滿早午餐,restaurant,25.0523822,121.4495793
6054976959,325,卡帕卡巴,restaurant,25.0885270,121.5236749
5172407622,249,Mr. Brown,cafe,25.1183280,121.5261918
6024211759,648,瑞麟美而美,restaurant,24.9859805,121.5418659
4820634508,561,東南科技大學學生第二餐廳,restaurant,25.0040083,121.6039929
1412407357,552,錢都日式涮涮鍋,restaurant,25.0023588,121.4625108
7194693214,399,肉舖廚房,restaurant,25.0690192,121.5220918
5564549036,444,蚵仔煎,restaurant,25.0550319,121.6130973
2632689003,478,BOX 巴克斯,restaurant,25.0418541,121.5554750
4742234725,439,卓莉手工釀啤酒泰食餐廳,restaurant,25.0540352,121.5456103
3893604038,437,CoCo壱番屋-漢口店,restaurant,25.0452612,121.5139841
2563901903,648,50 嵐,restaurant,24.9826793,121.5353151
4384259023,514,瑪丘墨式餅舖,restaurant,25.0244486,121.5269652
3889229972,399,海霸王,restaurant,25.0686396,121.5232519
2776694529,556,星巴克,cafe,25.0078678,121.5207413
6205139410,478,mamak檔 星馬料理,restaurant,25.0423829,121.5528880
7211425624,374,金饌麵線,restaurant,25.0826812,121.6991644
5938833876,514,傳盛小食香菇肉粥,restaurant,25.0223904,121.5284926
3786348254,514,七里亭,restaurant,25.0172722,121.5325635
3826206858,479,cama café現烘咖啡,cafe,25.0384438,121.5678748
5813113753,475,北義極品,cafe,25.0334859,121.5068149
7211439843,440,老先覺麻辣窯燒鍋,restaurant,25.0479258,121.5580565
7211425808,403,Ryan帶早餐,restaurant,25.0681692,121.5859348
7211419070,374,鳳蓮素食自助餐廳,restaurant,25.0817510,121.6980722
7211425609,374,恰恰飯麵館,restaurant,25.0816252,121.6963735
4967959671,762,荻屋,restaurant,24.9440789,121.3783412
5189741821,249,cafe in,cafe,25.1198502,121.5265513
4325693914,438,東利,restaurant,25.0434996,121.5312111
2391800642,362,混蛋老闆果汁店,fast_food,25.0800758,121.5203116
4102202592,762,五花馬水餃館 三峽大學門市,restaurant,24.9424099,121.3758145
5187744629,287,餃當家,restaurant,25.1086211,121.5312659
3908055730,438,老爸咖啡,cafe,25.0448808,121.5238305
6190826763,437,南南一村台灣牛肉麵,restaurant,25.0445737,121.5158853
2061784663,734,小飯廳,restaurant,24.9591040,121.5382241
4838087673,437,肯德基,fast_food,25.0466793,121.5176845
4031296843,439,怡客咖啡,cafe,25.0529490,121.5468861
6141858785,325,歡樂便所主題餐廳,restaurant,25.0896697,121.5270946
3959167646,762,丐幫滷味 北大分舵,restaurant,24.9473007,121.3744079
4144034489,324,coffee stand,cafe,25.0912209,121.5175145
5875366065,475,永興自助餐,restaurant,25.0415822,121.5058091
2392237984,400,黎阿姨好粥道,restaurant,25.0605432,121.5349678
2853438742,439,寶妍定食屋,restaurant,25.0500554,121.5422478
6066275856,471,すき家,fast_food,25.0363891,121.4530689
3510224822,400,Joco Latte,cafe,25.0574603,121.5425861
5211483221,249,神戶牛排,restaurant,25.1121478,121.5284779
5110348657,515,餘記麵館,restaurant,25.0262591,121.5477547
7211425515,404,越南粉捲,restaurant,25.0646998,121.5931136
4524318933,601,大橋頭魯肉飯,restaurant,24.9904608,121.5423419
7271149973,139,Arirang 阿里郎韓式料理,restaurant,25.1686874,121.4462886
3700536513,478,越豐麵館,restaurant,25.0313361,121.5600033
3510607468,401,Wash Coffee,cafe,25.0599173,121.5480562
7211419056,442,劉記豆漿店,restaurant,25.0458942,121.5857371
7194706718,444,想漆肉圓伯之真味肉圓,restaurant,25.0534111,121.6160606
3278448292,639,美美早餐店,restaurant,24.9801050,121.4152544
7365923884,397,阜囍廣東粥,restaurant,25.0665843,121.4985722
5205493121,287,Domino`s,fast_food,25.1098247,121.5255888
5564542412,444,ㄔˇ 留香湯包專賣店,restaurant,25.0560831,121.6116503
4254654858,515,池先生咖哩屋,restaurant,25.0218686,121.5427660
3104849438,650,彩虹咖啡,cafe,24.9882634,121.5652157
4200642683,601,山東餃子館,restaurant,24.9976871,121.5445488
5178056922,248,第二家鹽酥雞,restaurant,25.1110756,121.5161944
3172604827,599,鬍鬚張魯肉飯,restaurant,24.9945752,121.5051195
7153752251,439,小吃攤,restaurant,25.0440967,121.5358174
3473061794,552,西堤牛排,restaurant,25.0076855,121.4599783
3430332191,554,頂呱呱,fast_food,25.0026165,121.4973681
1837963116,366,藍色馬克,restaurant,25.0766172,121.5788707
4018210619,478,韓國館,restaurant,25.0346365,121.5597867
6182991556,433,肯德基,fast_food,25.0489845,121.4472360
3711235223,287,北投志明牛肉拉麵,restaurant,25.1044498,121.5218196
7175344627,366,蔬福緣健康飲食概念館,restaurant,25.0758159,121.5845698
3210313412,515,芝鄉涼麵,restaurant,25.0253520,121.5449967
4156554947,507,Starbucks,cafe,25.0265665,121.4175708
5733249172,443,大戸屋,restaurant,25.0524110,121.6047082
3463196824,598,馥達山東燒雞,restaurant,24.9950464,121.5021710
3514477402,185,光州神仙炉,restaurant,25.1379460,121.4604022
7037347318,437,祥星記,restaurant,25.0516930,121.5131666
4834803844,557,牛肉麵紅油炒手,restaurant,25.0138752,121.5337698
5198011427,249,OD Flower and Food,cafe,25.1192482,121.5287292
7213811088,479,MAiSEN 邁泉,restaurant,25.0367590,121.5668777
7227409587,642,弘爺漢堡,fast_food,24.9876670,121.4552466
2622332622,439,潮流湯飯,restaurant,25.0514584,121.5359569
2896620514,433,海力士,restaurant,25.0492691,121.4496205
4969864578,507,石都府石頭火鍋,restaurant,25.0224155,121.4251553
4737705387,367,馳走屋,restaurant,25.0738354,121.6051973
4143035557,648,黑人牛肉麵店,restaurant,24.9810883,121.5442774
5222766021,287,石元鍋精緻石頭火鍋,restaurant,25.1038627,121.5208653
6269043216,602,池上美鄉木盒便當,restaurant,24.9997801,121.5480834
5551891024,477,mimo cafe,cafe,25.0331998,121.5382951
3860013614,601,池上便當,restaurant,24.9969809,121.5448426
3590018294,694,二空新村,restaurant,24.9712892,121.5412902
5242596821,249,小黑咖啡簡餐,restaurant,25.1126877,121.5293900
4754476211,557,客家魷魚羹,restaurant,25.0121317,121.5356656
5380535123,399,晴光芋頭米粉,cafe,25.0644193,121.5242443
3006495333,139,嚐鱻壽司,fast_food,25.1671118,121.4464442
5938824200,723,Mr. sushi,restaurant,24.9494803,121.3838464
4667202589,358,麋鹿小館,restaurant,25.0801409,121.4617311
5544094221,478,Sugar Miss,cafe,25.0393728,121.5568377
7138715835,288,玉娟越南小吃,restaurant,25.1105233,121.5339024
2378064245,648,我家牛排,restaurant,24.9759265,121.5351829
4837986518,439,漢陽館韓國料理,restaurant,25.0524808,121.5463087
3670374296,478,一品蔬菜羊肉專賣店,restaurant,25.0428356,121.5554159
5661007796,388,巧味溫州大餛飩,restaurant,25.0589160,121.3694259
4265879211,640,金胤傳統料理臭臭鍋,restaurant,24.9806339,121.4156293
4298881343,557,"Wen's,Kitchen",restaurant,25.0143397,121.5340047
3860006658,601,味自慢季節料理,restaurant,24.9934929,121.5443068
7211425677,403,阿川涼麵,restaurant,25.0686552,121.5860694
5189745724,249,南美咖啡,cafe,25.1197264,121.5270269
6703646972,476,沐樂咖啡,cafe,25.0339624,121.5265533
4018209531,439,北平陶然亭餐廳,restaurant,25.0513896,121.5437973
5875366063,475,吉祥素食,restaurant,25.0415810,121.5057260
4293261211,697,小日子,cafe,24.9670038,121.5895532
2630779796,599,拿坡里披薩,fast_food,24.9919051,121.5118029
7213007942,515,嘰嘰喳喳,restaurant,25.0263969,121.5394662
7004248033,364,Meat Love 橡木炭火 韓國烤肉,restaurant,25.0834893,121.5569321
2292449755,406,拉亞漢堡,restaurant,25.0635326,121.6304701
7002886735,437,富旺小館,restaurant,25.0459166,121.5154167
3029053633,114,田園西餐廳,restaurant,25.1822593,121.4152719
7365964017,397,漢堡王,fast_food,25.0640269,121.4972049
4308725465,470,石二鍋 新莊輔大店,restaurant,25.0300835,121.4346400
6515975289,248,晴光車輪餅,restaurant,25.1151970,121.5108962
4928425249,439,武藏大眾食堂,restaurant,25.0513283,121.5343974
5295462993,478,Orchid蘭餐廳,restaurant,25.0300230,121.5521792
4800877811,467,伯朗咖啡館,cafe,25.0351968,121.3889982
7130418585,399,仙草下凡,cafe,25.0673412,121.5230021
6084274509,287,ASTO Gelateria & Boutique 冰淇淋餐廳,restaurant,25.1070531,121.5242519
3699875996,444,錢都日式鍋,restaurant,25.0444354,121.6161336
5005108214,388,MOS漢堡,restaurant,25.0660528,121.3616282
4153900229,506,永和豆漿大王,fast_food,25.0175697,121.4031662
4343743389,366,瑞元香菇肉羹,restaurant,25.0745767,121.5781692
4312418442,366,永和豆漿大王,restaurant,25.0806839,121.5912486
7095347132,439,九尾韓國豆腐煲,restaurant,25.0436945,121.5464023
3742378207,365,麥當勞,fast_food,25.0792317,121.5694891
3835317773,649,老曾涼麵,restaurant,24.9812136,121.5579899
3707814389,762,巷仔內飯、麵小館,restaurant,24.9453525,121.3764746
3292775570,510,益香園精緻自助餐,restaurant,25.0192746,121.4669239
4033134258,734,飛碟漢堡,restaurant,24.9566568,121.5343663
4312911532,640,恩典小棧,restaurant,24.9776876,121.4179866
5645321600,388,可久居鍋之物,restaurant,25.0596177,121.3686993
2667124118,648,檸檬綠荼飲集,cafe,24.9810201,121.5373505
2413063627,762,星巴克,cafe,24.9475716,121.3797951
6843949706,327,路易沙咖啡,cafe,25.0866510,121.5616019
4775572072,514,漁人食舖,restaurant,25.0194772,121.5318103
3708802400,469,學生餐廳（2）,restaurant,25.0419282,121.4221954
7194706996,361,丫田廚房,restaurant,25.0703706,121.5139339
4524328171,514,挑豆院,cafe,25.0189660,121.5306943
7211425658,403,車庫-家傳肉焿,restaurant,25.0676800,121.5864189
4153900223,548,雞肉川,restaurant,25.0158387,121.4134722
5212168622,249,七味屋,restaurant,25.1191240,121.5288350
7095334643,439,可口豬肝湯麻醬麵,restaurant,25.0430068,121.5465019
3440499389,554,美而美,fast_food,25.0035570,121.4962199
7004093432,437,福村飲食店,restaurant,25.0495078,121.5129445
5957577486,400,狂食堂烤肉飯專賣店,restaurant,25.0602036,121.5353639
3670390141,478,香味自助餐,restaurant,25.0425796,121.5547071
7211425642,443,昆陽包子饅頭店,restaurant,25.0496931,121.5944552
2313764676,366,湖之屋壽司,restaurant,25.0811752,121.5917654
3704355298,516,御廚房,restaurant,25.0242647,121.5531256
3369452487,250,天母豆漿,restaurant,25.1121011,121.5375522
6024333536,649,如意早餐店,restaurant,24.9843121,121.5599595
4452890777,506,八方雲集,fast_food,25.0169573,121.4023098
5110491032,438,溫州大餛飩,restaurant,25.0519184,121.5247222
7272342085,408,涼麵店,restaurant,25.0637386,121.6563307
7368631836,397,御鼎極品豬腳,restaurant,25.0638233,121.4994238
7095347141,439,圖角獸咖啡,restaurant,25.0440778,121.5474137
6578286271,441,莊家班麻油雞,restaurant,25.0489439,121.5662085
6938602186,399,窩．鴿子,restaurant,25.0659375,121.5236291
7194693262,482,客家人麵攤,restaurant,25.0420669,121.6177442
2625503728,363,麻油雞 麵線 廣東粥,restaurant,25.0796686,121.5460031
4334949798,475,賢記,restaurant,25.0314130,121.5178654
6978419885,478,星巴克,cafe,25.0347262,121.5621268
5250528824,325,米大師 伴手禮轉賣店,restaurant,25.0891007,121.5251526
4205230086,438,参昧真火,restaurant,25.0489430,121.5262565
4314326439,367,美而美,restaurant,25.0792827,121.5938156
4298941395,478,麻辣公館,restaurant,25.0398900,121.5556323
6415774065,556,Chinese Buffet,restaurant,25.0135653,121.5186608
2912242163,139,窩浩斯,restaurant,25.1691081,121.4467369
2188358183,400,O'La Pasta & Bar,restaurant,25.0572407,121.5392536
3053060098,478,朝鮮味,restaurant,25.0388118,121.5539515
2297924578,367,布夏拉提咖啡,cafe,25.0799471,121.5924799
4669665492,478,米販咖啡,cafe,25.0349745,121.5503512
3835833936,557,但馬屋壽喜燒,restaurant,25.0141675,121.5345338
7153752260,438,紅燒牛肉麵,restaurant,25.0448527,121.5331540
4483368490,325,永康街15號,fast_food,25.0879657,121.5236086
4200642681,558,小樽定食壽司,restaurant,25.0025003,121.5515186
6811967185,408,梁社漢排骨,restaurant,25.0623125,121.6532081
5276462227,564,摩斯漢保,fast_food,25.0089437,121.6457182
3626227404,556,亞美の豆漿大王,restaurant,25.0041331,121.5245287
2084825233,438,別境壽司,restaurant,25.0442155,121.5289953
4205229651,439,大和日本料理,restaurant,25.0542867,121.5438365
3040338633,138,貓雨咖啡,cafe,25.1687138,121.4437552
3245712560,556,牛肉細粉麵店公館捷運店,restaurant,25.0152210,121.5330139
2919811074,648,小蔬杭上海風蔬食飲茶,restaurant,24.9822604,121.5407722
6408110089,213,黃家酸菜滷肉飯,restaurant,25.1326787,121.5027713
4430972992,477,铀咖啡,cafe,25.0366990,121.5450183
6353691307,330,路易莎咖啡,cafe,25.0844119,121.5943569
5371530797,330,爭鮮迴轉壽司內湖店,restaurant,25.0837185,121.5943047
2473810198,476,鵝肉台南意麵,restaurant,25.0404316,121.5312820
4344542427,438,名湯滷肉飯,restaurant,25.0507959,121.5270910
7365964012,397,世洲排骨飯,restaurant,25.0671970,121.4983610
4205229676,439,玖五川味牛肉麵,restaurant,25.0560046,121.5462312
3740826740,725,柑仔園早餐,restaurant,24.9603594,121.4045992
3887762024,514,俄羅斯城堡,restaurant,25.0175280,121.5325560
1978019318,478,阿財魚刺肉羹,restaurant,25.0397304,121.5550027
6116330636,401,民生炒飯,restaurant,25.0585470,121.5565785
6911108131,475,詩篇咖啡餐廳,restaurant,25.0375981,121.5165994
7175344648,442,信興自助餐,restaurant,25.0461734,121.5780002
3732214236,325,1Bite2Go,restaurant,25.0957408,121.5288813
5236222922,287,何記手工蒸餃,restaurant,25.1079227,121.5292685
4967959672,762,品田牧場,restaurant,24.9441312,121.3783425
4251917290,639,我行我素,restaurant,24.9803432,121.4088875
5240834061,475,佳香燒臘店,restaurant,25.0370016,121.5142240
4893038822,437,脆皮鮮奶甜甜圈,fast_food,25.0503171,121.5152246
3889229973,399,女王漢堡,fast_food,25.0682853,121.5232483
7175334740,441,萬里香熱炒,restaurant,25.0501465,121.5727637
5293433761,514,翁師傅私房牛肉麵,restaurant,25.0232972,121.5241942
2699632204,437,富宏牛肉麵,restaurant,25.0475900,121.5077079
3037218938,365,星巴克,cafe,25.0805052,121.5651469
3472548698,552,街角二號,restaurant,25.0072899,121.4596715
6781231886,365,12MINI,restaurant,25.0793077,121.5695302
6116344903,287,孫東寶,restaurant,25.1020746,121.5247677
5591399608,442,夢幻幾何休閒餐飲,restaurant,25.0448418,121.5815027
3716561194,353,牛肉麵,restaurant,25.0772933,121.3946315
7175344683,512,海鮮快炒阿財,restaurant,25.0194916,121.4951721
2543052354,640,梁社漢排骨,restaurant,24.9803593,121.4177696
4928425261,439,嗨蝦蝦三杯醉蝦場鍋,restaurant,25.0517558,121.5356523
6033407600,361,八方雲集,restaurant,25.0718051,121.5159783
6471488994,365,新爺煲仔飯,restaurant,25.0826154,121.5666441
4865689921,402,屏東任家涼麵,restaurant,25.0613256,121.5657648
3455846916,478,Paul,restaurant,25.0383901,121.5497283
7194706938,190,可米可小西餐坊,restaurant,25.1378315,121.5452499
7175344719,367,小南門豆花,restaurant,25.0722148,121.5936187
3417501599,598,喜登活力早餐屋,fast_food,24.9956001,121.4980252
3044962333,211,藍屋義大利麵,restaurant,25.1361313,121.4621994
2084130006,444,好康南洋咖哩,restaurant,25.0549985,121.6143403
1973476984,476,米蘭意廚,restaurant,25.0418270,121.5316511
7170236088,187,巧果蔬食餐坊,restaurant,25.1453422,121.4931204
2216495492,555,咖啡因鮮豆烘焙坊,cafe,25.0028847,121.5129885
3042667237,138,藍波1池上飯包,restaurant,25.1710510,121.4418465
5257642642,477,大戶屋,restaurant,25.0336404,121.5438160
7138715822,216,父子廚房,restaurant,25.1367261,121.5465112
6170105860,687,Amo Cafe,cafe,24.9645572,121.4384106
6245963180,467,MQ元氣house,restaurant,25.0394465,121.3900848
2912291201,138,炭錢胡椒餅,restaurant,25.1712987,121.4389117
3464721402,598,布拉德施維根廚房,restaurant,24.9960934,121.5030451
7002886742,437,勝博殿,restaurant,25.0462177,121.5152935
3591717065,437,築空間,restaurant,25.0468501,121.5130850
4451132863,211,樓尚義式料理,restaurant,25.1359146,121.4613717
3390249072,437,王老先生火鍋店,restaurant,25.0458986,121.5039157
7194706752,482,3Q脆皮雞排,restaurant,25.0424839,121.6184346
5198337989,762,義把麵義式廚房,restaurant,24.9430504,121.3724831
7211425631,480,炒翻天點心坊,restaurant,25.0376224,121.5775979
6156191725,478,莫札特咖啡美食,cafe,25.0336902,121.5589839
5672072721,474,丸花豆倉,cafe,25.0388992,121.5026982
6530589885,642,中西式早餐,fast_food,24.9868450,121.4541790
3820884823,211,老湖南館,restaurant,25.1283623,121.4690215
5680772087,514,金門快炒,restaurant,25.0225668,121.5241231
7004220055,363,Pasta NO30,restaurant,25.0816732,121.5462635
5110245074,477,Subway,fast_food,25.0337521,121.5343506
3835344021,649,Naan&Pizza,restaurant,24.9803110,121.5557478
6633259641,517,寶島鐵板燒,restaurant,25.0271220,121.5671826
5110349508,366,江浙大佳園餐廳,restaurant,25.0813953,121.5900208
4578929091,762,好粥到平價清粥小菜,restaurant,24.9439733,121.3785994
4837986487,400,洪記豆漿大王,restaurant,25.0645127,121.5360174
4116017190,515,格芮潘義式創意廚房,restaurant,25.0238176,121.5429573
3668813928,514,帕帕義大麵,restaurant,25.0159264,121.5320157
3826769576,211,魯旦川鍋,restaurant,25.1351786,121.4711115
3859968442,216,大家中式早餐店,restaurant,25.1374251,121.5419405
6153674638,476,勺勺客陝西料理,restaurant,25.0420670,121.5265399
7004248047,364,22:02 火鍋。樂活,restaurant,25.0834774,121.5577907
6140337462,514,醉紅小酌,restaurant,25.0181266,121.5303192
5325584001,438,伍柒玖牛肉麵,restaurant,25.0550147,121.5259834
7194693225,482,JSP,restaurant,25.0347185,121.6142372
7211425775,442,小空間Brunch • 早午餐,restaurant,25.0464426,121.5875666
2597965506,476,大來小館永康旗艦店,restaurant,25.0330756,121.5301638
6654755473,476,皇族小火鍋,restaurant,25.0415621,121.5265453
6415774067,555,Yolo's Cafe,cafe,25.0120908,121.5183397
2320119243,214,吉野家,fast_food,25.1365278,121.5041802
4307554242,248,醬弄居酒屋,restaurant,25.1188663,121.5119186
843404001,2,來來活海鮮,restaurant,25.2949490,121.5339427
3612895494,478,貳食柒食堂,restaurant,25.0406281,121.5563443
5110489221,399,壽喜燒一丁,restaurant,25.0647427,121.5242037
4344542428,438,吳師大眾飯店,restaurant,25.0499897,121.5265833
7193346172,322,美而美,restaurant,25.0858945,121.4794332
2473232930,515,靚宅咖哩,restaurant,25.0245066,121.5428348
2252198799,32,老地方潮州肉圓,restaurant,25.2595175,121.5027388
3292774928,510,春野新派川菜,restaurant,25.0190581,121.4666203
7211522199,437,鍋貼爺爺,restaurant,25.0505521,121.5137996
4837986534,478,蝸牛義大利餐廳,restaurant,25.0300350,121.5506006
2913799586,116,爭鮮迴轉壽司,restaurant,25.1882240,121.4437253
3624471054,511,丹堤咖啡,cafe,25.0181436,121.4785756
5467994602,437,老山東牛肉家常麵店,restaurant,25.0434526,121.5057481
3603954085,640,賽德克巴萊,restaurant,24.9882387,121.4214203
6140337465,514,海賊食堂-飯麵小館,restaurant,25.0200145,121.5309012
3835325049,649,e-coffee,restaurant,24.9841948,121.5591806
6115565421,287,阿嬌檳榔,restaurant,25.1008172,121.5261184
5809052476,640,甘泉魚麵,restaurant,24.9851777,121.4270765
2514660931,214,豪記便當,restaurant,25.1299395,121.5051032
3157778765,601,Orange Tea,cafe,24.9928199,121.5416523
7211419049,404,錢嫂小吃,restaurant,25.0647781,121.5928841
3178548234,433,嘉家火雞肉飯,restaurant,25.0469879,121.4518915
3337457961,640,大伯母豆漿店,restaurant,24.9824643,121.4189843
3823837088,475,東北全麥子酸菜白肉鍋,restaurant,25.0318830,121.5043308
4486400989,400,初米咖啡,cafe,25.0603737,121.5423287
3133627742,325,LOUISA COFFEE,cafe,25.0946382,121.5237476
4198238523,438,李記食堂,restaurant,25.0514802,121.5303869
5551876521,477,天辣麻辣,restaurant,25.0308395,121.5433208
2218962060,516,六張犁饅頭店,restaurant,25.0241394,121.5557435
2933738401,138,溫州小品,restaurant,25.1716873,121.4381305
4837986368,477,貓咪先生的朋友,cafe,25.0410366,121.5465273
5564549094,455,鳳珠手工麵疙瘩,restaurant,25.0437451,121.7785380
7175334735,477,韓風館,restaurant,25.0313752,121.5461473
3979685204,555,Louisa Coffee,cafe,25.0081044,121.5138450
7175344715,187,曾記美食,restaurant,25.1411738,121.4894504
2928750801,139,博愛六號冰店,restaurant,25.1704968,121.4463999
3592589613,478,古拉爵,restaurant,25.0411508,121.5520059
3752985285,325,海友十全排骨,restaurant,25.0896954,121.5253199
3951653867,598,越南河粉,restaurant,24.9995820,121.4983509
2587937541,287,越南美食館,restaurant,25.1030115,121.5228351
4025622417,439,羅素咖啡,cafe,25.0541987,121.5346778
3181867692,476,可喜漢堡,restaurant,25.0298426,121.5293242
3723983307,515,舞豆咖啡,cafe,25.0267862,121.5436761
2643730301,353,藥燉排骨,restaurant,25.0810782,121.3886483
3232542069,368,賢爸廚房Pasta,restaurant,25.0709316,121.6089349
5935852134,364,Kirikan,restaurant,25.0798662,121.5519752
7368631812,397,滋味多健康素食,restaurant,25.0622554,121.4976141
6865327285,400,無名大腸麵線,fast_food,25.0655439,121.5381338
4464380390,648,八方雲集水餃,restaurant,24.9758478,121.5406955
6969436654,694,飯麵,restaurant,24.9680441,121.5405732
3476513432,598,素珍素食,restaurant,25.0018652,121.4988659
3328449244,597,筷子手,restaurant,24.9961155,121.4868455
7170215728,365,北平金宴餐廳,restaurant,25.0831195,121.5632469
2638283929,478,君悅排骨飯,restaurant,25.0307356,121.5614236
7002886738,437,虎次郎,restaurant,25.0459900,121.5154146
6207788273,649,芳鄰小吃坊,restaurant,24.9876767,121.5505850
7211419058,374,樂透牛排,restaurant,25.0816521,121.6964079
4838087677,437,淘客美式漢堡,restaurant,25.0464546,121.5175044
2310896580,366,89餐廳,restaurant,25.0823266,121.5792619
5189707088,479,肯德基,fast_food,25.0411198,121.5738199
2518367426,602,黑丸嫩仙草,restaurant,25.0000535,121.5533057
4082319375,400,小六生魚片動飯專賣店,restaurant,25.0594824,121.5340858
2784759535,551,蚵仔麵,restaurant,25.0058314,121.4542166
2441153354,437,巫祖胡椒餅,restaurant,25.0435598,121.5133453
4983985653,399,極鼎魚翅,restaurant,25.0578581,121.5247879
4152024789,553,築地樂樂町,restaurant,25.0056253,121.4756305
7132295107,438,Louisa Coffee,cafe,25.0557884,121.5233578
2396422146,471,三商巧福,restaurant,25.0353389,121.4493400
3424475243,598,哥基多桑,restaurant,24.9988291,121.4959088
6323106749,437,明德素食園,restaurant,25.0490022,121.5177222
4636379591,358,碶飽早午餐,restaurant,25.0791373,121.4649445
5420857031,440,稻禾烏龍麵,restaurant,25.0445010,121.5615570
5826793061,428,宥心,restaurant,25.0532565,121.3775584
7211425734,442,四海遊龍同德店,restaurant,25.0458543,121.5856318
4298941389,478,紅通通韓味鍋物,restaurant,25.0397117,121.5556145
6924533511,476,The Breakfast Shop,cafe,25.0360963,121.5272459
2618178032,353,網咖,cafe,25.0773536,121.3953217
2935765094,400,又丹新養生素食坊,restaurant,25.0606289,121.5338286
5110348807,439,旺來咖啡,cafe,25.0529157,121.5474333
4359025063,443,鬍鬚張魯肉飯,restaurant,25.0500605,121.5932258
4520207466,692,劉家沙茶魷魚羹,restaurant,24.9618096,121.5104067
4018209502,478,福來得咖啡,cafe,25.0334264,121.5589991
2124723298,439,伊通韓國料理特製麵食,restaurant,25.0508253,121.5348865
3444671439,552,懿品小珍,restaurant,25.0069383,121.4618614
2880238729,439,圓仔快炒,restaurant,25.0498596,121.5422250
3860728330,190,慈善專業便當,restaurant,25.1378094,121.5416769
4258260220,595,3Q手工粉條冰,cafe,24.9920063,121.4589803
7211425509,403,黑松熱炒,restaurant,25.0662682,121.5907070
5342423540,514,郭記牛肉麵,restaurant,25.0241370,121.5215490
5344609521,551,萬佳鄉,restaurant,25.0026045,121.4559860
2321487376,439,古佛素食,restaurant,25.0539243,121.5342685
3530737794,478,紐奧良餐廳,restaurant,25.0301675,121.5580772
4524863994,478,世田谷拉麵,restaurant,25.0399753,121.5539539
3337457973,640,嫻酥雞香雞排,restaurant,24.9837846,121.4184988
7211425513,480,雲林台子港,restaurant,25.0369794,121.5794200
4800455622,365,やよい軒,restaurant,25.0782724,121.5713994
6028851338,438,麵匠坐坊うどん,restaurant,25.0494116,121.5216739
4325693920,441,桃群客家餐館,restaurant,25.0433211,121.5629121
5114438857,506,得義洋洋義餐坊,restaurant,25.0232012,121.4128718
6279644185,439,MiaCucina,restaurant,25.0437154,121.5448010
4432068711,514,周記麵食,restaurant,25.0276028,121.5209467
5920304387,437,饗食天堂,restaurant,25.0491608,121.5173660
4384257960,476,Tino's Pizza Cafe,restaurant,25.0403134,121.5323455
4492620964,593,清田拉麵,restaurant,24.9969785,121.4208740
6180492012,599,馬修嚴選,restaurant,24.9990938,121.5112530
3465414831,599,寶神日式涮涮鍋,restaurant,24.9969133,121.5041178
7004093435,437,豪品時尚料理會館,restaurant,25.0498312,121.5125476
2935624100,394,真好味熱炒,restaurant,25.0644046,121.4594626
3323027098,593,大榮肉粥,restaurant,24.9910309,121.4256894
1994680391,596,江浙小館,restaurant,24.9945395,121.4666229
3440499383,554,川島快餐,restaurant,25.0034182,121.4960956
4344542442,248,溫州大混沌,restaurant,25.1199883,121.5115666
7194693227,145,一六一舖,restaurant,25.1672812,121.5404123
6542562822,514,MGM Pasta,restaurant,25.0164270,121.5320827
3044970033,211,尹賀日式料理,restaurant,25.1375181,121.4597942
6120710962,325,7號美髮,restaurant,25.0948504,121.5253487
5110245029,475,桃屋日本料理,restaurant,25.0303265,121.5171590
7175344645,476,犬犬家,restaurant,25.0312531,121.5272754
4044252559,139,巴黎香,cafe,25.1774794,121.4510208
3860736105,216,久久美食,restaurant,25.1372383,121.5414074
7130799921,401,究醬手作,restaurant,25.0581125,121.5547613
5563238221,595,貴族世家,restaurant,24.9955182,121.4582665
4430791894,365,德朗,restaurant,25.0751553,121.5763498
7213007971,515,滇味小廚,restaurant,25.0227841,121.5427780
4834803715,557,漫果子桌遊主題餐廳,restaurant,25.0122752,121.5352238
3860789075,593,好味水餃牛肉麵,restaurant,24.9914578,121.4230567
4340640791,366,享樂咖啡,cafe,25.0747279,121.5779541
7175344755,442,元味碳烤,restaurant,25.0458990,121.5775770
7211425763,480,香雞排鹽酥雞串烤,restaurant,25.0386896,121.5794222
4524863742,400,廣東粥,restaurant,25.0597682,121.5391067
2756655316,437,妙緣素食館,restaurant,25.0464424,121.5141024
4563725890,438,京鼎樓,restaurant,25.0550155,121.5261007
5342451422,437,龍緣號,restaurant,25.0545145,121.5144694
4440681389,398,阿婆饭团,cafe,25.0572354,121.5155495
7175344658,513,香雞排,restaurant,25.0251475,121.5129339
5303090397,478,圓桌,restaurant,25.0346354,121.5572544
2209949976,694,摩斯漢堡,fast_food,24.9680440,121.5413136
5126369649,941,太子西餐,restaurant,24.8721868,121.4076722
4838086704,399,天外天精緻火鍋,restaurant,25.0629032,121.5253997
7194693239,444,海角47號旗艦店,restaurant,25.0539217,121.6166035
2616033375,330,Pizza Hut,restaurant,25.0848724,121.5938034
2526205026,649,池上皇餉便當,restaurant,24.9874639,121.5508101
4969864553,507,九賀甲拉麵定食屋,restaurant,25.0231282,121.4249787
6090456273,325,大鵰燒,restaurant,25.0883476,121.5240579
4164587890,438,雙滿龍拉麵,restaurant,25.0516410,121.5254608
6149863585,478,元禾食堂,restaurant,25.0402738,121.5511248
4335016698,475,加州風洋食館,restaurant,25.0427497,121.5139662
3300351048,438,肥前屋,restaurant,25.0511176,121.5238430
7194693237,697,阿嬤ㄟ憨吉,restaurant,24.9674696,121.5876492
5842743660,515,22 Café,cafe,25.0259136,121.5469534
5336130021,133,彼瑞佳,cafe,25.1909882,121.6832836
3707345719,287,紅霸天碳燒薑母鴨,restaurant,25.1035188,121.5201953
7194693283,603,阿卿麵線,restaurant,24.9932945,121.5739999
5255072024,287,美吉寶,restaurant,25.1076644,121.5279531
6968628685,694,麥町吐司工坊,restaurant,24.9731713,121.5410276
7194706794,482,舊莊豆漿早餐店,restaurant,25.0392496,121.6216850
2643354068,353,好記燒臘,restaurant,25.0790035,121.3904925
3955465464,440,123烤狀元,restaurant,25.0530956,121.5608830
3751492198,405,阿助牛肉麵,restaurant,25.0683534,121.6152325
2755478367,438,老黃牛肉麵,restaurant,25.0434734,121.5249026
2473808471,514,右手餐廳新泰式定食,restaurant,25.0162515,121.5324629
2756599331,443,連成素食店,restaurant,25.0498758,121.5943102
3727033935,478,蘿蔔蹲小館,restaurant,25.0307926,121.5592711
7194693233,216,學生餐廳,restaurant,25.1356549,121.5381930
2348919653,400,沏茶園台北遼寧店,cafe,25.0570246,121.5420971
2460010000,601,肉多多火鍋,restaurant,24.9917165,121.5411070
2595510397,516,福賓川湘管,restaurant,25.0220450,121.5547711
7194707002,399,章魚太郎咖哩屋,restaurant,25.0683304,121.5224776
5098125121,478,雨日菓物 Amenohi_cafe,cafe,25.0323384,121.5606356
2799088225,433,摩斯漢堡,fast_food,25.0448171,121.4525001
3188336785,650,錦祥小館,restaurant,24.9884249,121.5651280
2579109180,439,台北泰,restaurant,25.0480749,121.5422434
2310685015,437,麥當勞,fast_food,25.0458128,121.5148980
6174028877,470,八哥正宗重慶酸辣粉,restaurant,25.0310851,121.4342011
4101264094,439,le park cafe,cafe,25.0538374,121.5420217
3465414828,599,八方雲集,restaurant,24.9970053,121.5042156
3045739870,440,紹香涮涮鍋,restaurant,25.0504537,121.5626231
7125413183,721,臻福憶川燒牛肉麵,restaurant,24.9528489,121.3517458
2706489324,301,一口酥餅鋪,fast_food,25.1083199,121.8055940
2935625602,395,雞滷飯,restaurant,25.0661706,121.4601150
5388380477,439,大和家拉麵,restaurant,25.0446476,121.5443611
7004093431,437,荷雅精緻美食,restaurant,25.0496887,121.5129984
4801327621,365,十里安,restaurant,25.0784726,121.5713675
7242261473,366,鍋博士臭臭鍋,restaurant,25.0777764,121.5778982
7211419069,374,郎家牛肉麵,restaurant,25.0817011,121.6986690
5828566282,439,天鮮手作沙拉,restaurant,25.0510288,121.5352195
4301004793,439,創義麵,restaurant,25.0434583,121.5464628
5551928250,515,丹堤咖啡,cafe,25.0254947,121.5436770
4205229673,439,海餃七號,restaurant,25.0559920,121.5458030
5564549098,455,鄉緣素食,restaurant,25.0431134,121.7770946
2676878121,477,山西刀削麵,restaurant,25.0427281,121.5477210
4031296828,439,咰賞風尚鐵板燒,restaurant,25.0531779,121.5454679
5110491049,399,長青餃子館,restaurant,25.0637674,121.5229383
5189696121,249,君悅排骨,restaurant,25.1180445,121.5261834
7194706831,325,活悅JuiceMeal素食餐廳,restaurant,25.0929572,121.5267688
6579380126,399,食客,fast_food,25.0570638,121.5272491
7211419065,479,緯大雞排,restaurant,25.0388290,121.5771866
7193346184,322,八方雲集,restaurant,25.0867350,121.4754327
2180952635,138,淡水可口魚丸,restaurant,25.1708837,121.4390240
3192047696,514,米尼司早餐吧,restaurant,25.0224019,121.5240679
6553170175,362,大埔鐵板燒,restaurant,25.0705599,121.5187005
4360380443,515,邦食堂,restaurant,25.0229358,121.5425523
1735966199,514,怡客咖啡,cafe,25.0293023,121.5187691
3044968133,211,台南東山鴨頭,restaurant,25.1368208,121.4607625
3341995426,640,熱炒重口味,restaurant,24.9820533,121.4196823
5954566285,437,乾杯列車,restaurant,25.0481404,121.5171443
6022176322,325,直火人燒肉丼飯屋,restaurant,25.0896513,121.5267031
5556070110,439,勝利號蚵仔煎,restaurant,25.0492673,121.5420684
4149564855,556,柳橙檸檬,cafe,25.0155976,121.5324868
7368631833,397,普羅鐵板燒,restaurant,25.0642037,121.4993703
4150975190,478,怡客咖啡,cafe,25.0374117,121.5545476
6462425088,441,戴記獨臭豆腐,restaurant,25.0453144,121.5703384
3670390144,478,黃 Oppa,restaurant,25.0426745,121.5546843
5906009896,388,雞排老爹,restaurant,25.0687272,121.3656474
3510640174,28,洋荳子咖啡館,cafe,25.2635134,121.6308336
3925590858,363,打餅鋪,restaurant,25.0832497,121.5464240
1941188729,363,台灣鹽酥雞創始總店,fast_food,25.0797430,121.5468640
4524863974,477,丹提咖啡,cafe,25.0371334,121.5438714
4360384149,439,Bagel Bagel Cafe,restaurant,25.0522431,121.5342383
1837919028,328,陽光廚房蔬食,restaurant,25.0839106,121.5679051
7194706728,288,熱浪島南洋蔬食茶堂,restaurant,25.0973760,121.5443515
6140337470,514,川西堂,restaurant,25.0200121,121.5316629
3953673676,440,陳家涼麵,restaurant,25.0527472,121.5608078
4837986519,439,慶城台式自助餐,restaurant,25.0527521,121.5466103
6112308588,362,草原風蒙古火鍋,restaurant,25.0835892,121.5228266
4325693465,438,嘉義火雞肉飯,restaurant,25.0435850,121.5315218
3337457979,640,快炒小吃部,restaurant,24.9826842,121.4163676
4329769537,287,金山客家小館,restaurant,25.1025420,121.5222291
7004130376,437,素食牛舌餅,restaurant,25.0455432,121.5148830
7194693256,444,阿春鵝肉,restaurant,25.0474804,121.6157405
2410161255,516,一壽養庵,restaurant,25.0269978,121.5562744
4018210620,478,菁致川湘小館,restaurant,25.0344650,121.5598895
3925604457,363,Hot Coffee,restaurant,25.0832116,121.5464249
3909253546,640,阿惠小吃,restaurant,24.9788438,121.4188116
5344605622,595,京湘園小館,restaurant,25.0022796,121.4553147
3090172252,439,蘭姥姥小吃,restaurant,25.0526178,121.5343444
4258240368,553,米哥烘焙坊,restaurant,25.0064683,121.4747010
7194693267,651,政大關東煮-秀食屋,restaurant,24.9868373,121.5786114
3270313762,476,一品山西刀削麵之家,restaurant,25.0316651,121.5294981
3722675322,359,iQueen,restaurant,25.0806172,121.4806597
3379237111,479,Belini Pasta Pasta1,restaurant,25.0356229,121.5670365
7282069387,438,全球炸雞排骨飯,fast_food,25.0553201,121.5266586
5236287230,287,囍越 越式美食,restaurant,25.1079968,121.5289357
4771231228,477,香港廣東粥,restaurant,25.0371619,121.5468712
2755629541,438,九寨川味精緻麵食館,restaurant,25.0441038,121.5214540
6695580314,471,欣味屋日式料理,restaurant,25.0329126,121.4497241
6199080667,287,晁日早餐,restaurant,25.1015985,121.5219197
3412154993,601,泰珍寶,restaurant,24.9928879,121.5435788
2993747322,115,囍燒新概念壽喜燒,restaurant,25.1806420,121.4208143
6418121450,514,Firewood Café,cafe,25.0250603,121.5223596
7175344556,515,金霸臭臭鍋,restaurant,25.0284358,121.5462521
2784761956,551,摩樂斯Mornos,restaurant,25.0105750,121.4498460
3939158001,516,北平同慶樓,restaurant,25.0241561,121.5483528
2625503722,363,胖哥雞排,restaurant,25.0796801,121.5457590
5709118736,388,巧合珍牛肉麵,restaurant,25.0593818,121.3690231
7170215727,327,鐵道便當,restaurant,25.0844800,121.5615951
7211425696,374,百福臭豆腐,restaurant,25.0817241,121.6967589
3541201094,399,漢堡王中山店,fast_food,25.0650569,121.5220143
2643644713,353,名香控肉飯,restaurant,25.0780834,121.3962094
3522835193,557,韓食村,restaurant,25.0039680,121.5384193
5714151517,437,くら寿司,restaurant,25.0456099,121.5146920
4963866776,470,名廚鐵板燒,restaurant,25.0320661,121.4338562
3612509709,399,上頂自助餐,restaurant,25.0618644,121.5316663
7211419072,404,鄰家餐廚咖啡,restaurant,25.0669922,121.5998116
3503443014,601,松竹屋平價日式食堂,restaurant,25.0020145,121.5378348
7277460643,441,司機俱樂部滷肉飯,restaurant,25.0514479,121.5698844
3098546864,330,碳烤牛排,restaurant,25.0844736,121.5956768
2958194738,138,e Coffee,cafe,25.1687052,121.4439179
2790771550,601,榮記點心,restaurant,24.9925210,121.5413723
4142798399,648,香港亨記粉麵粥飯,restaurant,24.9805770,121.5446940
3837459792,640,漢林漢堡專賣店,restaurant,24.9786071,121.4198181
4685630003,556,重順川菜餐廳,restaurant,25.0156022,121.5326165
4409721053,557,大易園,restaurant,25.0052277,121.5357546
4172945291,476,度小月,restaurant,25.0328855,121.5298886
6183794945,517,全國食養健康素食,restaurant,25.0270601,121.5637703
2470166426,648,四海豆漿,restaurant,24.9844503,121.5412639
6542562821,514,小攤,restaurant,25.0161159,121.5322758
4160651808,398,牛老大涮牛肉-承德店,restaurant,25.0660253,121.5181465
6226945430,439,Coffee.Z,cafe,25.0509814,121.5437852
3940358065,552,Osteria Vecchia Roma,restaurant,25.0050715,121.4616170
5274522821,514,活力飯,fast_food,25.0246072,121.5287019
6188996224,397,弘爺漢堡,restaurant,25.0646825,121.5021817
3198273564,474,霸味薑母鴨,restaurant,25.0327172,121.5003871
5599657102,438,星巴克,cafe,25.0539380,121.5259814
3046927847,438,Magie du levain,cafe,25.0483147,121.5327220
2558222166,514,Louisa 飲料店,cafe,25.0217749,121.5280404
3007181098,437,洪師父牛肉麵,restaurant,25.0433416,121.5075115
3035134111,214,肯德基,fast_food,25.1365858,121.5041955
5505377661,601,鮑珍腳,restaurant,25.0002527,121.5398769
2653879920,476,Rice Cafe杓文字,restaurant,25.0320019,121.5292121
4837986361,478,Street Churros,restaurant,25.0403162,121.5564315
6499715188,479,韓斤麻浦,restaurant,25.0404182,121.5669997
7169581030,440,小吉咖哩,restaurant,25.0472356,121.5550558
7212236782,437,中一素食園,restaurant,25.0447849,121.5165379
5509010397,301,大家樂牛排,restaurant,25.1071030,121.8058999
6180428006,371,水餃店,restaurant,25.0733707,121.6514737
4341360899,365,醜小鴨,cafe,25.0762365,121.5758906
2912299801,138,Tasty 西堤牛排,restaurant,25.1693978,121.4418127
4406426888,599,安平小館,restaurant,24.9951875,121.5100397
7213789584,479,老乾杯,restaurant,25.0369217,121.5666534
7211425778,480,大鮮活海鮮,restaurant,25.0395420,121.5793446
2083458281,444,水廣川精緻蔬餐廳,restaurant,25.0449548,121.6158505
3740826514,725,三重赤肉焿,restaurant,24.9602914,121.4044500
7211425514,480,雅加達早餐店,restaurant,25.0361017,121.5787216
3151325299,556,發福廚房公館店,restaurant,25.0150493,121.5325276
2917259410,399,YOGSS廚坊,restaurant,25.0575334,121.5243239
4360112903,365,AJIYA 味屋,restaurant,25.0790947,121.5731160
7213007944,515,上鼎豐小籠湯包,restaurant,25.0263361,121.5392174
6024254205,397,北港躼腳羊肉店,restaurant,25.0698036,121.4979290
5286876071,602,一芝軒,restaurant,25.0004435,121.5558989
4018209510,478,Rebel Burger,restaurant,25.0355706,121.5572770
4430883492,400,抹绿,cafe,25.0583328,121.5467568
3440912989,598,中國城粵菜餐廳,restaurant,25.0011937,121.5004147
4245896138,438,中華拉麵,restaurant,25.0438028,121.5323443
2526182359,649,手工麵坊,restaurant,24.9874159,121.5505814
7211425585,403,香津園,restaurant,25.0675063,121.5864198
2730242990,478,穗科手打烏龍麵,restaurant,25.0399967,121.5534569
7170215769,442,羊肉羹店,restaurant,25.0510279,121.5810488
6438554469,394,八方雲集,restaurant,25.0644351,121.4568339
2518367465,437,一鍋一燒,restaurant,25.0441040,121.5161402
4200643960,602,高三孝碳烤吐司專賣店,restaurant,25.0002436,121.5554102
5643534921,398,阿川,fast_food,25.0569911,121.5163707
5591399620,442,必勝客,restaurant,25.0451548,121.5814458
7004093436,437,焗工房,restaurant,25.0498914,121.5123601
6527896685,642,爭鮮,restaurant,24.9857051,121.4527148
4609687389,363,臺灣鹽酥雞創始總店,fast_food,25.0797714,121.5466252
2170903944,366,古早麵,restaurant,25.0803851,121.5791469
6024267590,185,大呼過癮臭臭鍋竹圍店,restaurant,25.1378236,121.4615409
2440534751,474,龍口蚵仔綿麵線,restaurant,25.0360719,121.5007210
4524863597,441,永和豆漿,restaurant,25.0501840,121.5764566
5551873823,477,桔梗三明治,restaurant,25.0329621,121.5409252
1281663097,400,邊田庄,restaurant,25.0596020,121.5373426
2410161250,516,家饌牛肉麵水餃,restaurant,25.0269131,121.5563623
5110490290,399,福州姑嫂麵店,restaurant,25.0573700,121.5322791
3305127261,439,義大利米蘭手工窯烤披薩,restaurant,25.0536910,121.5334803
5110348733,440,老三新埔板條,restaurant,25.0473935,121.5593575
3158793961,399,353釣蝦場,restaurant,25.0569498,121.5263689
3835345485,650,11便當,restaurant,24.9837986,121.5663822
5293223779,514,晉江茶堂,restaurant,25.0262846,121.5211123
1411751314,596,太師傅便當,restaurant,24.9960355,121.4620471
4782154746,324,LOUISA COFFEE,cafe,25.0863985,121.5094007
3682855094,510,海釣族,restaurant,25.0263417,121.4701446
3523782369,598,川味麵食,restaurant,24.9940967,121.5032490
5980548843,211,滿瀚鵝肉拉麵,restaurant,25.1256699,121.4696699
2124843060,438,漢堡王,fast_food,25.0544556,121.5253363
5201862540,325,BREMEN 不萊梅義大利麵,restaurant,25.0971109,121.5241670
3938949098,440,好樣情事,cafe,25.0445009,121.5614172
4362021797,761,三峽廟口蚵仔煎,restaurant,24.9375535,121.3701815
3938949102,556,香港亨記粉麵粥飯,restaurant,25.0156088,121.5319800
3104845927,648,1010湘,restaurant,24.9834820,121.5370096
7194706871,361,正一堂養生膳食坊,restaurant,25.0728364,121.5142018
5110348681,440,卡樂親子蔬食餐廳,restaurant,25.0494857,121.5527104
7194706919,364,奇岩一號,restaurant,25.0806092,121.5595084
7004220053,363,內行人鹽酥雞,restaurant,25.0815991,121.5462716
6176758338,694,甘泉魚麵,restaurant,24.9749869,121.5363850
7365964032,397,豪美精緻自助餐,restaurant,25.0663519,121.4985156
4302045689,408,麥當勞,fast_food,25.0655920,121.6541651
3819937637,648,金瑪莉,restaurant,24.9868991,121.5476030
2643672640,353,頂湯涮涮鍋,restaurant,25.0779412,121.3894200
4198238512,438,傳承幸福連鎖日式餐飲,restaurant,25.0512541,121.5314210
3844078809,761,帝一嶺餐廳,restaurant,24.9394101,121.3709166
7192621279,322,健康早餐,restaurant,25.0852306,121.4781291
4050767776,402,龍美園精緻川味海鮮料理,restaurant,25.0574909,121.5636738
5211474922,249,來記豆漿,restaurant,25.1120048,121.5275017
7077965351,721,滋味嘉羊肉麵,restaurant,24.9501758,121.3446352
4820634501,561,小貓咪早餐店,restaurant,25.0024025,121.6040869
4340727654,400,星巴克,cafe,25.0621411,121.5405717
7138715774,213,鹿港麵線糊,restaurant,25.1368993,121.4992635
7194706828,601,胖子炒飯,restaurant,25.0007358,121.5368591
4114512904,514,阿諾碟子,restaurant,25.0247227,121.5286750
2179732704,400,金仙魚丸店,restaurant,25.0656162,121.5395678
2526186868,649,早餐店,restaurant,24.9879156,121.5520770
7095334648,477,人从众厚切牛排,restaurant,25.0427796,121.5463266
7169581013,440,阿成川味涼麵,restaurant,25.0488772,121.5564419
3347627771,640,德記涼麵,restaurant,24.9811822,121.4194366
7169581041,440,水餃芳,restaurant,25.0533423,121.5537996
5114930867,475,豆漿,restaurant,25.0320875,121.5146537
5492422203,139,牛狀元牛排,restaurant,25.1770970,121.4477501
3416180937,598,中和咖啡樹咖啡館,cafe,24.9995825,121.4972297
1832923214,365,星巴克,cafe,25.0823274,121.5670778
3617788284,475,無名黑鐵咖啡,cafe,25.0323472,121.5068942
6533639986,479,撈王,restaurant,25.0352475,121.5660265
7311102099,475,奇岳,restaurant,25.0319483,121.5157056
2616981256,732,拿坡里披薩,fast_food,24.9605683,121.5117824
4853100766,400,寶島味牛肉麵,restaurant,25.0647978,121.5341034
6323106727,478,寶艾西餐廳,restaurant,25.0353938,121.5622884
6024237303,600,三商巧福,restaurant,24.9964791,121.5213733
5810641792,325,清粥小菜,restaurant,25.0919535,121.5274385
5198338005,762,肯德基北大店,fast_food,24.9447336,121.3739727
6242158923,602,福美阿姨的店,restaurant,24.9997108,121.5553898
5571196676,442,珍珍牛肉麵,restaurant,25.0435928,121.5810282
5564549026,444,小南港-懶人私廚,restaurant,25.0549966,121.6151807
4360388416,477,點心菊吉小廚,restaurant,25.0417916,121.5459051
3826874910,694,星巴客,cafe,24.9736490,121.5383981
5286867835,602,85度C,cafe,24.9987396,121.5583776
4298940677,478,星巴克,cafe,25.0382769,121.5554392
7211419035,336,懷恩月子餐,restaurant,25.0851996,121.6946736
5236371621,287,林姐豆花,restaurant,25.1082820,121.5284145
5477524780,439,如是山房,restaurant,25.0491723,121.5345946
3834508459,443,後壁牛牛肉麵館,restaurant,25.0554791,121.6059880
2170336299,365,摩斯漢堡,fast_food,25.0803923,121.5748027
5556123407,475,戲台茶館,restaurant,25.0351331,121.5178766
4572867289,650,滷肉飯,restaurant,24.9831821,121.5667175
6681670045,301,葵牛岩,restaurant,25.1078891,121.8067992
5151659852,388,傻師父湯包,restaurant,25.0586046,121.3679699
2822583089,366,拉亞漢堡,fast_food,25.0828624,121.5915416
7175344537,405,胡子與麵,restaurant,25.0687465,121.6166896
2473232933,515,山西刀削麵,restaurant,25.0245953,121.5428281
3699875581,444,北雲餐廳,restaurant,25.0451323,121.6157456
7213789580,479,Muchoyaki 教父牛排,restaurant,25.0366975,121.5669099
2233297927,439,正宗廣東燒臘,restaurant,25.0502781,121.5425093
7213752462,443,瓦城,restaurant,25.0525074,121.6045815
7194706995,145,頂湖山農園,restaurant,25.1737867,121.5404726
6186304791,687,韋美咖啡,cafe,24.9651359,121.4318123
3323032695,601,偵軒精緻日式小火鍋,restaurant,24.9994863,121.5395595
5110489757,399,小林海產店,restaurant,25.0617856,121.5249213
2134041106,438,摩斯漢堡,fast_food,25.0527308,121.5228259
5110348536,442,五分埔生魚片,restaurant,25.0458060,121.5808739
4384257956,514,Mary Jane's Pizza,restaurant,25.0225120,121.5277921
6024282269,510,三顧茅廬,restaurant,25.0216844,121.4668270
7365923872,397,文化素羹麵,restaurant,25.0647215,121.4991880
4314508101,593,呷冰ㄟ店,restaurant,24.9919533,121.4211639
4820442013,471,搖滾批薩PIZZA ROCK,restaurant,25.0414402,121.4457348
4426051759,396,豪美精緻全自助餐,restaurant,25.0682000,121.4866282
4510193157,249,茉莉漢堡,restaurant,25.1199433,121.5292495
4423130978,397,神戶牛排館,restaurant,25.0677027,121.4964678
5219051421,249,10吋薄脆披薩,fast_food,25.1135713,121.5271180
3208685086,555,王媽媽小吃,restaurant,25.0148954,121.5122808
3928187593,640,大腸麵線肉羹肉圓,restaurant,24.9783443,121.4160666
4018205778,478,西雅圖咖啡,cafe,25.0380421,121.5573253
2917693023,515,四面八方水餃店,restaurant,25.0226168,121.5426344
2025959763,476,正宗香港鴻運港式燒臘,restaurant,25.0369918,121.5322694
7194706746,482,鍋大娘小火鍋,restaurant,25.0418952,121.6177323
7175334781,515,滿樂鐵板吐司,restaurant,25.0281649,121.5465979
4070047129,601,兩兄弟臭豆腐,restaurant,24.9901071,121.5413332
2426176904,476,鼎泰豐,restaurant,25.0335186,121.5301015
4836631397,476,徐羅伐韓國料理,restaurant,25.0313790,121.5292582
5948089189,365,海壽司,restaurant,25.0782899,121.5687572
5562880395,474,惠安四神湯店,restaurant,25.0416589,121.5019139
6323106747,437,廣安階,restaurant,25.0489476,121.5180252
3661070225,249,星巴克振興門市,cafe,25.1176987,121.5224067
6434859442,552,Louisa Coffee,cafe,25.0117078,121.4687125
4820442549,471,呷喀滷味,restaurant,25.0375661,121.4499141
2722699061,552,瓦城泰國料理,restaurant,25.0138154,121.4608489
6433456343,437,永久號,restaurant,25.0549072,121.5113487
7175344638,476,禾欣素食,restaurant,25.0313383,121.5273271
7217108222,648,大心,restaurant,24.9762697,121.5463454
5261408527,325,新豐平價自助火鍋,restaurant,25.0871910,121.5257081
2179745337,400,85度C,cafe,25.0660660,121.5408705
7211425686,374,初飽食堂,restaurant,25.0828919,121.6960503
7153752237,439,橋下酒場,restaurant,25.0443003,121.5408818
6499848176,398,福州料理,restaurant,25.0585616,121.5113760
7115863474,469,八方雲集,restaurant,25.0328990,121.4219425
5779562123,325,福勝亭,restaurant,25.0947069,121.5248246
7130802005,401,敦厚堂會館,restaurant,25.0621974,121.5485807
3232530861,368,大久食堂,restaurant,25.0717714,121.6070054
3664676104,515,人性空間,cafe,25.0201607,121.5332953
4143947790,648,阿舍麵館,restaurant,24.9791539,121.5426512
6909123832,476,奧地利小麵包兒,restaurant,25.0311300,121.5294421
6354698705,439,路易莎,cafe,25.0453330,121.5436417
2790771436,601,孫東寶台式平價牛排,restaurant,24.9926497,121.5413594
6497915085,437,Dumpling bun,restaurant,25.0452859,121.5141623
3887820755,438,漉海鮮蒸氣鍋,restaurant,25.0496727,121.5326670
7169581012,440,高家山東餃子,restaurant,25.0488032,121.5570766
7092822480,439,Fu Cafe,cafe,25.0526173,121.5340266
2543064385,593,四海遊龍,restaurant,24.9907750,121.4228801
7368540682,397,牛井,restaurant,25.0687627,121.4988995
5924195117,601,美而美,restaurant,25.0010223,121.5426466
3149779788,471,嘉義火雞肉飯,restaurant,25.0335131,121.4501893
2896620517,433,85C,cafe,25.0486833,121.4472479
2572568038,437,三商巧福,restaurant,25.0434710,121.5074325
3579686693,482,四海遊龍,restaurant,25.0391846,121.6216437
7216240737,479,大心,restaurant,25.0344876,121.5664243
3439380034,554,香鄉早餐店,fast_food,25.0025042,121.4964814
1081855284,477,濟南路水煎包,restaurant,25.0403018,121.5333202
3044964234,211,寮國咖啡,cafe,25.1363588,121.4615429
7235632166,437,原味德里,restaurant,25.0477358,121.5178043
2193843128,439,Pasta West east,restaurant,25.0535649,121.5456040
2822549363,366,福來伯魚丸店,restaurant,25.0821519,121.5911165
6028697347,593,合緣素,restaurant,24.9935503,121.4276045
2481944775,439,老爺小花園,restaurant,25.0502967,121.5352405
3835377572,650,康迪麥早餐店(木新二店),restaurant,24.9836440,121.5680366
6981277723,646,謙益豐蔬食,restaurant,24.9875666,121.5113157
2755478335,476,藍香,restaurant,25.0398186,121.5223623
3881721636,694,陶然日式小火鍋,restaurant,24.9745346,121.5422707
7169581040,440,胖老爹美式炸雞,restaurant,25.0533130,121.5535639
2643354072,353,蒸宴小籠包,restaurant,25.0789077,121.3907702
4450921880,658,雅田居,restaurant,24.9819580,121.6911971
4598380383,432,貓咪不吃魚蔬食簡餐咖啡,restaurant,25.0503349,121.4442919
3738533126,398,明峰摃丸,fast_food,25.0617607,121.5091524
4325693889,556,12巷拉麵,restaurant,25.0156461,121.5327386
5930516383,507,大拇指海鮮餐廳,restaurant,25.0272327,121.4295821
4820442557,471,錢賀涮涮鍋,restaurant,25.0414768,121.4459183
6876041262,602,麥味登,restaurant,25.0009141,121.5496619
3377063672,515,Vitalita義式廚房,restaurant,25.0267209,121.5417431
3826769577,211,爐鍋咖啡,cafe,25.1334611,121.4713120
4417637946,557,新四海豆漿,restaurant,25.0074432,121.5377264
7211425607,480,施家麻油腰花,restaurant,25.0377456,121.5780154
3040338634,138,新菜樓小吃店,restaurant,25.1687945,121.4437536
2320552428,734,妙心蔬食館,restaurant,24.9565087,121.5341610
4601936395,437,真川味,restaurant,25.0436727,121.5046136
3104133998,439,伊藤之右衛門,restaurant,25.0528304,121.5339502
4269582542,439,凱薩西餐牛排,restaurant,25.0480886,121.5427012
2964007348,516,hot7 新鐵板料理 台北基隆路店,restaurant,25.0265154,121.5546844
3811140843,601,福隆便當,restaurant,24.9962356,121.5413124
5551870926,514,小銅板牛排,restaurant,25.0237687,121.5251754
7235632176,437,韓鶴亭,restaurant,25.0477731,121.5178113
3408985893,694,劉漣麵,restaurant,24.9622244,121.5396860
4178565998,799,八方雲集,restaurant,24.9275838,121.3754101
5875366015,475,正宗溫州大餛飩,restaurant,25.0422833,121.5058869
2638374591,511,85度C,cafe,25.0266773,121.4765812
4031296844,439,怡客咖啡,cafe,25.0555931,121.5443659
2395778681,471,雞行,fast_food,25.0337330,121.4494976
7194706937,606,柚香園,restaurant,24.9982636,121.6130232
2572568025,475,繼光香香雞,restaurant,25.0429036,121.5076019
5937238264,477,溫州大餛飩,restaurant,25.0426381,121.5435357
3004480399,516,漢堡王,fast_food,25.0243896,121.5483490
6120910446,325,拉亞漢堡 北市士商店,restaurant,25.0920825,121.5187491
4524863966,478,演樂屋,restaurant,25.0332371,121.5572516
7213007949,515,吉富早餐,restaurant,25.0260420,121.5390873
3708864438,394,晶冠食堂,restaurant,25.0639794,121.4588398
7130802010,401,皇品餐廳,restaurant,25.0582970,121.5502948
3201621179,514,牙買加倉庫,restaurant,25.0241951,121.5296806
5505377644,557,愛上愛莉早餐,restaurant,25.0024065,121.5390170
2470166878,556,泰味鮮泰式主題餐廳,restaurant,25.0155342,121.5326452
6634447986,438,李製餅家,cafe,25.0519002,121.5252419
4524863827,364,丹提咖啡,cafe,25.0809227,121.5482773
4384259213,601,銅板美食涼麵王,restaurant,24.9912885,121.5425617
4082319368,400,雀客飲,cafe,25.0594953,121.5334293
4254654855,515,巧味快餐,restaurant,25.0230406,121.5429403
5088639922,405,sushi,restaurant,25.0684937,121.6164219
7194706958,216,娃子複合式餐飲,restaurant,25.1356750,121.5381064
4155510489,513,老建中麵店,restaurant,25.0290057,121.5144134
3743063132,515,米食韓國餐廳,cafe,25.0269465,121.5396990
4149564838,514,擱再來,restaurant,25.0165453,121.5306443
5205926035,249,青柳家,fast_food,25.1182947,121.5289263
2560204368,734,99咖啡館,cafe,24.9587749,121.5373587
5645321596,388,姊妹發傳統美食,restaurant,25.0597513,121.3689064
2193828907,514,古拉爵,restaurant,25.0236976,121.5252449
7004212091,477,Power Sandwich,restaurant,25.0400775,121.5372811
3044948575,477,雨‧一人,cafe,25.0360658,121.5357207
4820442562,471,碳燒薑母鴨,restaurant,25.0388222,121.4478325
7175344773,476,一之軒信義店,restaurant,25.0333877,121.5315555
4786074682,478,Cozzi Café仁愛店,cafe,25.0371868,121.5538360
2908648158,138,鳥窩窩私房菜,restaurant,25.1692109,121.4448226
7004220054,363,將軍食堂,restaurant,25.0816429,121.5462676
7211425755,479,巨人新鐵板燒料理,restaurant,25.0357574,121.5773081
3887820868,438,蚵仔之家,restaurant,25.0478513,121.5327260
5129878329,433,炒翻天,restaurant,25.0525605,121.4545113
6917501387,437,建宏牛肉麵,restaurant,25.0474502,121.5082378
5141154647,369,美玉美早餐店,restaurant,25.0706772,121.6295240
5109347810,514,辛亥池上便當,restaurant,25.0196002,121.5301263
5551929262,557,鍋in百元風味火鍋,restaurant,25.0122975,121.5353030
4810839423,213,達美樂,fast_food,25.1331021,121.5010684
3408985593,694,淨光素食館,restaurant,24.9626568,121.5397245
2178510631,478,周董燒肉飯,restaurant,25.0319506,121.5593103
7282081089,606,金大鼎香豆腐,fast_food,25.0013270,121.6129887
3441073832,598,生猛活海鮮,restaurant,25.0011210,121.5005173
4810842022,213,樂雅樂,restaurant,25.1305340,121.4988793
6354698723,477,Lamigo拉麵,restaurant,25.0422104,121.5435324
4405357992,552,85度C,cafe,25.0030928,121.4598985
4820442533,433,COCO,restaurant,25.0430607,121.4483185
4732257213,368,蘭溪江浙菜館,restaurant,25.0710777,121.6094518
2157314993,438,店小二池上便當,restaurant,25.0549394,121.5307287
4312418437,366,派克2,fast_food,25.0802946,121.5917888
3472560493,552,上海銀鳳樓,restaurant,25.0073560,121.4597091
6268102126,648,鬍鬚張,restaurant,24.9832184,121.5410828
6027133177,439,蒜翻天鹹酥雞,restaurant,25.0560318,121.5409517
7194706916,482,華園,restaurant,25.0317302,121.6096880
4820442526,433,阿淑肉圓,restaurant,25.0432787,121.4502686
2755478352,438,大麥美而美,restaurant,25.0434365,121.5240514
7037337591,476,東門興記,restaurant,25.0350641,121.5272158
7211419029,403,鬍鬚張魯肉飯,restaurant,25.0674489,121.5904714
2918743089,437,星巴克,cafe,25.0431614,121.5047486
5110501348,249,星巴克,cafe,25.1151418,121.5275658
3731275451,762,APPLE203早午餐‧專賣店 樹林大雅加盟店,restaurant,24.9472020,121.3799285
4269582557,439,東街日式料理,restaurant,25.0528715,121.5400416
4483314296,325,士林夜市美食街,restaurant,25.0880733,121.5245167
7217108221,597,大心,restaurant,24.9975965,121.4878001
5110488710,399,Rayca Coffee,cafe,25.0602424,121.5210420
4205229677,439,眾流素食,restaurant,25.0526081,121.5403255
5219069322,249,華碩鐵板料理,restaurant,25.1150784,121.5275428
2876189534,437,良品牛肉麵,restaurant,25.0459210,121.5139011
3447832892,478,Pico Pico,restaurant,25.0341702,121.5502939
7175344583,368,阿裕蚵仔大腸手工麵線,restaurant,25.0749734,121.6169374
6389111652,324,延平牛肉麵,restaurant,25.0895895,121.5068602
2456412702,439,手抓飯,restaurant,25.0472988,121.5420706
3044970133,211,鐵路便當,restaurant,25.1375816,121.4597897
5267957625,552,板橋凱撒大飯店,restaurant,25.0115596,121.4624964
7194706801,697,貓空茶言觀舍,restaurant,24.9673192,121.5875873
6375243481,365,八方雲集,restaurant,25.0827007,121.5676980
2618749466,187,粟家牛肉麵,restaurant,25.1385969,121.4993375
7175344543,441,阿呂叔叔炸物專賣店,restaurant,25.0441142,121.5719168
4449757838,438,赤宴日式燒肉,restaurant,25.0513415,121.5205290
3830586057,514,左巴好室好事,restaurant,25.0195937,121.5325084
6600388718,439,上林甸自助餐,restaurant,25.0536190,121.5448554
3688113978,762,韓一美食館,restaurant,24.9439039,121.3739221
2376924761,440,茶味先,restaurant,25.0430507,121.5557667
7175344520,368,小約翰手工薄餅披薩,restaurant,25.0730872,121.6187924
3716543697,351,圓香紅豆湯、冰,restaurant,25.0752901,121.3649760
743173507,514,雪可屋咖啡茶館,cafe,25.0189011,121.5326867
2300663051,330,卡拉拉鍋物,restaurant,25.0842773,121.5960866
7175344664,368,東湖阿雲油飯,restaurant,25.0702708,121.6191074
5108743096,601,麥味登,restaurant,25.0017526,121.5392644
4097540389,478,杜老爺,restaurant,25.0349032,121.5515146
5198337986,762,慢思 Amour.Sacrifice,restaurant,24.9432553,121.3726924
4502075209,139,Neko Bus 咖啡廳,cafe,25.1768771,121.4497695
6571077021,515,牛莊園牛肉麵,restaurant,25.0283381,121.5468085
5636854988,549,刺丼,restaurant,25.0154948,121.4259525
868325300,405,樂雅樂,restaurant,25.0571098,121.6158849
4069716696,441,香港大家好港式粥粉麵飯,restaurant,25.0503244,121.5640847
4646613791,367,Triple café,restaurant,25.0832389,121.6041547
3673009085,548,早點子早餐店,restaurant,25.0097090,121.4126062
6871573260,478,MB南洋料理,restaurant,25.0397730,121.5535551
3361477815,499,日久阿羅哈漢堡朝陽店,restaurant,25.0388431,121.8663646
3835331347,649,中式早餐店,restaurant,24.9879343,121.5538615
3924746803,475,元味古早小吃,restaurant,25.0342750,121.5077028
6515952569,248,竹苑素食餐廳,restaurant,25.1171838,121.5169813
4330721790,437,八方雲集,restaurant,25.0503001,121.5166407
3150714487,470,魯肉張魯肉飯,restaurant,25.0426224,121.4448332
4328118622,601,253鮑魚海鮮粥麵,restaurant,24.9951524,121.5414146
3304641861,440,東坡涵舍,restaurant,25.0469481,121.5493211
5110489245,438,米朗琪咖啡館,cafe,25.0531581,121.5210964
3704216326,438,甘記蕃茄刀削麵,restaurant,25.0535524,121.5321791
5845316857,515,辛川屋,restaurant,25.0249608,121.5456308
2473809877,514,泰皇小館,restaurant,25.0169213,121.5308162
7031800545,479,Eat國際館,restaurant,25.0410306,121.5766865
3860234563,601,帝王食補薑母鴨,restaurant,24.9983451,121.5447877
7130233214,506,云盛豆漿,fast_food,25.0181796,121.4090755
1839317299,365,瓦城,restaurant,25.0819895,121.5663255
6694180172,473,江翠小館,restaurant,25.0325663,121.4753105
6242158971,558,拉亞漢堡,restaurant,25.0033328,121.5559289
6074032340,325,塔羅咖啡,cafe,25.0900978,121.5233934
4325694220,438,麵足飯飽,restaurant,25.0435194,121.5317413
4620367397,364,珍有福,restaurant,25.0802273,121.5522093
7175344686,211,晴光意麵,restaurant,25.1282272,121.4687034
4524864056,439,haritts,cafe,25.0512118,121.5455924
5391627486,437,兔子兔子美式餐廳,restaurant,25.0446907,121.5166751
2341947845,514,小飯廳,restaurant,25.0171742,121.5325554
4244320590,351,小瓦罐煨湯館,restaurant,25.0703514,121.3575734
7153752239,477,名家早餐店,restaurant,25.0410834,121.5410131
5961011012,388,吉米廚房,restaurant,25.0663585,121.3616544
3665505125,476,銀咖哩,restaurant,25.0310107,121.5295556
5211553421,249,小波蘿複合式餐飲,restaurant,25.1119895,121.5286253
6720844020,438,Ita Cham Caffè,cafe,25.0438899,121.5278834
3860789085,593,一品堂,restaurant,24.9914663,121.4226761
5098115723,479,Nathalie Lete娜塔莉台北店,cafe,25.0427760,121.5660673
4108971710,439,LoCo FooD,fast_food,25.0525865,121.5388323
569951361,478,星巴克,cafe,25.0316247,121.5610251
4895706631,556,初牛炭火直燒丼飯專賣店,restaurant,25.0152138,121.5322319
4927308721,438,馬太郎燒肉,restaurant,25.0503851,121.5221920
2928687903,139,八番日式燒肉,restaurant,25.1697659,121.4460884
7175344554,441,生蠔哥,restaurant,25.0503738,121.5733561
3881540631,437,咕咕香酥雞蛋糕,restaurant,25.0452659,121.5160473
6435865870,439,Again Cafe,cafe,25.0458931,121.5443417
3196847501,439,樺樣自助餐,restaurant,25.0483081,121.5465387
3867794087,439,30年老店豆漿燒餅,restaurant,25.0534500,121.5345837
5666895651,399,學餐:早餐店,restaurant,25.0659992,121.5218228
3731616067,601,福州陽春麵,restaurant,24.9976854,121.5480274
3663419722,437,紅廚 排骨飯 牛肉麵,restaurant,25.0508449,121.5176594
4198238558,438,麒麟極品豬腳,restaurant,25.0514794,121.5304535
2614409518,598,我家牛排,restaurant,24.9965227,121.4908768
3851242948,601,丹堤咖啡,cafe,24.9995736,121.5478006
2643672664,353,正宗包子,restaurant,25.0788746,121.3885858
5843826585,402,極蜆,restaurant,25.0592498,121.5662205
4524344004,648,路易莎,cafe,24.9833651,121.5376626
2328249399,475,鬍鬚張魯肉飯,restaurant,25.0311499,121.5171267
6191479260,215,察爾斯廚房,restaurant,25.1294079,121.5278410
7175344594,477,安娜法蘭法式蔬食,restaurant,25.0350469,121.5372898
4838087767,474,旺都涮涮鍋,restaurant,25.0321330,121.5006255
2784761337,551,兩隻貓咖啡店,cafe,25.0095247,121.4565306
1837963998,366,三媽臭臭鍋,restaurant,25.0819554,121.5781184
7175344660,442,苦茶之家,restaurant,25.0480641,121.5794655
6323106738,437,紅色檳氛,restaurant,25.0494894,121.5173493
5950309181,365,開丼,restaurant,25.0810531,121.5705688
5110348591,516,多麼咖啡,cafe,25.0259067,121.5508345
5308335056,352,油桐花客餐,restaurant,25.0811283,121.3826367
2441162170,437,艾樂屋,restaurant,25.0444594,121.5133411
2912270713,138,愛烤愛對囉 淡水店,restaurant,25.1704040,121.4444654
3781714013,741,海倫咖啡,cafe,24.9519024,121.6460671
2949195372,601,池上木片便當,restaurant,24.9992731,121.5439074
6159039441,477,一路,cafe,25.0326638,121.5381841
3837332689,640,尚弘早餐店,restaurant,24.9814434,121.4242079
3699875583,444,珍香鍋貼專賣店,restaurant,25.0448806,121.6158977
3959169085,762,舞子拉麵二代,restaurant,24.9468424,121.3737618
7175344498,442,阿花魷魚羹 羊肉羹,restaurant,25.0461204,121.5782373
7153752235,439,麻舖子,restaurant,25.0443811,121.5420065
5458657201,438,吃了没,restaurant,25.0548515,121.5240515
6153748454,478,聚川園餡餅粥,restaurant,25.0305309,121.5515918
7194707011,364,叁和院 台灣風格飲食,restaurant,25.0826985,121.5592369
7320973057,437,勝十蘭,restaurant,25.0449053,121.5161785
7175344639,512,四海春餃子館,restaurant,25.0225935,121.4979675
4713024790,438,Hello Kitty主題餐廳,restaurant,25.0442020,121.5304792
4737705385,367,溢香園,restaurant,25.0741752,121.6061027
2340183168,515,四海遊龍鍋貼專賣,fast_food,25.0179506,121.5403434
4725956629,480,均合素食點心坊,restaurant,25.0372175,121.5813520
4325694205,438,銀記港式小炒,restaurant,25.0435586,121.5314439
7175344706,192,大鼎現炒山菜,restaurant,25.1392413,121.5712760
3379237103,479,California Pizza Kitchen,restaurant,25.0349085,121.5672538
5198337990,762,怡蘭扁食,restaurant,24.9429876,121.3725237
3722705746,515,小地方,restaurant,25.0273394,121.5400320
7063481729,440,Stay Real Cafe,cafe,25.0431071,121.5505135
2607298692,443,摩斯漢堡,fast_food,25.0502104,121.5939128
2618190381,643,清心福全,cafe,24.9815842,121.4596374
4544904389,438,聚北海道昆布鍋,restaurant,25.0517609,121.5306957
2755478346,476,鍾國雲吞料理,restaurant,25.0395900,121.5223460
4230090490,514,靜壽司,restaurant,25.0158951,121.5327200
4031297499,400,請徑咖啡,cafe,25.0576572,121.5418119
4085142319,595,鍋小寶,restaurant,24.9961448,121.4513446
7211425779,555,大衛廚房,restaurant,25.0150089,121.5124386
3337457968,640,雙醬咖哩 樹林店,restaurant,24.9835172,121.4182814
3784153298,249,CA rolls,restaurant,25.1145865,121.5321039
5593519821,325,淘客美式漢堡,fast_food,25.0953253,121.5265983
7215611823,507,一覺元味,restaurant,25.0216296,121.4243691
2726480265,552,麥當勞,fast_food,25.0140182,121.4666244
3786348248,514,粥粥頌廣東粥,restaurant,25.0169490,121.5323485
7211419061,374,賜花創義食堂,restaurant,25.0818781,121.6990579
6995661044,437,和洋食堂,restaurant,25.0469854,121.5170715
4170163089,399,八八珈琲,cafe,25.0677586,121.5243974
3909253728,640,松如素食自助餐,restaurant,24.9797718,121.4184113
4340641489,366,內湖上海湯包,restaurant,25.0746853,121.5780267
7170215702,397,尻食堂中華料理,restaurant,25.0637121,121.5025630
3667682564,602,永和豆漿,restaurant,25.0014595,121.5532052
5551681023,402,六順豆花,restaurant,25.0587310,121.5660897
5198337998,762,親樂鍋,restaurant,24.9425167,121.3732632
3270665672,399,原味湯廚,restaurant,25.0572336,121.5204651
4007811654,601,路邊攤日式小吃,restaurant,24.9893382,121.5421940
6024232291,648,哈克早餐店,restaurant,24.9851348,121.5409967
6408076686,213,阿輝伯蘿蔔絲餅,restaurant,25.1323815,121.5011804
4524864535,516,丹提咖啡,cafe,25.0223076,121.5549618
5916558934,388,品撰道,restaurant,25.0591918,121.3703010
4043569616,371,繆斯人文咖啡館 muses caffe,cafe,25.0726829,121.6616351
1837857040,327,來來豆漿,restaurant,25.0845438,121.5614406
5108706580,648,復興精緻早午餐,restaurant,24.9869176,121.5389145
2563901896,648,水上鮮,restaurant,24.9830011,121.5353728
4524864052,477,吉野家,restaurant,25.0329361,121.5433666
3903968595,475,韭菜包,restaurant,25.0380883,121.5066700
5110348547,441,香港豪記燒臘,restaurant,25.0502138,121.5715080
6202943437,359,八方雲集,restaurant,25.0775236,121.4853537
2633889228,439,彌敦道茶餐廳,restaurant,25.0529826,121.5339466
2163466091,399,85度C,cafe,25.0599908,121.5303909
4634426014,515,聞山咖啡,cafe,25.0205160,121.5334542
7004215987,477,Mianto 艾果豐,restaurant,25.0390111,121.5415978
2357128241,602,兄弟麵館,restaurant,24.9996599,121.5549686
7004093430,437,昇興食品坊,restaurant,25.0494335,121.5133019
7211522200,437,後車站六洲麵線,restaurant,25.0498335,121.5145848
3881536256,437,肥老闆,restaurant,25.0442974,121.5161412
3419805453,551,酒肉朋友創意居酒屋料理板橋店,restaurant,25.0050576,121.4565444
7008579985,555,苦瓜蕃茄排骨麵紅油抄手,restaurant,25.0085653,121.5078368
7194706797,444,尚美,restaurant,25.0539522,121.6161368
4314326425,367,漢林美而美,restaurant,25.0799321,121.5952631
6182991537,434,頭前國小好吃炸雞,restaurant,25.0527434,121.4663378
3732188577,477,2J CAFE,cafe,25.0309109,121.5383444
2307723060,650,麥當勞,fast_food,24.9887126,121.5665754
2966348977,406,素食,restaurant,25.0685096,121.6297524
6418799559,555,Buffet,restaurant,25.0130230,121.5106350
5884543609,477,摩斯漢堡,fast_food,25.0340669,121.5460771
2642374328,405,餡老滿,restaurant,25.0573347,121.6163568
4426134965,507,KFC 肯德基,fast_food,25.0235034,121.4257378
2621124072,694,響宴,restaurant,24.9709605,121.5427873
4820442016,433,曲尼的公園PICNIC,restaurant,25.0434407,121.4526499
5222741236,287,萊義客,restaurant,25.1043261,121.5212518
2917574238,433,知味滷肉飯,restaurant,25.0499490,121.4582539
4085016845,439,一軒古早麵,restaurant,25.0528643,121.5351145
3270313861,476,永康肥鰻屋,restaurant,25.0315637,121.5294673
2643718629,352,KUNG FU TEA,restaurant,25.0759924,121.3856747
2932688826,138,吳家阿給蛋餅,restaurant,25.1724567,121.4426421
4847249822,476,鼎元豆漿,restaurant,25.0314171,121.5210174
7193346166,322,鴨肉富,restaurant,25.0862941,121.4795016
3732187929,514,極簡咖啡,cafe,25.0256044,121.5295747
4018206191,437,南施咖啡,cafe,25.0530794,121.5135597
5110489813,399,德惠鵝肉日式,restaurant,25.0601779,121.5251511
6316855688,439,林東芳牛肉麵,restaurant,25.0472211,121.5430479
3835318451,649,Apple Tree,restaurant,24.9817511,121.5590719
5263764450,513,瑞麟美而美,restaurant,25.0279364,121.5145450
3929888401,601,湯媽精緻小火鍋,restaurant,24.9936596,121.5447093
4298897609,437,NOTCH Cafe Bending,cafe,25.0453669,121.5133541
7170215759,442,味珍香異國風味小棧,restaurant,25.0534680,121.5881402
7211425500,480,新亞鐵板燒,restaurant,25.0356855,121.5776423
4820442574,432,鴨肉麵,restaurant,25.0436559,121.4446627
6681320999,438,對面,restaurant,25.0440098,121.5256870
7194706894,367,八方悅鍋物內湖AIT店,restaurant,25.0789242,121.5982240
4524863826,364,大直粥品,restaurant,25.0807322,121.5480869
3426316145,555,吉野家 中和永安店,restaurant,25.0028797,121.5114349
5739420390,556,招牌鴨肉飯,restaurant,25.0125380,121.5193328
6679978785,515,牛莊園蔬果湯頭牛肉麵,restaurant,25.0283255,121.5467667
3341995467,640,紫米粥,restaurant,24.9827202,121.4224911
7175344779,476,朱記餡餅粥店,restaurant,25.0326015,121.5293741
2947929882,399,大眾牛肉麵,restaurant,25.0673079,121.5257313
4144499871,648,大埔鐵板燒,restaurant,24.9830592,121.5430584
2446558825,437,丹堤咖啡,cafe,25.0436083,121.5131073
4820634502,561,傳說中的店小二,restaurant,25.0023592,121.6041904
7095347139,440,老作田居酒屋,restaurant,25.0436920,121.5480538
6720844035,398,Sugar Café bar,cafe,25.0568350,121.5107815
7175334730,477,展翔早餐吧,restaurant,25.0312158,121.5479454
3826769575,211,藝大咖啡,cafe,25.1332446,121.4703718
6389111677,324,稻之鄉清粥自助餐,restaurant,25.0889378,121.5097650
5109347762,514,牛魔王牛排館,restaurant,25.0247886,121.5293726
2572568047,437,干輝鵝肉店,restaurant,25.0431786,121.5069534
4769570727,365,春水堂,restaurant,25.0803163,121.5677284
4307554240,248,老眷村北方點心,restaurant,25.1167608,121.5157642
2462876032,601,麥當勞,fast_food,24.9922503,121.5424378
6117585607,325,美之宴,restaurant,25.0848485,121.5221976
3835339689,650,尚品早餐店,restaurant,24.9840297,121.5686048
2618674811,211,頂呱呱,restaurant,25.1373585,121.4602815
873134180,443,麥當勞,fast_food,25.0543716,121.6055270
3441073842,598,觀音素食店,restaurant,25.0007806,121.5009948
3937248401,762,香港好棧燒臘小廚,restaurant,24.9428200,121.3793606
2784773048,551,老功夫包子,restaurant,25.0084497,121.4502865
2928687904,139,大叔年糕,restaurant,25.1696627,121.4463000
4837986394,438,魷魚羹專賣店,restaurant,25.0474370,121.5326892
5205497021,287,咖博館,cafe,25.1100929,121.5256384
6542562814,514,打勾勾,cafe,25.0165170,121.5306035
4937748627,301,豐味肉羹,restaurant,25.1067374,121.8055398
7175344743,186,老麥麵店,restaurant,25.1384959,121.4855929
7001356662,396,美濃牛肉麵,restaurant,25.0612704,121.4833161
4312433356,366,夯麵坊,restaurant,25.0802612,121.5907016
3316663083,601,陶媽溫州大餛飩,restaurant,24.9904110,121.5394804
4737386239,694,摩斯漢堡,fast_food,24.9717084,121.5412870
3031393434,138,老店阿給魚丸,restaurant,25.1696764,121.4413971
4524863654,516,香港龍華燒臘店,restaurant,25.0288629,121.5614207
2526186860,649,老娘米粉湯,restaurant,24.9879243,121.5522205
3503443034,514,魯米爺咖啡館,cafe,25.0184360,121.5326269
5892708085,439,和茗甘味處,cafe,25.0439086,121.5474043
3959167644,762,三峽冰鎮 北大店,restaurant,24.9478902,121.3741094
4431007691,513,艸蘊,cafe,25.0268395,121.5183290
6130569330,440,溫州大餛飩,restaurant,25.0518318,121.5546731
4452847792,731,食來運轉快餐店,restaurant,24.9489499,121.4954436
3590079693,694,福勝亭,restaurant,24.9714288,121.5420397
4937891814,479,吉豚屋,fast_food,25.0396145,121.5658423
4524863978,477,秋吉事串燒,restaurant,25.0418643,121.5413055
3854090983,321,早餐店,restaurant,25.0879107,121.4668283
7175344546,512,阿明綜合羹麵線,restaurant,25.0190054,121.5012893
4794561821,437,Pasta Bar,restaurant,25.0433065,121.5073231
7130799961,401,天天米香,restaurant,25.0578410,121.5520016
4736038678,367,老上海麵館,restaurant,25.0729161,121.6061187
1837971853,366,真味肉圓,restaurant,25.0805122,121.5791162
7004220048,363,大直肉圓,restaurant,25.0811461,121.5462676
4202524082,439,星聚點1號鐵板燒餐廳,restaurant,25.0484180,121.5443136
7004093439,437,Lingos義大利美食餐廳,restaurant,25.0498831,121.5119487
5048161958,187,原燒,restaurant,25.1417205,121.4994593
7365964043,397,中華飯包,restaurant,25.0658441,121.4986755
5562880396,474,阿丁自助餐,restaurant,25.0416547,121.5017855
7211425619,480,林家羊肉羹,restaurant,25.0372473,121.5791383
5961011011,388,丸虎小館,restaurant,25.0663263,121.3616540
7365964025,397,水煎包小籠包,restaurant,25.0655821,121.4987687
5699180232,477,享樂咖啡,cafe,25.0324581,121.5437865
7211425603,403,津城鴨肉羮,restaurant,25.0689000,121.5874066
2642374337,444,烤鴨,restaurant,25.0551332,121.6152170
2410134964,437,山珍海味自助餐,restaurant,25.0453295,121.5085143
5736948101,514,銀座越南美食,restaurant,25.0159440,121.5320539
2886968702,473,台灣魯肉飯,restaurant,25.0304735,121.4762753
5344609523,551,麥味登,restaurant,25.0025235,121.4558483
5179812921,325,熊吞日式炭火燒肉胴飯,restaurant,25.0964599,121.5255617
4820442530,471,土羊肉,restaurant,25.0424547,121.4476637
7211952420,478,STARBUCKS,cafe,25.0417213,121.5515053
3248801017,476,DeRoot,cafe,25.0406739,121.5325598
5110348593,478,臭臭鍋,restaurant,25.0312790,121.5589153
4018209441,248,都柏林台式自助餐,restaurant,25.1184743,121.5178944
3216077275,476,花俊簡餐咖啡,restaurant,25.0305291,121.5284234
4236823717,476,大來小館,restaurant,25.0301336,121.5286385
4298941390,478,老乾杯,restaurant,25.0399084,121.5554166
2925738231,139,福勝亭,restaurant,25.1690397,121.4454661
3510217395,400,GaBee.咖啡店,cafe,25.0592053,121.5462393
6182991547,433,石二鍋,restaurant,25.0492681,121.4483631
5110348821,478,NOLA Kitchen,restaurant,25.0301676,121.5580407
6024285866,510,義大利麵,restaurant,25.0205447,121.4656268
7138715769,213,早安勇士,restaurant,25.1364130,121.5007305
2302529896,330,黑豬肉胡椒餅,restaurant,25.0839906,121.5954513
7211425535,444,尊上食坊,restaurant,25.0554195,121.6144511
3860789079,593,佳味園便當,restaurant,24.9915403,121.4227718
4196534991,440,春水堂,cafe,25.0513534,121.5574303
7194706892,444,飲飽食醉,restaurant,25.0463081,121.6153065
3341995479,640,巨林美而美,restaurant,24.9831326,121.4232686
7175344596,368,萬佳鄉,restaurant,25.0730560,121.6191272
7095347124,478,ABRAZO Bistro,restaurant,25.0423805,121.5485179
4360380440,515,義式鄉村料理,restaurant,25.0244641,121.5428258
6090413800,325,都蕾咪蛋糕,restaurant,25.0881822,121.5234723
2625503736,363,清新福全冷飲店,restaurant,25.0797286,121.5463893
4043625917,601,祖傳牛肉麵,restaurant,24.9901117,121.5411328
4837986421,516,花麻辣,restaurant,25.0225627,121.5501762
6572627304,693,享初牛台南溫體牛,restaurant,24.9742023,121.5297740
7211425735,443,四季傳香湯滷味,restaurant,25.0498102,121.5938570
7213752468,479,瓦城,restaurant,25.0345396,121.5662339
2203268917,734,原住民不滿族香腸,restaurant,24.9562559,121.5349085
7037347321,437,新醉紅樓菜館,restaurant,25.0528897,121.5133098
6394056930,479,GYUU NIKU ステーキ專門店,restaurant,25.0404485,121.5752691
3349564653,360,85度C,cafe,25.0821140,121.4893074
3981536780,365,鬍鬚張魯肉飯,restaurant,25.0758353,121.5760824
7130802040,400,白暮蛋餅先生,restaurant,25.0610863,121.5474401
5110348555,441,鬍鬚張,restaurant,25.0515838,121.5644804
2657117842,404,云喬餐廳,restaurant,25.0682446,121.5954919
2643730306,353,汶臻牛肉麵,restaurant,25.0813017,121.3888253
3177945379,433,嘉義雞肉飯,restaurant,25.0490504,121.4499312
6871573236,602,樂咖屋牛肉麵,restaurant,25.0011851,121.5506986
7004274054,187,火鍋世家,restaurant,25.1380525,121.5029325
3840857818,438,台南阿輝炒鱔魚,restaurant,25.0555178,121.5303248
3706324839,478,(楊)永和豆漿,restaurant,25.0334167,121.5573097
7365964040,397,瓦城泰國料理,restaurant,25.0653317,121.4970913
2676285180,437,蛙咖啡,cafe,25.0540951,121.5104076
7175344578,249,332肉羹,restaurant,25.1223736,121.5242925
3740826738,725,東園小吃店,restaurant,24.9601246,121.4019411
3835345488,650,景文快餐便當,restaurant,24.9840786,121.5663659
7037337594,476,東門餛飩豬腳,restaurant,25.0346345,121.5270195
4043625905,601,嘉賓鐵板燒,restaurant,24.9893952,121.5414424
3007181095,437,美觀園,restaurant,25.0434442,121.5065422
4524863590,477,舒旅築旅,restaurant,25.0352599,121.5457791
7170215778,442,派克脆皮雞排,restaurant,25.0483202,121.5794019
2143411214,213,吳家牛肉麵,restaurant,25.1362876,121.4971395
2984046408,444,孫媽媽牛肉麵,restaurant,25.0450847,121.6157638
7175344631,515,木子日青,restaurant,25.0283013,121.5469085
4836653410,325,寶屋壽洗燒,restaurant,25.0949304,121.5258640
2845924725,552,齊味麻辣火鍋,restaurant,25.0109859,121.4620293
3854472474,557,喫ㄤ平價鐵板燒,restaurant,25.0137794,121.5342150
2152782067,398,賣麵炎仔 金泉小吃店,restaurant,25.0609871,121.5098148
5505377673,601,大腸麵線,restaurant,24.9990436,121.5395910
7211419075,374,漁壽司,restaurant,25.0829330,121.6993188
4328118409,479,Quiznos,fast_food,25.0411950,121.5689997
2950843062,398,伯朗咖啡,cafe,25.0660586,121.5138713
5608409021,287,永和豆漿,restaurant,25.0972004,121.5239183
6155600451,648,首都烘培餐廳,restaurant,24.9809488,121.5415254
7368631823,397,大盤子涮涮鍋,restaurant,25.0622383,121.4982643
2592662810,433,真好味熱炒,restaurant,25.0543927,121.4513019
5982354385,439,Louisa Café,cafe,25.0482661,121.5466496
7130799983,401,Snail 蝸牛義大利餐廳,restaurant,25.0570647,121.5521491
4492620958,593,茶自點,cafe,24.9970821,121.4211189
7211425743,374,加寶多早餐店,restaurant,25.0806749,121.6962385
7170215787,441,雅加達早餐店,restaurant,25.0466554,121.5768480
3097274206,601,三馫麵飯館,restaurant,25.0002501,121.5389570
6879125186,598,熊飲鮮茶,cafe,25.0002297,121.4976755
7194706870,444,麥多多早餐店,restaurant,25.0531764,121.6172979
5248371924,325,巧果子,restaurant,25.0970637,121.5219278
3981536199,366,呼搭啦,restaurant,25.0711666,121.5820980
3278448287,639,巷內早餐店,restaurant,24.9826427,121.4151250
6130126780,555,伯朗咖啡,cafe,25.0042020,121.5174184
3022591204,444,佛跳牆,restaurant,25.0513116,121.6156476
7211425727,480,正港魯肉飯,restaurant,25.0390735,121.5787622
4809532029,476,鼎元豆漿,restaurant,25.0314056,121.5209989
4329769296,601,鴻珍中式早點,restaurant,24.9965828,121.5475344
2918523768,365,菠啾花園,restaurant,25.0727428,121.5746249
4834761763,557,晨時早餐,restaurant,25.0036397,121.5376625
4792433225,723,味亦美速食餐飲連鎖,restaurant,24.9492925,121.3854869
7191634539,322,車站腿庫飯,restaurant,25.0862987,121.4797374
7175344649,477,幸福麵食餃子館,restaurant,25.0326446,121.5393916
6843954135,551,炒飯製研所,restaurant,25.0042586,121.4575779
7037337603,437,品麻辣豆腐鴨血專賣店,restaurant,25.0468936,121.5147994
5892704987,478,大腕燒肉,restaurant,25.0429664,121.5503861
5110488945,439,U Restaurant,restaurant,25.0517157,121.5375571
5698897032,477,沐越,restaurant,25.0425153,121.5435465
4365765490,72,福華海鮮餐廳,restaurant,25.2200603,121.6420409
6037158529,514,漢堡王,fast_food,25.0230283,121.5281050
3066154634,138,娜莎冰淇淋,restaurant,25.1700750,121.4390322
5556152824,474,萬華千層燒餅,restaurant,25.0322778,121.4996772
4483350790,325,大餅包小餅,restaurant,25.0883195,121.5238175
7170215594,402,Mo-Mo-Paradise,restaurant,25.0629153,121.5757759
4552754840,556,小公館,cafe,25.0157151,121.5326181
5344586026,551,八方雲集,restaurant,25.0038571,121.4575778
7217271842,437,福祿屋和食拉麵,restaurant,25.0471494,121.5142903
6026986080,439,麥可早餐,restaurant,25.0559462,121.5406063
6499848154,398,Station 26,cafe,25.0576104,121.5106254
5189829121,249,麥香美早餐店,restaurant,25.1191377,121.5275038
5505111981,388,嘉豐小館,restaurant,25.0589820,121.3688016
7194706703,603,新光路無名麵攤,restaurant,24.9893258,121.5739104
6323106745,437,晶湯匙,restaurant,25.0491833,121.5182036
7296140885,364,潮粵坊,restaurant,25.0805073,121.5536302
3232553461,405,Pizza Hut,restaurant,25.0686958,121.6125911
5551876336,514,讚岐烏龍麵-米澤製麵,restaurant,25.0230940,121.5251196
3938929546,437,黔園川菜小吃館,restaurant,25.0440822,121.5038372
3923847439,515,Casa del Fresco,cafe,25.0243952,121.5373242
4822517224,138,之間-茶食器,restaurant,25.1730171,121.4361870
7169581018,440,太妃鍋,restaurant,25.0493210,121.5549661
4524200089,639,南法小鎮,restaurant,24.9828446,121.4128127
3835835234,362,永和豆江,restaurant,25.0833582,121.5193193
6389111647,324,東鎮巴巴涮涮鍋,restaurant,25.0890119,121.5080173
5593500924,325,project 0.1,restaurant,25.0956233,121.5288080
5286867830,602,粥神,restaurant,24.9984891,121.5586388
5110489016,475,TAKU日式串燒,restaurant,25.0418641,121.5138883
2579109207,439,陳陽鵝肉大王,restaurant,25.0439211,121.5465903
4227950893,304,九份觀海樓,restaurant,25.1078162,121.8431100
6129972003,398,好杯咖啡,cafe,25.0657385,121.5173730
4105656290,552,阿國麻辣麵線,restaurant,25.0072597,121.4607714
5530836721,479,Cook Beef Steak rice bowl,fast_food,25.0412895,121.5660870
6024229164,599,Pizza ROCK,restaurant,24.9999928,121.5177329
4838087727,398,佳興魚丸店,restaurant,25.0592610,121.5106516
5677571417,271,古山星辰親子咖啡廳,cafe,25.1022651,121.2896265
6004162501,325,家湘涼麵,restaurant,25.0893420,121.5250475
3810288171,438,義麵坊華山小酒吧,restaurant,25.0436517,121.5305821
3355966393,371,PHO牛肉河粉,restaurant,25.0734421,121.6622748
7194706953,361,小里子海鮮,restaurant,25.0730262,121.5145438
4307554226,248,牛董牛肉麵,restaurant,25.1145887,121.5150465
3415880875,598,美而美,fast_food,24.9975477,121.4981189
5110489019,399,八方雲集,restaurant,25.0651581,121.5241938
2392237977,400,品鍋臭臭鍋,restaurant,25.0612381,121.5350050
3490446900,598,滷大王滷味-逢甲香香雞,restaurant,24.9969139,121.4970399
3924758130,475,小南門福州傻瓜乾麵,restaurant,25.0354151,121.5078157
2899366918,444,台灣傳奇小吃,restaurant,25.0524244,121.6163300
4524863751,437,熊一火鍋,restaurant,25.0436058,121.5062563
3878436861,474,陳記專業蚵仔麵線,restaurant,25.0351841,121.4981891
7175344718,479,俐香自助餐,restaurant,25.0403366,121.5774168
6433456334,437,黑點雞肉食堂,restaurant,25.0538317,121.5130790
2672730342,514,蠶居,restaurant,25.0184157,121.5315221
4200643108,602,瑞麟美而美,restaurant,25.0022001,121.5483716
5274522921,438,快、食、尚,restaurant,25.0525080,121.5223265
4018210617,478,君悅排骨,restaurant,25.0380324,121.5571894
7216240729,479,大心,restaurant,25.0405834,121.5654615
7175334759,513,HS哈燒小食堂,restaurant,25.0267989,121.5107458
3923847450,515,小公園牛肉麵,restaurant,25.0278427,121.5406228
7004297800,437,御廚房,restaurant,25.0522194,121.5099411
569950704,478,Honey Pig,restaurant,25.0332576,121.5594331
6068468713,514,19咖啡輕食廚房,restaurant,25.0252765,121.5293463
7175344633,191,炸地瓜,restaurant,25.1503789,121.5489533
4198249695,438,淞江台式自助餐,restaurant,25.0485768,121.5323998
6805098959,443,阿翠越南美食,restaurant,25.0559943,121.6067158
3347627754,640,樂樂堡早餐店,restaurant,24.9810345,121.4172824
4840875521,364,星巴克,cafe,25.0832156,121.5542853
3706010926,478,巧合魷魚羹小吃店,restaurant,25.0316090,121.5540070
7170215735,443,印度風咖哩黃,restaurant,25.0516375,121.5934889
2938543363,139,越南小棧,restaurant,25.1718489,121.4470136
6579661159,398,琢磨,cafe,25.0582713,121.5100164
6210559194,287,金春發牛肉店,restaurant,25.1029290,121.5202736
2392237981,400,大匠食堂,restaurant,25.0607344,121.5350387
4344542403,438,Again Cafe,cafe,25.0523359,121.5205343
7194706686,364,祥雲龍吟,restaurant,25.0828945,121.5594891
6028851337,438,三骨魚介拉麵勝王,restaurant,25.0493744,121.5211743
2183238686,476,NOUVEAU,restaurant,25.0333544,121.5321932
2977303921,555,老成元御膳麻辣,restaurant,25.0076113,121.5127215
5109347800,514,大葉麵食館,restaurant,25.0180899,121.5316385
4198249712,438,葫蘆鐵板燒,restaurant,25.0483226,121.5316166
3837332688,640,香雞排鹹酥雞,restaurant,24.9814699,121.4241833
5602300358,511,粉鳥灶下,restaurant,25.0200028,121.4811798
4165101263,287,西糯米廚房,restaurant,25.1034658,121.5214097
2591768524,439,麻辣楊家將,restaurant,25.0533427,121.5472054
2958848022,406,立群健康素食店,restaurant,25.0682110,121.6293602
2876159409,437,麥當勞,fast_food,25.0444878,121.5168243
4453324599,211,滷底撈,restaurant,25.1369465,121.4602277
3740826802,725,魚琥小吃店,restaurant,24.9604703,121.4047372
1930430973,352,定食8，爭鮮,restaurant,25.0781579,121.3730857
3701535847,557,花樂鍋,restaurant,25.0134036,121.5344449
2958848023,406,長生素食早點,restaurant,25.0682312,121.6293396
6024241234,648,鮮堡漢堡,restaurant,24.9842227,121.5412875
2912283701,138,嘉筵小吃店,restaurant,25.1696803,121.4412978
4782164540,361,永和豆奶,restaurant,25.0831841,121.5102507
6115725109,287,Alice音樂餐廳,restaurant,25.1026343,121.5247714
4418462700,190,湖田溫泉會館,restaurant,25.1507618,121.5369059
1995088872,365,星巴克,cafe,25.0790356,121.5732871
3033188232,516,一番咖哩專賣部屋,restaurant,25.0240508,121.5533052
5108706592,648,八方雲集,restaurant,24.9834167,121.5397390
2643644697,353,阿育小吃,restaurant,25.0771967,121.3941767
4043621260,513,八方雲集,restaurant,25.0253320,121.5173358
3851546382,438,飲君子咖啡,cafe,25.0429943,121.5194118
4265554689,442,星巴克,cafe,25.0490531,121.5782646
5342423539,514,葉嘉美食小館,restaurant,25.0236424,121.5224435
4563700391,437,圓環邊蚵仔煎,restaurant,25.0563156,121.5153598
6513461173,438,究燒,restaurant,25.0478870,121.5327279
6422218533,437,Mikkeller,cafe,25.0537116,121.5101621
4738179770,367,九江味屋,restaurant,25.0736059,121.6049714
3740826789,725,肉焿麵 魯肉飯 貢丸湯,restaurant,24.9600575,121.4035600
7211425626,442,金國花嘉義火雞肉飯 · 冰品,restaurant,25.0464767,121.5882042
7211425503,480,意麵小吃,restaurant,25.0391682,121.5884539
5938465788,402,台北泰,restaurant,25.0582615,121.5628111
4524864034,438,85度C,cafe,25.0546525,121.5316362
4399403989,513,華王排骨,restaurant,25.0253610,121.5165965
2939314772,399,皆大歡喜經典素食,restaurant,25.0580388,121.5323925
3688113968,762,普門茶品,restaurant,24.9437282,121.3735712
6165716353,477,來吧Cafe',cafe,25.0319770,121.5393690
4301004792,477,紫琳蒸餃館,restaurant,25.0418126,121.5477313
3439427183,554,卡瓦咖啡,cafe,25.0024647,121.4960422
4453014119,397,85度C,cafe,25.0633223,121.5012956
3196909522,440,老虎醬溫州大餛飩,restaurant,25.0480612,121.5531819
3196859965,439,芳田咖哩義大利麵,restaurant,25.0482897,121.5472364
4394358259,475,早安，您好,restaurant,25.0318420,121.5180267
2895253177,565,翡翠谷飲食店,restaurant,25.0059422,121.6515185
5635182380,388,東北斤餅牛肉麵,restaurant,25.0594376,121.3691483
4384257988,441,好滴Drip Cafe,cafe,25.0434515,121.5629004
4505684353,439,得記手工麵疙瘩,restaurant,25.0531951,121.5338780
6462891485,625,奇園自然料理,restaurant,24.9890536,121.8872871
5110581247,342,瑞三福利餐廳,restaurant,25.0888495,121.8298491
3430332162,554,錢饗日式涮涮鍋,restaurant,25.0026056,121.4976686
4739219839,367,樂雅樂,restaurant,25.0729218,121.6052271
3442881294,734,咕咕早餐,restaurant,24.9569358,121.5385172
7153752181,478,Chimac175,restaurant,25.0383392,121.5550143
2547209097,439,阿圖麻油雞,restaurant,25.0486053,121.5422366
6847903487,226,港邊海鮮小吃,restaurant,25.1328744,121.8202627
5110489803,475,瓦崎燒烤,restaurant,25.0426317,121.5071216
3232586647,405,漁來(生魚片專賣店),restaurant,25.0675755,121.6135127
5255065421,287,香港阿德燒臘快餐,restaurant,25.1066855,121.5252137
7074468496,441,御蓮斎,restaurant,25.0512782,121.5636780
5483729841,477,鬍鬚張,restaurant,25.0331495,121.5443900
2157329683,399,星巴克,cafe,25.0577890,121.5329171
3938949103,556,韓江韓國烤肉館,restaurant,25.0148018,121.5317635
3036524350,365,周胖子,restaurant,25.0827550,121.5649998
7037337589,476,利隆餅店,restaurant,25.0352489,121.5268763
6085595038,287,食堂,restaurant,25.1070173,121.5251088
7211425606,442,星宇大餛飩,restaurant,25.0460826,121.5876434
3440499384,554,我家義大利麵,restaurant,25.0044697,121.4962227
6654640237,602,豐壽司,restaurant,24.9997278,121.5480405
7169581042,440,廣一涼麵,restaurant,25.0533437,121.5550181
3006036105,437,麥當勞,fast_food,25.0480848,121.5178050
4298897616,437,永和豆漿,restaurant,25.0450246,121.5126178
5110501339,213,摩斯漢堡,fast_food,25.1359424,121.5037814
7211419037,480,鵝肉龍,restaurant,25.0380399,121.5794839
2567485434,593,關東日式涮涮鍋,restaurant,24.9902108,121.4225560
3700532675,478,麥味登,restaurant,25.0310220,121.5603405
7216240733,250,大心,restaurant,25.1172596,121.5339307
5707073560,642,麥當勞,fast_food,24.9851468,121.4527619
2927150823,139,元太祖豆花莊,restaurant,25.1719498,121.4457284
5110489730,399,泥鮮風味火鍋,restaurant,25.0628984,121.5251037
2924918329,598,摩斯漢堡,fast_food,25.0021029,121.4997743
6865431289,248,群咖啡,cafe,25.1106955,121.5159781
7211425825,444,8鍋,restaurant,25.0548462,121.6107290
5515517166,593,瀨戶一番,restaurant,24.9937194,121.4223491
6415774062,556,Mate Cafe,cafe,25.0115398,121.5202792
5198338000,762,早安美芝城三峽活力國際店,restaurant,24.9426697,121.3735345
5051738285,561,八方雲集水餃鍋貼專賣店(東南店),restaurant,25.0035708,121.6021697
6700210231,476,Kitchen 99,restaurant,25.0315674,121.5283813
7211425512,480,順第水餃,restaurant,25.0378132,121.5793174
2136854023,439,伯朗咖啡館,cafe,25.0517629,121.5363429
7194706990,325,雙胞胎手工蛋餅捲,restaurant,25.0930218,121.5270733
3456887917,439,韓首爾,restaurant,25.0436194,121.5474427
3028688915,512,正宗小魏川菜,restaurant,25.0262855,121.5002746
3528427894,439,丰和日麗,restaurant,25.0517091,121.5339960
2950143733,139,永和豆漿大王,restaurant,25.1738210,121.4507130
7211425745,480,兄弟鹽酥雞,restaurant,25.0383404,121.5791609
4627436089,322,三重知高飯,restaurant,25.0857987,121.4790174
4328118616,557,阿里媽媽,restaurant,25.0128489,121.5355302
3493253438,598,長生素食自助餐,restaurant,24.9939430,121.4978246
3329411990,640,早點,restaurant,24.9818688,121.4208267
5049921329,476,Subway,fast_food,25.0385549,121.5193128
7211419039,480,雙醬麵,restaurant,25.0375505,121.5793566
3684310620,388,肯德基,fast_food,25.0590025,121.3676415
4108971728,439,蘭庭,restaurant,25.0526401,121.5388901
4483166711,435,漢堡王,fast_food,25.0510595,121.4829170
4524863604,408,星巴克,cafe,25.0680893,121.6608121
4838087653,512,牛洞,restaurant,25.0219342,121.5013730
3541200794,399,cafe wien,cafe,25.0641460,121.5194057
7175344595,186,美帝漢堡,restaurant,25.1387849,121.4867490
738612589,557,台科大第一學生餐廳,restaurant,25.0139452,121.5426053
7175344740,512,二董牛肉麵,restaurant,25.0199408,121.4970695
3849103545,248,霸味薑母鴨石牌店,restaurant,25.1199312,121.5095787
6054976960,325,人間煙火,restaurant,25.0884306,121.5237558
7170215704,397,素越美食,restaurant,25.0630593,121.5028570
7211425704,374,好食雞,restaurant,25.0816745,121.6962108
5110348661,439,蜂蜜咖啡,cafe,25.0442290,121.5440754
6329956666,439,樓下咖啡,cafe,25.0441473,121.5420122
7138715809,214,炒麵炒飯,restaurant,25.1356982,121.5049216
4198238555,438,金珍古早味,restaurant,25.0513119,121.5311910
7037337605,437,宥祐素食坊,restaurant,25.0472145,121.5147494
4205229658,439,山西番茄牛肉麵,restaurant,25.0559970,121.5461347
4166101754,478,框影咖啡,cafe,25.0302037,121.5616213
6499848142,438,Louisa Coffee,cafe,25.0527422,121.5189822
7018522414,507,皇家吉利堡,restaurant,25.0241733,121.4242492
4524318972,601,木山廚房,restaurant,24.9966052,121.5407391
3423127568,388,佳味鮮便當麵食,restaurant,25.0594287,121.3682655
4865690221,402,我家牛排,restaurant,25.0616262,121.5663419
7211425526,479,犇麵館,restaurant,25.0353407,121.5771086
6127553942,593,春水堂,cafe,24.9950763,121.4285349
4913299917,476,永康階,cafe,25.0312114,121.5302548
5205809421,249,Starbucks coffee 星巴克咖啡,cafe,25.1185115,121.5276971
2976031810,407,鼎泱越南蔬食館,restaurant,25.0643354,121.6416847
3928061420,216,媽媽樂早餐店,restaurant,25.1371792,121.5415322
7194706731,361,米哥烘焙坊,restaurant,25.0719118,121.5157121
5699180234,477,花漁新和風料理,restaurant,25.0325523,121.5437865
5805935468,388,灰熊好丼,restaurant,25.0588863,121.3684094
6096095927,325,哇脆皮炸雞,restaurant,25.0885948,121.5212661
5636560085,396,Sweet榛果樂幸福鍋物,restaurant,25.0616221,121.4836467
5599441827,476,甘泉魚麵,restaurant,25.0394439,121.5325404
4293261322,698,龍牙茶坊,restaurant,24.9672001,121.5989245
4193132794,476,矢場味噌豬排,restaurant,25.0340317,121.5291607
7174571369,515,美美平價火鍋,restaurant,25.0216952,121.5407141
2094936617,476,吉野家,fast_food,25.0335870,121.5274150
4364174989,475,建弘雞肉飯,restaurant,25.0306960,121.5173830
6546342385,408,吉野家,restaurant,25.0621463,121.6528778
5101412125,475,囍愛義廚館,restaurant,25.0416979,121.5056309
5201261121,249,明月館韓國烤肉,restaurant,25.1120253,121.5306169
5884549971,470,Goodday 加州墨西哥餐廳,restaurant,25.0332062,121.4363217
1720282439,405,摩斯漢堡 MOS Burger,fast_food,25.0569453,121.6119544
6389111668,324,三媽臭臭鍋,restaurant,25.0885625,121.5084910
2293203432,399,美而美早餐店,restaurant,25.0675635,121.5242864
5198337982,762,八方雲集鍋貼水餃專賣店,restaurant,24.9432897,121.3745332
7130799946,400,紫竹林滴水坊,restaurant,25.0615740,121.5460869
7194706701,651,迎仙珍館,restaurant,24.9790306,121.5897174
5917357478,507,好農夫自助餐,restaurant,25.0210992,121.4222633
5110269764,439,Hoka Coffee,cafe,25.0483064,121.5334989
6120906039,324,阿琴自助餐,restaurant,25.0914290,121.5180732
2157319344,438,一番館 日式無煙燒肉,restaurant,25.0549297,121.5322860
6725457172,601,佳和牛麵館,restaurant,25.0021672,121.5375987
4552484291,437,Love Vegetaria,restaurant,25.0541991,121.5104026
3292036276,478,Zoo Cafe 動物園野餐咖啡,restaurant,25.0384990,121.5548231
4031296812,439,何首烏皇帝雞餐廳,restaurant,25.0492428,121.5336961
5108743115,601,好菜場生猛海鮮,restaurant,25.0002205,121.5437450
4451773492,399,丸林魯肉飯,restaurant,25.0649530,121.5292520
3835347350,649,廣東粥,restaurant,24.9840539,121.5594606
3596859031,325,海豐生猛活海鮮,restaurant,25.0883893,121.5237877
2756655300,437,上頂皇家素食水煎包,fast_food,25.0450802,121.5161713
6024242661,600,鮮味餡餅,restaurant,24.9971120,121.5235328
5405185432,139,Yuki早餐店,restaurant,25.1686410,121.4476205
7368631864,397,小火龍肉羹,restaurant,25.0638972,121.4993800
3337457976,640,瑞麟美而美,restaurant,24.9828021,121.4166095
5209958853,439,辣麻味噌拉麵鬼金棒,restaurant,25.0528260,121.5340563
7175344614,514,青田藝集,restaurant,25.0283896,121.5318831
2816066962,367,龍涎居雞膳食坊,restaurant,25.0795195,121.5934093
5564542417,444,大南港永和豆漿,restaurant,25.0551921,121.6124945
7211439846,440,楊基麵線,restaurant,25.0477970,121.5576800
7170215729,365,帝一帝王蟹吃到飽,restaurant,25.0825084,121.5644711
5110349492,366,日本人氣牛胴,restaurant,25.0799393,121.5903901
4571256562,139,丹式食堂,restaurant,25.1775198,121.4508716
7194693258,362,Laya Burger,restaurant,25.0752391,121.5194551
5110489810,399,富爸爸豬腳大王,restaurant,25.0634385,121.5244285
7169581019,440,加寶多,restaurant,25.0495555,121.5549830
3098195551,439,豪季水餃專賣店,restaurant,25.0539277,121.5351277
7211419033,374,爆漿奶油車輪餅,restaurant,25.0823690,121.6961683
5101412127,397,Domino's Pizza,restaurant,25.0632022,121.4900085
3716532367,352,老鄧擔擔麵,restaurant,25.0783374,121.3731771
3658371844,650,大胖小吃(廢墟),restaurant,24.9878334,121.5750742
4429728194,398,涼州街無名涼麵,restaurant,25.0607724,121.5149504
5110580385,542,鄉野便當,restaurant,25.0160638,121.9445780
2643621270,353,諾麗義大利麵,restaurant,25.0781328,121.3927109
4018211293,439,君悅排骨,restaurant,25.0535985,121.5451843
4820442577,433,金磚咖啡,cafe,25.0447727,121.4448506
3587225994,478,楊記大混沌,restaurant,25.0410371,121.5569064
3444671406,552,山東最佳典飯,restaurant,25.0058508,121.4619507
2450658705,441,超初文創,cafe,25.0431484,121.5629053
5181838670,507,永和豆漿,restaurant,25.0197891,121.4208123
7169581014,440,清香火鍋城,restaurant,25.0487865,121.5562478
2297829261,367,彩虹園蔬食小館,restaurant,25.0804870,121.5926705
2244030053,439,Cama,cafe,25.0517017,121.5393479
3222754261,139,淡水雞腿達人,restaurant,25.1773787,121.4484713
4005167905,477,慢步調,cafe,25.0421207,121.5416894
6028680762,593,秀基雞肉攤,restaurant,24.9939632,121.4273558
3200943837,438,高記,restaurant,25.0516280,121.5226114
3704217225,438,一江紅麵線,restaurant,25.0544751,121.5314451
3286110741,438,天廚菜館,restaurant,25.0524409,121.5220234
5768723237,325,Modern Toilet,restaurant,25.0895974,121.5268281
2518367572,601,巧沛東方美漢堡/三明治,restaurant,24.9935204,121.5396624
6418121459,514,Uni Café,cafe,25.0215600,121.5232703
4344542422,438,公寓咖啡館,restaurant,25.0551426,121.5212395
6242158926,602,廬山牛肉麵,restaurant,25.0003100,121.5553187
3286110744,514,鳳城燒臘,restaurant,25.0181678,121.5316510
2639182802,408,車頭涼麵,restaurant,25.0687847,121.6611899
4121544833,439,慶城海南雞飯,restaurant,25.0527917,121.5456412
6074060674,325,LATTEA,cafe,25.0896871,121.5232595
7138715813,214,水都溫泉拉麵,restaurant,25.1367908,121.5110617
6855627861,248,八方雲集,restaurant,25.1170932,121.5125053
3322964739,601,老凃食堂,restaurant,24.9937481,121.5408089
7235635390,437,九九炙燒牛排,restaurant,25.0478103,121.5178183
4325693471,476,天仁茗茶,cafe,25.0336312,121.5291190
2772748954,648,炎官炭火燒肉,restaurant,24.9832400,121.5411147
4329769300,438,欣葉,restaurant,25.0520594,121.5212795
3438534293,734,鮮點子早餐,restaurant,24.9568444,121.5384236
3656918026,606,麻醬麵,restaurant,25.0010966,121.6119980
2320351790,287,澡咖,cafe,25.1060589,121.5223623
7211425728,480,正宗專業潤餅,restaurant,25.0378625,121.5782932
6099310886,439,食焱厰,restaurant,25.0521255,121.5479935
3840863141,601,Pizza Hut,restaurant,25.0013522,121.5389801
7296140588,138,呷七碗,restaurant,25.1695272,121.4412614
7370705540,365,客美多咖啡 Komeda‘s Coffee - 西湖店,cafe,25.0814859,121.5654193
7095347123,477,東京油組總本店,restaurant,25.0406636,121.5478688
2188360121,400,川賀卡燒烤,restaurant,25.0573696,121.5390550
3835342090,649,花猴子,restaurant,24.9833504,121.5622369
4524863734,400,創咖啡,cafe,25.0609257,121.5425232
7211425744,443,兄弟鹽酥雞,restaurant,25.0563553,121.6055994
6968510794,507,魯十二,restaurant,25.0266879,121.4270506
2928831444,139,幸福屋丼物料理專賣店,restaurant,25.1697256,121.4448450
4820634511,561,東南科技大學學生第一餐廳,restaurant,25.0033910,121.6047203
5344605623,551,隨緣素食,restaurant,25.0033638,121.4573510
2826002442,477,重慶抄手,restaurant,25.0336473,121.5387809
2804200291,512,大城餃子館,restaurant,25.0220590,121.5020026
7194706804,216,亞尼克夢想村,restaurant,25.1373243,121.5437955
3458765271,597,小牛車精緻全自助餐,restaurant,24.9964856,121.4812159
2813373779,366,福聚小吃,restaurant,25.0817693,121.5912776
7004212087,477,常夜燈,restaurant,25.0400861,121.5367348
2300974256,367,通化老師傅牛雜湯,restaurant,25.0796873,121.5933078
5564542410,444,琪林食堂,restaurant,25.0557481,121.6116829
4398333801,512,肯德基,fast_food,25.0254373,121.5003004
3840862929,438,八方雲集,restaurant,25.0556037,121.5303119
6699805979,515,紅蔥,restaurant,25.0159369,121.5431584
4449757834,438,許記燒辣,restaurant,25.0497578,121.5197498
1720016588,363,Starbucks,cafe,25.0835684,121.5461965
6578286277,441,真福記烤鴨,restaurant,25.0490290,121.5653944
6090446034,325,以利泡泡冰,restaurant,25.0882007,121.5240177
2927068879,138,大勇麵線之家,restaurant,25.1774673,121.4436122
7052738997,439,蕭園炒餅,restaurant,25.0489269,121.5360551
3451793094,601,龍哥食堂,restaurant,24.9923292,121.5397756
4544196050,514,第一樓,restaurant,25.0287904,121.5208961
3451792593,601,新素坊,restaurant,24.9912628,121.5411456
4254654847,439,18食堂鐵板料理,restaurant,25.0539284,121.5340094
7277460639,600,金仙蝦卷飯,restaurant,24.9997071,121.5229699
2966219726,437,三來健康素食,restaurant,25.0441368,121.5122657
7175344635,441,東發號 油飯・麵線,restaurant,25.0503333,121.5742129
3953673662,440,全國健康素食,restaurant,25.0528394,121.5608083
3767530265,648,吉祥素食自助餐,restaurant,24.9886818,121.5410000
5182136401,325,儂特利 Lotteria,fast_food,25.0943503,121.5211679
3704355304,516,伍拙咖啡,restaurant,25.0242574,121.5533196
3232612071,405,逢萊美自助餐,restaurant,25.0688213,121.6143862
5110348632,516,同客餃子館,restaurant,25.0229544,121.5550945
7211425721,442,白氏 魷魚鹹酥雞,restaurant,25.0442071,121.5844255
3860789109,593,Sari Rasa印尼料理,restaurant,24.9907370,121.4235570
4143011639,648,韓成之家,restaurant,24.9812002,121.5442452
2784759987,551,壹咖啡,cafe,25.0085960,121.4501159
4269582539,439,兄弟小館,restaurant,25.0510470,121.5433041
3236369598,475,樺林乾麵,restaurant,25.0378750,121.5079493
3104850036,690,nook coffee,cafe,24.9623724,121.4798050
2462876039,601,必勝客歡樂吧,restaurant,24.9922924,121.5442720
5236317725,287,佳香豬腳專賣店,restaurant,25.1080344,121.5284306
2643672619,353,山西刀削麵,restaurant,25.0785343,121.3896355
1832682808,365,肯德基,fast_food,25.0823579,121.5648914
2308078425,330,奈司可樂餅店,restaurant,25.0847476,121.5935731
3299885798,439,香師傅鹵味,restaurant,25.0539294,121.5339287
4169581986,506,85度C,cafe,25.0174652,121.4027843
3632426567,551,必勝客PizzaHut,fast_food,25.0091713,121.4538358
7194706717,603,早安找點,restaurant,24.9905109,121.5737988
2473232923,515,大蒜,restaurant,25.0238042,121.5429957
4361830538,437,金春發牛肉店,restaurant,25.0527407,121.5131052
7365923876,397,曾記花枝羹,restaurant,25.0671968,121.4982403
3884736563,406,85度C,cafe,25.0655427,121.6315035
4267850190,762,蔚藍食府,restaurant,24.9437937,121.3809124
3347627732,640,池上稻香便當,restaurant,24.9809904,121.4185835
3887310082,437,星巴克,cafe,25.0460831,121.5140907
7211425764,403,五祿米糕排骨酥,restaurant,25.0687503,121.5861999
7004248037,364,麻膳堂,restaurant,25.0832709,121.5571699
4150685042,437,台博館-石尚咖啡輕食館,restaurant,25.0437223,121.5143676
7211425595,480,紅蘋果烘焙坊,restaurant,25.0390650,121.5864892
3412093294,139,鮮富洋食館,restaurant,25.1745437,121.4528176
3040355633,138,悠朵拉咖啡館,cafe,25.1691124,121.4434138
5110488990,602,臭豆腐,restaurant,24.9985631,121.5570024
2935624099,394,正群牛肉麵,restaurant,25.0665410,121.4594335
2307156614,366,壹咖啡,cafe,25.0818862,121.5912264
4298881351,557,泰豐味,restaurant,25.0141380,121.5342190
3571811415,475,hot7,restaurant,25.0377559,121.5061166
4819415321,327,麥味登 內湖文湖店,restaurant,25.0867233,121.5622850
4524344003,648,米尼美式餐廳,restaurant,24.9826745,121.5380038
3146899371,601,林記港式撈麵館,restaurant,24.9994322,121.5393492
2395778707,471,吉野家,fast_food,25.0352086,121.4488281
3522084126,475,必勝客,fast_food,25.0307147,121.5160217
5875366074,475,Oven Cafe,cafe,25.0428069,121.5061927
5110245042,514,家園小館,restaurant,25.0282372,121.5222042
6323106716,478,黑醮食堂,restaurant,25.0351236,121.5604555
3307881906,440,蜀辣川菜烤魚麻辣鍋,restaurant,25.0444137,121.5507332
3731275518,723,早餐優選 北大店,restaurant,24.9490446,121.3779682
7175344731,368,阿枝早點,restaurant,25.0752150,121.6174415
7130799967,440,新八珍燒臘,restaurant,25.0525236,121.5580893
6813742609,593,Louisa Coffee,cafe,24.9902200,121.4228075
5109347760,514,甘泉魚麵,restaurant,25.0230219,121.5285902
3818988792,514,小公館牛肉麵,restaurant,25.0194339,121.5298009
5109347748,514,LA Pizza,restaurant,25.0224464,121.5288003
7153752258,439,惠姐 臭臭鍋,restaurant,25.0446398,121.5344196
4082740390,516,JnF義大利麵,restaurant,25.0207002,121.5547215
4120112795,139,柴廚,restaurant,25.1769924,121.4517983
3412211298,598,衛武營,restaurant,24.9985519,121.4989196
4359025064,442,金春發牛肉店,restaurant,25.0497216,121.5917977
5110348779,478,Crown,cafe,25.0332708,121.5578241
2912374701,138,佘家孔雀蛤大王,restaurant,25.1691730,121.4417295
4574573816,516,永和豆漿店,restaurant,25.0233095,121.5555691
7211522197,437,苦茶之家,restaurant,25.0513471,121.5140495
7169581020,440,媽咪廚房,restaurant,25.0495819,121.5551726
3547976746,438,吉野家,restaurant,25.0494586,121.5227316
7194706930,603,三媽臭臭鍋,restaurant,24.9913562,121.5738115
4754476220,477,春申食府,restaurant,25.0375290,121.5477626
5951206324,513,摩斯漢堡,fast_food,25.0255247,121.5042919
3304641825,440,CHURRO'K,cafe,25.0436439,121.5492693
3596859026,439,喜揚揚,restaurant,25.0468952,121.5417348
7130799928,401,大一德傳統蔥油餅,restaurant,25.0582802,121.5519432
2643718538,353,宜蘭滷之鄉,restaurant,25.0795320,121.3883730
3586313794,438,漢堡王,fast_food,25.0441133,121.5314006
5859230939,507,吉得堡漢堡 新民店,restaurant,25.0251892,121.4243635
3066879539,408,天然素食,restaurant,25.0677727,121.6621224
7175344623,512,什錦麵,restaurant,25.0196084,121.5013797
5110245079,514,西班牙風味小館,restaurant,25.0264047,121.5197817
6027010501,439,家宏燒臘,restaurant,25.0561318,121.5415524
4123034988,437,樂麵屋,restaurant,25.0456050,121.5142551
3033188230,601,Louisa Coffee,cafe,24.9930323,121.5419064
7194706722,603,Trattoria al Sole,restaurant,24.9897672,121.5736348
7175334771,366,阿桃紅豆餅,restaurant,25.0782512,121.5813914
7170215790,366,小太陽素食,restaurant,25.0817912,121.5913107
3687762590,476,廖家牛肉麵,restaurant,25.0303064,121.5254054
4114194289,514,名苑小火鍋,restaurant,25.0260762,121.5282578
5110491031,438,Kuma Cafe Taipei,restaurant,25.0519594,121.5242221
3910209358,138,彩日式拉麵,restaurant,25.1696380,121.4432040
7195145073,640,麥味登,restaurant,24.9797790,121.4222983
7194693231,482,新鮮大堡堡,restaurant,25.0338803,121.6134953
4334083603,438,悟饕健康米食新主張,restaurant,25.0481397,121.5331656
7175344772,366,鼎越鴻越南美食館,restaurant,25.0781824,121.5795373
4451141435,211,絕配Pasta,restaurant,25.1358381,121.4615528
4362345768,694,可口豬腳大王,restaurant,24.9747967,121.5371898
2946896598,514,柒食貳餐廳,restaurant,25.0197387,121.5327913
7194706918,361,大龍街香菇肉粥,restaurant,25.0738631,121.5140163
2310591239,476,鬍鬚張魯肉飯,restaurant,25.0331513,121.5269104
4524863586,477,富興園,restaurant,25.0358544,121.5439138
7211419064,444,蕃茄紅了,restaurant,25.0561259,121.6126911
4007798812,601,上園肉羹,restaurant,24.9898242,121.5416383
7194706685,368,夏姿林,restaurant,25.0746489,121.6149422
5405206186,139,瞇瞇眼自家烘焙咖啡館,cafe,25.1730287,121.4494964
4995236721,408,牧童,restaurant,25.0634594,121.6549218
2913782976,139,宵夜500,restaurant,25.1738418,121.4516977
3860789125,593,TOKO DORA JAYA,restaurant,24.9900498,121.4231833
3188285418,650,南山小吃,restaurant,24.9867747,121.5679082
6413241121,439,Cama,cafe,25.0479204,121.5458542
4205230080,439,長春涼麵,restaurant,25.0560199,121.5407647
4193132795,439,瞞著爹 壽司丼 (3店),restaurant,25.0464859,121.5454004
7001372012,433,魔法義大利,restaurant,25.0485405,121.4524224
7330746358,557,丹堤咖啡,cafe,25.0144599,121.5378915
7175344618,211,家傳味擔仔麵,restaurant,25.1285033,121.4693600
3939157984,479,Vapiano,restaurant,25.0353960,121.5660395
2013717673,476,上海來鄉村小館,restaurant,25.0413685,121.5318129
6876041261,602,金仙蝦捲,restaurant,25.0008837,121.5495828
3835835004,325,悟饕池上飯包,restaurant,25.0848858,121.5194511
4150685035,437,點水樓-懷寧店,restaurant,25.0438751,121.5140390
2656074196,441,千翔食品,restaurant,25.0515648,121.5658992
3377063671,515,La Clé D'or,restaurant,25.0267741,121.5418907
7211425539,479,喝一杯,restaurant,25.0346914,121.5763865
7118647628,515,寶貝咖哩,restaurant,25.0194336,121.5336256
7194706890,650,永康街左撇子,restaurant,24.9878850,121.5766070
7211425692,480,老地方小豪華餐盒,restaurant,25.0366619,121.5797671
4198249714,438,韓宮,restaurant,25.0485655,121.5321798
5666895654,399,學餐:滷味,restaurant,25.0659490,121.5216617
4200642650,602,JJ Coffee,cafe,25.0009907,121.5497765
4451141436,211,樹男咖啡館,cafe,25.1375707,121.4620870
5891925903,360,麥當勞,fast_food,25.0833974,121.4919447
2446576182,437,和歌壽司,restaurant,25.0438275,121.5130712
6269280523,601,呷尚寶,restaurant,24.9993206,121.5474853
4384259218,648,集客,restaurant,24.9830207,121.5429019
6120728242,325,香港鑫記燒臘,restaurant,25.0942127,121.5217237
4201921589,476,杭州小籠湯包,restaurant,25.0340787,121.5237494
5504621681,680,85度C,cafe,24.9692287,121.3291884
5759049533,437,台灣航海王專賣店 西門店,restaurant,25.0452109,121.5045106
5875366012,475,牛公館牛肉麵,restaurant,25.0425251,121.5058105
4298881349,557,東園關東煮,restaurant,25.0144147,121.5337142
5558279792,467,WD 我的早餐,restaurant,25.0395839,121.3893139
4969864527,507,大使館 咖啡專賣店,cafe,25.0235604,121.4251457
3341995420,640,全多麥早餐,restaurant,24.9821821,121.4210006
4269582587,439,郭家川味牛肉麵,restaurant,25.0511067,121.5434787
5563819318,397,すき家,restaurant,25.0606363,121.4929973
5712940241,442,八方雲集,restaurant,25.0485080,121.5799285
4344542415,438,仁川韓娘,restaurant,25.0499685,121.5268733
5551910322,477,老虎醬溫州大餛飩,restaurant,25.0336585,121.5391768
4414859594,188,儷宴會館,restaurant,25.1397777,121.5061960
3835339704,649,佳品早餐店,restaurant,24.9831065,121.5623314
6242158922,602,禎記滷味,restaurant,24.9996221,121.5555467
3673124340,393,肯德基,fast_food,25.0589870,121.4311931
3079655529,441,清心福全冷飲站,cafe,25.0515741,121.5652399
5746533955,447,藍天咖啡,cafe,25.0542171,121.6635948
5894571539,352,潮味決,restaurant,25.0759285,121.3855621
4353617480,399,麵店,restaurant,25.0575672,121.5210014
3750216514,553,拉亞漢堡,restaurant,25.0094138,121.4746647
7138715792,213,牛霸小吃店,restaurant,25.1332804,121.5027839
2755478349,476,建北黑糖刨冰,restaurant,25.0395669,121.5235400
7037337600,475,費太太,restaurant,25.0424609,121.5174444
3412155093,601,四海游龍景美店,restaurant,24.9928969,121.5435332
7175344640,249,義美見學餐廳,restaurant,25.1200791,121.5197865
4446911291,396,STARBUCKS COFFEE,cafe,25.0616324,121.4886886
3290337643,510,油庫口蚵仔麵線 漢生分店,restaurant,25.0167145,121.4658210
5110490273,438,香港九記海鮮,restaurant,25.0547498,121.5279673
3066154833,138,G12,restaurant,25.1692025,121.4414238
4113575898,444,北大荒水餃店,restaurant,25.0549899,121.6111267
5110488946,439,火鍋粵式豬肚堡鍋,restaurant,25.0517244,121.5374164
5950275713,365,費尼餐廳,restaurant,25.0784416,121.5684129
7170215703,397,呷尚寶,restaurant,25.0631960,121.5028933
2614374653,597,McDonald's,fast_food,24.9952072,121.4811169
3195624640,441,六媽臭臭鍋,restaurant,25.0505909,121.5718114
3955430405,440,弘爺漢堡,restaurant,25.0532541,121.5608067
