郵遞區號,電腦局號,郵務局號,局名,電腦局名,郵務電話,儲匯電話,郵務傳真,縣市,鄉鎮市區,地址,經度,緯度,平常日提供服務,平常日延時提供服務,週六提供服務,週日提供服務,週一至週五 郵務,週一至週五 儲匯,週六,週日,提供郵務業務延時服務郵局 週一至週五,提供郵務及儲匯業務延時服務郵局 週一至週五,營業時間備註
10044,000100-6,100000,臺北北門郵局,臺北901支,(02)2361-5752,(02)2381-3135,(02)2314-9258,臺北市,中正區,忠孝西路1段120號1樓,121.511691,25.047522,○,○,○,,08:30-21:00 ,08:30-21:00 ,09:00-12:00 ,,,○,集郵營業時間週一至週五08:30-18:00<br>房貸營業時間週一至週五08:30-17:30<br>統一發票兌領時間如下:<br>1.週一至週五為08:30至17:30。<br>2.例假日請參考例假日營業時間。<br>3.例假日除頭獎及特獎外均可兌換。<br>
10064,000101-0,100001,臺北東門郵局,臺北1支,(02)2394-7576,(02)2321-4679,(02)2356-9043,臺北市,中正區,信義路2段163號,121.528888,25.034166,○,,○,,08:30-17:30 ,08:30-17:00 ,09:00-12:00 ,,,,
10846,000102-3,100002,臺北漢中街郵局,臺北2支,(02)2361-6809,(02)2331-4069,(02)2311-5674,臺北市,萬華區,漢中街173號,121.507222,25.041388,○,,,,08:30-17:30 ,08:30-17:00 ,,,,,
10847,000103-7,100003,臺北西園郵局,臺北3支,(02)2331-4524,(02)2331-4524,(02)2361-0974,臺北市,萬華區,長沙街2段156、158、160、162號,121.501075,25.040750000000003,○,,,,08:30-17:00 ,08:30-17:00 ,,,,,
10851,000104-1,100004,臺北龍山郵局,臺北4支,(02)2306-4755,(02)2306-4755,(02)2302-2462,臺北市,萬華區,廣州街67號,121.504722,25.036666,○,,,,08:30-17:00 ,08:30-17:00 ,,,,,
10075,000105-4,100005,臺北南海郵局,臺北5支,(02)2396-3142,(02)2321-4189,(02)2356-9042,臺北市,中正區,重慶南路2段43號,121.514682,25.031703999999998,○,,○,,08:30-18:00 ,08:30-17:30 ,09:00-12:00 ,,,,
10083,000106-8,100006,臺北螢橋郵局,臺北6支,(02)2368-4714,(02)2367-0905,(02)2365-9044,臺北市,中正區,廈門街76號,121.517499,25.024722,○,○,,,08:30-17:30 ,08:30-17:00 ,,,○,,
10644,000107-1,100007,臺北青田郵局,臺北7支,(02)2321-4288,(02)2321-8001,(02)2396-0048,臺北市,大安區,和平東路1段155號,121.53135,25.02665,○,,,,08:30-18:00 ,08:30-17:30 ,,,,,
10041,000108-5,100008,臺北復興橋郵局,臺北8支,(02)2311-4421,(02)2311-4421,(02)2311-7184,臺北市,中正區,忠孝西路1段1號,121.51934,25.04636,○,○,,,08:30-17:30 ,08:30-17:00 ,,,○,,
10444,000109-9,100009,臺北中山郵局,臺北9支,(02)2542-6403,(02)2542-5934,(02)2567-1440,臺北市,中山區,中山北路1段142號,121.52203,25.05161,○,,,,08:30-17:30 ,08:30-17:00 ,,,,,
10343,000110-1,100010,臺北迪化街郵局,臺北10支,(02)2556-0519,(02)2556-0631,(02)2556-0833,臺北市,大同區,迪化街1段38號,121.509905,25.054775,○,,,,08:30-17:30 ,08:30-17:00 ,,,,,
10356,000111-4,100011,臺北圓環郵局,臺北11支,(02)2556-1703,(02)2559-2168,(02)2555-1442,臺北市,大同區,重慶北路2段15號,121.514422,25.054902000000002,○,,,,08:30-17:30 ,08:30-17:00 ,,,,,
10051,000112-8,100012,行政院郵局,臺北12支,(02)2321-4874,(02)2321-4874,(02)2356-3100,臺北市,中正區,北平東路2號(行政院內),121.52137,25.04676,○,,,,08:30-17:00 ,08:30-17:00 ,,,,,
10091,000113-1,100013,臺北公館郵局,臺北13支,(02)2365-9518,(02)2368-8574,(02)2365-7254,臺北市,中正區,羅斯福路4段74號(B1),121.534722,25.014166,○,,○,,08:30-18:00 ,08:30-17:30 ,09:00-12:00 ,,,,
10048,000114-5,100014,國史館郵局,臺北14支,(02)2331-0962,(02)2311-7879,(02)2389-6842,臺北市,中正區,博愛路168號之1,121.51082050000001,25.039500500000013,○,,,,08:30-17:30 ,08:30-17:00 ,,,,,
10048,000115-9,100015,總統府郵局,臺北15支,(02)2311-0859,(02)2311-0859,(02)2361-1823,臺北市,中正區,重慶南路1段122號(總統府內),121.51167,25.03964,○,,,,08:30-17:30 ,08:30-17:00 ,,,,,
10449,000117-6,100017,臺北雙連郵局,臺北17支,(02)2541-4332,(02)2523-6846,(02)2567-1443,臺北市,中山區,中山北路2段96號,121.52246,25.05958,○,,,,08:30-17:30 ,08:30-17:00 ,,,,,
10566,000118-0,100018,臺北松山郵局,臺北18支,(02)2767-4928,(02)8787-9193,(02)2763-7471,臺北市,松山區,八德路4段626號,121.573705,25.049805000000003,○,,,,08:30-17:30 ,08:30-17:00 ,,,,,
10048,000120-5,100020,臺北法院郵局,臺北20支,(02)2331-4925,(02)2311-3025,(02)2311-6804,臺北市,中正區,博愛路127號(司法大廈內),121.51129999999999,25.03806,○,,,,08:30-17:30 ,08:30-17:00 ,,,,,
10357,000121-9,100021,臺北臺北橋郵局,臺北21支,(02)2557-8538,(02)2550-2821,(02)2557-5104,臺北市,大同區,民權西路246號,121.51279000000001,25.062775,○,○,,,08:30-17:30 ,08:30-17:00 ,,,○,,
10610,000122-2,100022,臺北師大郵局,臺北22支,(02)2363-5053,(02)2363-5053,(02)2363-3752,臺北市,大安區,和平東路1段162號,121.525891,25.026429,○,,,,08:30-17:00 ,08:30-17:00 ,,,,,
10617,000123-6,100023,臺大郵局,臺北23支,(02)2363-3435,(02)2363-3435,(02)2362-2821,臺北市,大安區,羅斯福路4段1號(台灣大學內),121.53365,25.017169999999997,○,,,,08:30-17:30 ,08:30-17:00 ,,,,,
10651,000124-0,100024,臺北仁愛路郵局,臺北24支,(02)2771-1497,(02)2752-4551,(02)2773-1354,臺北市,大安區,仁愛路3段47號,121.53564999999999,25.03865,○,,,,08:30-17:30 ,08:30-17:00 ,,,,,
10051,000125-3,100025,立法院郵局,臺北25支,(02)2391-7844,(02)2321-9814,(02)2356-3110,臺北市,中正區,濟南路1段1號,121.51986,25.04362,○,,,,08:30-17:30 ,08:30-17:00 ,,,,,
10682,000126-7,100026,臺北信維郵局,臺北26支,(02)2707-7130,(02)2708-3670,(02)2703-4674,臺北市,大安區,信義路4段74號,121.54669000000001,25.03292,○,,○,,08:30-18:00 ,08:30-17:30 ,09:00-12:00 ,,,,
10479,000127-1,100027,臺北建北郵局,臺北27支,(02)2502-0944,(02)2504-1943,(02)2506-3004,臺北市,中山區,建國北路2段33號,121.5372,25.054959999999998,○,,,,08:30-17:30 ,08:30-17:00 ,,,,,
11163,000128-4,100028,士林郵局,臺北28支,(02)2881-8743,(02)2881-2535,(02)2883-1974,臺北市,士林區,文林路162號,121.52708,25.089260000000003,○,,○,,08:30-17:30 ,08:30-17:00 ,09:00-12:00 ,,,,
11670,000129-8,100029,文山景美郵局,臺北29支,(02)2931-2010,(02)2932-3411,(02)2935-4274,臺北市,文山區,羅斯福路6段389號,121.540915,24.992375,○,,○,,08:30-17:30 ,08:30-17:00 ,09:00-12:00 ,,,,
10084,000130-0,100030,臺北古亭郵局,臺北30支,(02)2367-2165,(02)2368-2923,(02)2365-9046,臺北市,中正區,南昌路2段232號,121.52443000000002,25.023799999999998,○,,,,08:30-18:00 ,08:30-17:30 ,,,,,
10869,000131-3,100031,臺北東園郵局,臺北31支,(02)2309-9202,(02)2303-8013,(02)2332-0286,臺北市,萬華區,東園街148、150號,121.497505,25.023325,○,,,,08:30-17:30 ,08:30-17:00 ,,,,,
10666,000132-7,100032,臺北光華郵局,臺北32支,(02)2741-0600,(02)2731-5570,(02)2773-0174,臺北市,大安區,新生北路1段7之2號,121.53332,25.04502,○,,,,08:30-17:30 ,08:30-17:00 ,,,,,
10047,000133-1,100033,臺北南陽郵局,臺北33支,(02)2361-3711,(02)2375-4227,(02)2389-6432,臺北市,中正區,信陽街8號,121.51587,25.04452,○,○,,,08:30-18:00 ,08:30-17:30 ,,,,○,
10488,000134-4,100034,臺北中崙郵局,臺北34支,(02)2771-1401,(02)2772-5405,(02)2752-7004,臺北市,中山區,復興北路40號,121.54365,25.049375,○,,○,,08:30-18:00 ,08:30-17:30 ,09:00-12:00 ,,,,
10862,000135-8,100035,臺北莒光郵局,臺北35支,(02)2302-4644,(02)2302-4649,(02)2308-6791,臺北市,萬華區,莒光路210號,121.501,25.031570000000002,○,,○,,08:30-17:30 ,08:30-17:00 ,09:00-12:00 ,,,,
10555,000136-1,100036,臺北光復郵局,臺北36支,(02)2570-1157,(02)2578-6944,(02)2577-8387,臺北市,松山區,八德路3段240號,121.557505,25.047995,○,,○,,08:30-18:00 ,08:30-17:30 ,09:00-12:00 ,,,,
10465,000137-5,100037,臺北大直郵局,臺北37支,(02)2533-4543,(02)2533-4543,(02)2533-9087,臺北市,中山區,北安路518巷14弄18、20號,121.545655,25.07916,○,,,,08:30-17:00 ,08:30-17:00 ,,,,,
10044,000139-2,100039,臺北重南郵局,臺北39支,(02)2331-3075,(02)2331-3075,,臺北市,中正區,忠孝西路1段120號1樓,121.51184600000002,25.047672000000006,○,,,,,08:30-17:00 ,,,,,郵務無營業<br>
11165,000142-1,100042,士林社子郵局,臺北42支,(02)2812-2884,(02)2812-1072,(02)2816-1284,臺北市,士林區,延平北路5段150號,121.51037000000001,25.08256,○,,,,08:30-17:30 ,08:30-17:00 ,,,,,
10692,000143-5,100043,臺北三張犁郵局,臺北43支,(02)2709-6837,(02)2701-5196,(02)2703-4745,臺北市,大安區,信義路4段337號,121.55642999999999,25.033525,○,○,○,,08:30-18:00 ,08:30-17:30 ,09:00-12:00 ,,,○,
10670,000144-9,100044,臺北成功郵局,臺北44支,(02)2704-3862,(02)2708-1087,(02)2708-5084,臺北市,大安區,四維路198巷38弄12號,121.54574000000001,25.0264,○,,○,,08:30-18:00 ,08:30-17:30 ,09:00-12:00 ,,,,
10548,000145-2,100045,松山機場郵局,臺北45支,(02)2713-3365,(02)2713-3365,(02)2716-5254,臺北市,松山區,敦化北路340-9號(松山機場內 ),121.552282,25.062204,○,,○,,08:30-17:00 ,08:30-17:00 ,09:00-12:00 ,,,,
10455,000146-6,100046,臺北長安郵局,臺北46支,(02)2506-8771,(02)2515-0399,(02)2506-0544,臺北市,中山區,長安東路2段97號,121.53511499999999,25.048505000000002,○,○,,,08:30-18:00 ,08:30-17:00 ,,,○,,
10364,000147-0,100047,臺北大同郵局,臺北47支,(02)2597-4508,(02)2594-1868,(02)2591-0819,臺北市,大同區,承德路3段83號,121.51865,25.065820000000002,○,,○,,08:30-17:30 ,08:30-17:00 ,09:00-12:00 ,,,,
10569,000148-3,100048,臺北西松郵局,臺北48支,(02)2769-7535,(02)2768-2358,(02)2746-5444,臺北市,松山區,南京東路5段311號,121.56671999999999,25.05172,○,,,,08:30-17:30 ,08:30-17:00 ,,,,,
11008,000149-7,100049,臺北市府郵局,臺北49支,(02)2720-0690,(02)2720-9930,(02)2720-0691,臺北市,信義區,市府路1號地下2樓(台北市政府內),121.56403999999999,25.037280000000003,○,,,,08:30-17:30 ,08:30-17:00 ,,,,,
10371,000150-9,100050,臺北大龍峒郵局,臺北50支,(02)2597-5098,(02)2586-0105,(02)2591-0824,臺北市,大同區,重慶北路3段338號,121.51368,25.07619,○,,,,08:30-17:00 ,08:30-17:00 ,,,,,
11086,000151-2,100051,臺北松德郵局,臺北51支,(02)2727-3686,(02)2726-3738,(02)2728-1154,臺北市,信義區,松德路300號,121.57414499999999,25.031875000000003,○,,,,08:30-17:30 ,08:30-17:00 ,,,,,
11151,000152-6,100052,士林天母郵局,臺北52支,(02)2871-8271,(02)2873-5072,(02)2875-3034,臺北市,士林區,中山北路7段130號,121.53204,25.1224,○,,○,,08:30-17:00 ,08:30-17:00 ,09:00-12:00 ,,,,
10691,000153-0,100053,臺北光武郵局,臺北53支,(02)2781-6693,(02)2721-1634,(02)2773-1424,臺北市,大安區,大安路1段52巷16號,121.5455,25.04297,○,○,○,,08:30-18:00 ,08:30-17:30 ,09:00-12:00 ,,,○,
11050,000154-3,100054,臺北吳興郵局,臺北54支,(02)2720-0060,(02)2722-3543,(02)2720-5084,臺北市,信義區,莊敬路418號之1,121.56647000000001,25.027060000000002,○,,○,,08:30-17:30 ,08:30-17:00 ,09:00-12:00 ,,,,
10468,000155-7,100055,臺北松江路郵局,臺北55支,(02)2521-6681,(02)2561-8954,(02)2581-5557,臺北市,中山區,松江路364號,121.5328,25.06213,○,,○,,08:30-18:00 ,08:30-17:30 ,09:00-12:00 ,,,,
10572,000156-1,100056,臺北延壽郵局,臺北56支,(02)2756-7232,(02)2768-3079,(02)2763-2541,臺北市,松山區,民生東路5段12號,121.556,25.0582,○,○,,,08:30-17:30 ,08:30-17:00 ,,,○,,
10674,000157-4,100057,臺北六張犁郵局,臺北57支,(02)2733-5532,(02)2733-0262,(02)2733-5294,臺北市,大安區,和平東路3段208號,121.553845,25.02281,○,,,,08:30-17:30 ,08:30-17:00 ,,,,,
10066,000158-8,100058,臺北小南門郵局,臺北58支,(02)2375-9856,(02)2375-9856,(02)2388-5053,臺北市,中正區,廣州街15號,121.50822,25.03588,○,,,,08:30-17:00 ,08:30-17:00 ,,,,,
11143,000159-1,100059,故宮郵局,臺北59支,(02)2881-8410,(02)2881-8410,(02)2883-3454,臺北市,士林區,至善路2段221號(故宮博物院內),121.549722,25.100277,○,○,○,○,08:30-18:30 ,08:30-17:00 ,08:30-20:30 ,08:30-18:30 ,○,,郵務業務：週一至週五：17:00-18:30未收寄各類掛號郵件，僅販售各類代售商品及集郵票品。週六、日：全日未收寄各類掛號郵件，僅販售代售商品及集郵票品。儲匯業務：週六、日：08:30-17:00，僅辦理外幣兌換。<br>
10359,000161-7,100061,臺北保安郵局,臺北61支,(02)2553-9692,(02)2553-9692,(02)2557-3420,臺北市,大同區,重慶北路2段183號,121.51381499999998,25.060575000000004,○,,,,08:30-17:00 ,08:30-17:00 ,,,,,
10041,000164-8,100064,臺北火車站郵局,臺北64支,(02)2311-4239,(02)2311-4239,(02)2389-6753,臺北市,中正區,北平西路3號(台北火車站內),121.51750999999999,25.047659999999997,○,○,○,,08:30-18:30 ,08:30-17:00 ,09:00-12:00 ,,○,,
10460,000165-1,100065,臺北圓山郵局,臺北65支,(02)2592-1606,(02)2592-1606,(02)2591-0780,臺北市,中山區,林森北路573號,121.52595,25.065080000000002,○,○,,,08:30-17:30 ,08:30-17:00 ,,,○,,
10459,000167-9,100067,臺北長春路郵局,臺北67支,(02)2521-6967,(02)2537-3821,(02)2567-1446,臺北市,中山區,長春路129號之2,121.530895,25.05501,○,,○,,08:30-18:00 ,08:30-17:30 ,09:00-12:00 ,,,,
10449,000168-2,100068,臺北民權郵局,臺北68支,(02)2571-6241,(02)2563-8027,(02)2567-1444,臺北市,中山區,民權西路22號,121.52156,25.062655,○,○,○,,08:30-18:00 ,08:30-17:00 ,09:00-12:00 ,,○,,
10849,000170-8,100070,臺北老松郵局,臺北70支,(02)2389-4549,(02)2389-4549,(02)2361-1513,臺北市,萬華區,桂林路51號,121.50407,25.03833,○,,,,08:30-17:00 ,08:30-17:00 ,,,,,
10091,000171-1,100071,臺北汀州郵局,臺北71支,(02)2363-7009,(02)2363-7009,(02)2363-4308,臺北市,中正區,汀州路3段301號,121.536,25.011805000000003,○,○,,,08:30-17:30 ,08:30-17:00 ,,,○,,
10070,000172-5,100072,臺北龍口郵局,臺北72支,(02)2309-9158,(02)2303-4060,(02)2307-8062,臺北市,中正區,和平西路2段68號,121.51173499999999,25.0288,○,,,,08:30-17:00 ,08:30-17:00 ,,,,,
11162,000173-9,100073,士林中正路郵局,臺北73支,(02)8866-6045,(02)8866-6047,(02)8866-6049,臺北市,士林區,中正路420號,121.51965,25.09349,○,,,,08:30-17:30 ,08:30-17:00 ,,,,,
10872,000174-2,100074,臺北萬大路郵局,臺北74支,(02)2301-2793,(02)2309-7442,(02)2301-9934,臺北市,萬華區,萬大路524號,121.49707499999998,25.019334999999995,○,,,,08:30-17:00 ,08:30-17:00 ,,,,,
11689,000175-6,100075,文山興隆路郵局,臺北75支,(02)2935-7813,(02)2931-8476,(02)2935-4594,臺北市,文山區,興隆路2段171號,121.54867,25.000709999999998,○,,,,08:30-17:00 ,08:30-17:00 ,,,,,
11169,000177-3,100077,士林後港郵局,臺北77支,(02)2883-7486,(02)2881-3600,(02)2883-4194,臺北市,士林區,福港街149巷2號,121.51803,25.087439999999997,○,,,,08:30-17:30 ,08:30-17:00 ,,,,,
11066,000178-7,100078,臺北永吉郵局,臺北78支,(02)2768-4410,(02)2762-0461,(02)2763-2543,臺北市,信義區,永吉路168號1樓,121.57079999999999,25.04552,○,,,,08:30-17:30 ,08:30-17:00 ,,,,,
10857,000179-1,100079,臺北華江橋郵局,臺北79支,(02)2302-0953,(02)2306-4473,(02)2306-6756,臺北市,萬華區,和平西路3段310號,121.49291,25.035345,○,○,,,08:30-17:30 ,08:30-17:00 ,,,○,,
11071,000180-2,100080,臺北逸仙郵局,臺北80支,(02)2729-0135,(02)2720-8917,(02)2720-5134,臺北市,信義區,逸仙路46號,121.5617,25.040570000000002,○,,,,08:30-17:30 ,08:30-17:00 ,,,,,
10595,000181-6,100081,臺北體育場郵局,臺北81支,(02)2752-5760,(02)2781-9214,(02)2773-1572,臺北市,松山區,儲匯：南京東路3段346號  郵務：南京東路3段346號後棟,121.54782,25.05158,○,,,,08:30-18:00 ,08:30-17:30 ,,,,,
10655,000182-0,100082,臺北正義郵局,臺北82支,(02)2778-2422,(02)2752-8005,(02)2773-1420,臺北市,大安區,忠孝東路3段150、152、154號,121.5382,25.04151,○,,○,,08:30-17:30 ,08:30-17:00 ,09:00-12:00 ,,,,
11148,000183-3,100083,士林蘭雅郵局,臺北83支,(02)2832-6924,(02)2832-6924,(02)2833-5824,臺北市,士林區,忠誠路1段52號,121.52693000000001,25.10472,○,,,,08:30-17:30 ,08:30-17:00 ,,,,,
10053,000184-7,100084,臺北杭南郵局,臺北84支,(02)2393-8719,(02)2393-8719,(02)2356-3092,臺北市,中正區,杭州南路1段23號之3,121.526535,25.04223,○,,,,08:30-17:30 ,08:30-17:00 ,,,,,
11102,000186-4,100086,東吳大學郵局,臺北86支,(02)2881-5624,(02)2881-5624,(02)2883-4184,臺北市,士林區,臨溪路70號(東吳大學內),121.54534000000001,25.09468,○,,,,08:30-17:00 ,08:30-17:00 ,,,,,配合東吳大學107年春假學術交流週作息，於107年3月31日(星期六)停止營業，並於4月2日（星期一）及4月3日（星期二）停止營業。<br>
10589,000187-8,100087,臺北民生郵局,臺北87支,(02)2766-2575,(02)2764-4790,(02)2767-2085,臺北市,松山區,民生東路5段191號,121.565365,25.059265,○,,○,,08:30-18:00 ,08:30-17:30 ,09:00-12:00 ,,,,
10607,000190-7,100090,臺灣科大郵局,臺北90支,(02)2733-1071,(02)2733-1071,(02)2733-5274,臺北市,大安區,基隆路4段43號(台灣科技大學內),121.54087999999999,25.01418,○,,,,08:30-17:00 ,08:30-17:00 ,,,,,配合國立臺灣科技大學校際活動週期間作息，於107年4月2日（星期一）及4月3日（星期二）停止營業。<br>
10603,000191-1,100091,臺北金南郵局,臺北91支,(02)2394-0804,(02)2394-0804,(02)2396-0176,臺北市,大安區,愛國東路216號,121.524995,25.031769999999998,○,○,○,,08:30-17:30 ,08:30-17:30 ,09:00-12:00 ,,○,,大宗郵件受理至21：00時<br>
10048,000192-4,100092,臺北中正堂郵局,臺北92支,(02)2394-2715,(02)2394-2715,(02)2356-3081,臺北市,中正區,中山南路21號(中正紀念堂內),121.52214000000001,25.03466,○,,○,,09:00-17:00 ,09:00-17:00 ,09:00-12:00 ,,,,
11681,000193-8,100093,文山武功郵局,臺北93支,(02)2935-6135,(02)2931-4860,(02)2935-0004,臺北市,文山區,羅斯福路5段147號,121.53897699999999,25.0042335,○,,○,,08:30-17:00 ,08:30-17:00 ,09:00-12:00 ,,,,
10881,000195-5,100095,臺北青年郵局,臺北95支,(02)2309-8054,(02)2309-8054,(02)2307-8306,臺北市,萬華區,國興路34、36、38號,121.5078245,25.024929000000004,○,,○,,08:30-17:00 ,08:30-17:00 ,09:00-12:00 ,,,,
10680,000196-9,100096,臺北安和郵局,臺北96支,(02)2704-9228,(02)2708-5519,(02)2708-5074,臺北市,大安區,安和路2段61、63號,121.55257,25.031119999999998,○,,,,08:30-18:00 ,08:30-17:30 ,,,,,
11677,000197-2,100097,文山萬盛郵局,臺北97支,(02)2932-0183,(02)2932-0183,(02)2935-0044,臺北市,文山區,汀州路4段88號(師大分部內),121.53721600000002,25.008183999999993,○,,,,08:30-17:00 ,08:30-17:00 ,,,,,配合臺灣師範大學107年校際活動日作息，於107<br>年4月2日（星期一）及4月3日（星期二）停止營業。<br>
11061,000199-0,100099,臺北永春郵局,臺北99支,(02)8788-1850,(02)8788-1850-31,(02)2720-5054,臺北市,信義區,忠孝東路5段464、466號,121.57656089999998,25.040625400000007,○,,○,,08:30-17:30 ,08:30-17:00 ,09:00-12:00 ,,,,
10051,000200-1,100100,監察院郵局,臺北100支,(02)2392-5345,(02)2392-5345,(02)2356-8823,臺北市,中正區,忠孝東路1段2號(監察院東側，面向鎮江街),121.52028,25.04505,○,,,,08:30-17:00 ,08:30-17:00 ,,,,,
10543,000201-5,100101,臺北榮星郵局,臺北101支,(02)2712-7615,(02)2715-4680,(02)2718-1975,臺北市,松山區,民權東路3段124之1、2號,121.54573,25.0618895,○,○,○,,08:30-18:00 ,08:30-17:30 ,09:00-12:00 ,,,○,
10466,000204-6,100104,臺北北安郵局,臺北104支,(02)2532-9100,(02)2532-0537,(02)2532-3064,臺北市,中山區,北安路630巷10號,121.549815,25.082700000000003,○,,,,08:30-17:00 ,08:30-17:00 ,,,,,
11154,000205-0,100105,士林芝山郵局,臺北105支,(02)2836-3191,(02)2836-3191,(02)2833-5804,臺北市,士林區,士東路286巷36號,121.53765700000001,25.111253,○,,,,08:30-17:00 ,08:30-17:00 ,,,,,
11154,000206-3,100106,士林法院郵局,臺北106支,(02)2836-6049,(02)2836-6049,(02)2833-5814,臺北市,士林區,士東路190號,121.533095,25.112386,○,,,,08:30-17:00 ,08:30-17:00 ,,,,,
10042,000207-7,100107,臺北中山堂郵局,臺北107支,(02)2314-8490,(02)2314-8490,(02)2311-3438,臺北市,中正區,中華路1段53號,121.50888599999999,25.043493,○,,,,08:30-17:00 ,08:30-17:00 ,,,,,
10688,000208-1,100108,臺北敦南郵局,臺北108支,(02)2771-5334,(02)2771-5334,(02)2740-3124,臺北市,大安區,忠孝東路4段170巷9號,121.550885,25.04062,○,○,,,08:30-18:00 ,08:30-17:30 ,,,,○,
11011,000209-4,100109,臺北世貿郵局,臺北109支,(02)2725-2479,(02)2725-2479,(02)2720-5034,臺北市,信義區,信義路5段5號(世貿中心內),121.56177699999999,25.033206000000007,○,,,,08:30-17:00 ,08:30-17:00 ,,,,,配合第26屆臺北國際書展，該局儲匯營業時間調整如下：本(107)年2月6日至8日：08:30-20:00;2月9日：08:30-22:00；2月10日：10:30-22:00;2月11日：10:30-20:00。(郵務營業時間則維持不變)<br>
10065,000210-6,100110,臺北南門郵局,臺北110支,(02)2331-6433,(02)2331-6433,(02)2389-6711,臺北市,中正區,廣州街2號,121.51013450000002,25.034982499999998,○,,,,08:30-17:00 ,08:30-17:00 ,,,,,
11698,000211-0,100111,文山萬芳郵局,臺北111支,(02)2230-5857,(02)2230-5857,(02)2239-0004,臺北市,文山區,興隆路3段178、180號,121.5585495,24.998058499999996,○,,,,08:30-17:00 ,08:30-17:00 ,,,,,
10480,000212-3,100112,臺北興安郵局,臺北112支,(02)2504-3662,(02)2504-3662,(02)2508-3144,臺北市,中山區,復興北路210、212號,121.5438655,25.056402500000004,○,○,,,08:30-18:00 ,08:30-17:00 ,,,○,,
10002,000215-4,100115,臺大醫院郵局,臺北115支,(02)2397-3983,(02)2397-3983,(02)2395-2381,臺北市,中正區,中山南路7號(台大醫院內),121.51859,25.04083,○,,,,08:30-17:00 ,08:30-17:00 ,,,,,
11144,000216-8,100116,士林外雙溪郵局,臺北116支,(02)2841-1174,(02)2841-1174,(02)2841-3304,臺北市,士林區,明溪街15號,121.5651755,25.106932999999994,○,,,,08:30-12:30 13:30-17:00,08:30-12:30 13:30-17:00,,,,,
10658,000217-1,100117,臺北大安郵局,臺北117支,(02)2704-4318,(02)2705-3234,(02)2702-4063,臺北市,大安區,信義路3段89號,121.53829939999999,25.033747399999996,○,,○,,08:30-17:30 ,08:30-17:00 ,09:00-12:00 ,,,,
10574,000218-5,100118,臺北臺塑郵局,臺北118支,(02)2719-3473,(02)2719-3473,(02)2546-5684,臺北市,松山區,民生東路4段54之2號,121.551388,25.057777,○,○,,,08:30-18:00 ,08:30-17:00 ,,,○,,
10055,000220-1,100120,臺北中聯郵局,臺北120支,(02)2356-6485,(02)2356-6485,(02)2356-0108,臺北市,中正區,徐州路5號地下一樓(中央聯合辦公大樓內),121.51977250000002,25.042218499999997,○,,,,08:30-17:00 ,08:30-17:00 ,,,,,
10476,000221-4,100121,臺北龍江路郵局,臺北121支,(02)2501-6754,(02)2501-6754,(02)2502-5034,臺北市,中山區,龍江路335號,121.541111,25.063333,○,,,,08:30-17:00 ,08:30-17:00 ,,,,,
10462,000222-8,100122,國防部郵局,臺北122支,(02)8509-9866,(02)8509-9866,(02)8509-9868,臺北市,中山區,北安路409號,121.54089499999999,25.083102,○,,,,09:00-17:00 ,09:00-17:00 ,,,,,配合國防部於本(106)年9月3日軍人節次日補假1日，擬於9月4日(星期一)停止營業1天。<br>
11166,000223-1,100123,士林劍潭郵局,臺北123支,(02)2885-9559,(02)2885-6043,(02)2885-6816,臺北市,士林區,基河路14號,121.523912,25.081770000000006,○,○,,,08:30-17:30 ,08:30-17:00 ,,,○,,
11291,000224-5,100124,陽明山郵局,臺北124支,(02)2861-6151,(02)2861-6171,(02)2861-5454,臺北市,北投區,紗帽路139之1號,121.545773,25.15132,○,,,,08:30-17:00 ,08:30-17:00 ,,,,,
11114,000225-9,100125,文化大學郵局,臺北125支,(02)2861-5880,(02)2861-5880,(02)2861-7044,臺北市,士林區,華岡路55號,121.540555,25.137499,○,,,,08:30-17:00 ,08:30-17:00 ,,,,,為配合文化大學寒假期間作息，該局於107年2月9日(星期五)至2月14日(星期三)停止營業。<br>
11172,000226-2,100126,士林社新里郵局,臺北126支,(02)2811-9944,(02)2812-1099,(02)2812-5514,臺北市,士林區,延平北路6段197號,121.505725,25.08941,○,,,,08:30-17:00 ,08:30-17:00 ,,,,,
11058,000228-0,100128,臺北信義郵局,臺北128支,(02)2725-3080,(02)2725-3080,(02)8780-2739,臺北市,信義區,松廉路76號(信義投遞中心),121.567045,25.033894999999998,○,,,,08:30-17:00 ,08:30-17:00 ,,,,,
11142,000229-3,100129,士林名山里郵局,臺北129支,(02)2838-6703,(02)2838-6703,(02)2833-3554,臺北市,士林區,至誠路2段70號,121.52814500000001,25.101685,○,,,,08:30-17:00 ,08:30-17:00 ,,,,,
11246,000231-9,100131,北投郵局,臺北131支,(02)2893-2922,(02)2891-2420,(02)2895-7222,臺北市,北投區,光明路181號,121.503033,25.135815500000003,○,,○,,08:30-18:00 ,08:30-17:30 ,09:00-12:00 ,,,,統一發票兌領時間為08:30至17:30<br>
11267,000233-6,100133,北投石牌郵局,臺北133支,(02)2821-4449,(02)2821-4449,(02)2821-3334,臺北市,北投區,石牌路2段93-2號,121.51630240000001,25.1173954,○,,○,,08:30-17:00 ,08:30-17:00 ,09:00-12:00 ,,,,
11260,000234-0,100134,北投關渡郵局,臺北134支,(02)2858-1260,(02)2858-1260,(02)2858-2374,臺北市,北投區,知行路293巷9弄11號,121.46691840000001,25.12170240000001,○,,,,08:30-17:00 ,08:30-17:00 ,,,,,
11263,000235-3,100135,北投舊北投郵局,臺北135支,(02)2891-3104,(02)2891-3104,(02)2895-7244,臺北市,北投區,中央南路1段201號,121.5012955,25.128515499999995,○,,,,08:30-17:00 ,08:30-17:00 ,,,,,
11217,000236-7,100136,北投榮總郵局,臺北136支,(02)2872-6742,(02)2872-6742,(02)2875-3054,臺北市,北投區,石牌路2段201號,121.51929000000001,25.1192,○,,,,09:00-17:00 ,09:00-17:00 ,,,,,
11287,000237-1,100137,北投文林郵局,臺北137支,(02)2827-3044,(02)2827-3044,(02)2827-7514,臺北市,北投區,文林北路96號,121.51773500000002,25.105729499999995,○,,,,08:30-17:00 ,08:30-17:00 ,,,,,
11252,000238-4,100138,北投山腳郵局,臺北138支,(02)2891-1520,(02)2891-1520,(02)2895-7744,臺北市,北投區,中和街408號,121.497997,25.143882999999995,○,,,,08:30-17:00 ,08:30-17:00 ,,,,,
11276,000239-8,100139,北投實踐郵局,臺北139支,(02)2822-3054,(02)2822-3054,(02)2821-3314,臺北市,北投區,實踐街48巷11號,121.5090695,25.114719000000004,○,,,,08:30-17:00 ,08:30-17:00 ,,,,,
11290,000240-0,100140,北投致遠郵局,臺北140支,(02)2823-0602,(02)2823-0602,(02)2823-5834,臺北市,北投區,致遠一路1段121號,121.51489,25.110049999999998,○,,,,08:30-17:00 ,08:30-17:00 ,,,,,
11253,000241-3,100141,北投文化郵局,臺北141支,(02)2891-0330,(02)2891-0330,(02)2895-7044,臺北市,北投區,文化三路8號,121.49662149999999,25.137120500000005,○,,,,08:30-17:00 ,08:30-17:00 ,,,,,
11280,000242-7,100142,北投明德郵局,臺北142支,(02)2822-6347,(02)2822-6347,(02)2821-3304,臺北市,北投區,明德路210號,121.5221849,25.1132104,○,,,,08:30-17:00 ,08:30-17:00 ,,,,,
11275,000243-1,100143,北投尊賢郵局,臺北143支,(02)2821-5141,(02)2821-5141,(02)2821-3414,臺北市,北投區,尊賢街247-4號,121.50689650000001,25.1175555,○,,,,08:30-17:00 ,08:30-17:00 ,,,,,
11245,000244-4,100144,北投奇岩郵局,臺北144支,(02)2892-8444,(02)2892-8444,(02)2895-7844,臺北市,北投區,公館路271號,121.50762700000001,25.125145499999995,○,,,,08:30-17:00 ,08:30-17:00 ,,,,,
11258,000245-8,100145,北投豐年郵局,臺北145支,(02)2893-3596,(02)2893-3596,(02)2895-7644,臺北市,北投區,中央北路2段329號,121.488983,25.138332,○,,,,08:30-17:00 ,08:30-17:00 ,,,,,
11257,000246-1,100146,北投一德郵局,臺北146支,(02)2892-1518,(02)2892-1518,(02)2895-7544,臺北市,北投區,中央北路4段529號,121.4679278,25.12782730000001,○,,,,08:30-17:00 ,08:30-17:00 ,,,,,
11221,000247-5,100147,陽明大學郵局,臺北147支,(02)2821-6416,(02)2821-6416,(02)2823-0274,臺北市,北投區,立農街2段155號,121.513426,25.119152500000002,○,,,,09:00-17:00 ,09:00-17:00 ,,,,,為配合陽明大學寒假期間作息，該局於107年2月14日(星期三)停止營業。<br>
11466,000248-9,100148,內湖郵局,臺北148支,(02)2790-1070-13,(02)2790-1070-11,(02)2791-4374,臺北市,內湖區,民權東路6段83號,121.588045,25.069294999999997,○,○,○,,08:30-19:00 ,08:30-17:30 ,09:00-12:00 ,,○,,統一發票兌領時間為08:30至15:30<br>
11464,000249-2,100149,內湖碧湖郵局,臺北149支,(02)2792-2674,(02)2795-4215,(02)2792-1774,臺北市,內湖區,內湖路2段225號,121.58896940000001,25.081848400000005,○,,,,08:30-17:00 ,08:30-17:00 ,,,,,
11470,000250-4,100150,內湖週美郵局,臺北150支,(02)2791-0759,(02)2791-0759,(02)2792-1664,臺北市,內湖區,新明路380巷4弄4號,121.58013,25.05512,○,,,,08:30-17:00 ,08:30-17:00 ,,,,,
11475,000251-8,100151,內湖文德郵局,臺北151支,(02)2797-3893,(02)2627-0039,(02)2627-7694,臺北市,內湖區,文德路26號,121.57985,25.07836,○,,○,,08:30-17:30 ,08:30-17:00 ,09:00-12:00 ,,,,
11454,000252-1,100152,內湖金龍郵局,臺北152支,(02)2790-3378,(02)2790-3378,(02)2792-1654,臺北市,內湖區,內湖路3段131號,121.58988500000001,25.086865,○,,,,08:30-17:00 ,08:30-17:00 ,,,,,
11444,000253-5,100153,內湖西湖郵局,臺北153支,(02)2798-7290,(02)2799-1342,(02)2627-6494,臺北市,內湖區,內湖路1段331號,121.56822,25.082328000000004,○,,,,08:30-17:30 ,08:30-17:00 ,,,,,
11480,000254-9,100154,內湖東湖郵局,臺北154支,(02)2633-3525,(02)2632-3853,(02)2631-2484,臺北市,內湖區,康樂街16號,121.61787,25.068270000000002,○,,,,08:30-17:30 ,08:30-17:00 ,,,,,
11481,000255-2,100155,內湖大湖郵局,臺北155支,(02)2792-6045,(02)2792-6045,(02)2792-1544,臺北市,內湖區,大湖街166巷2號,121.600455,25.084339999999997,○,,,,08:30-17:00 ,08:30-17:00 ,,,,,
11492,000256-6,100156,內湖江南郵局,臺北156支,(02)2657-2428,(02)2657-2428,(02)2627-7424,臺北市,內湖區,瑞光路316巷1號,121.57406789999999,25.076556400000005,○,,,,08:30-17:00 ,08:30-17:00 ,,,,,
11442,000257-0,100157,內湖北勢湖郵局,臺北157支,(02)2799-4021,(02)2799-4021,(02)2627-7514,臺北市,內湖區,內湖路1段91巷2-1號,121.56147500000002,25.08475,○,,,,08:30-17:00 ,08:30-17:00 ,,,,,
11494,000258-3,100158,內湖舊宗郵局,臺北158支,(02)2792-7970,(02)2792-7970,(02)2794-2585,臺北市,內湖區,舊宗路1段189號,121.577611,25.062599999999996,○,,,,08:30-17:00 ,08:30-17:00 ,,,,,
11486,000259-7,100159,內湖康寧郵局,臺北159支,(02)2633-4746,(02)2633-4746,(02)2631-4625,臺北市,內湖區,康寧路3段22號之1,121.60782,25.072315,○,,,,08:30-17:00 ,08:30-17:00 ,,,,,
11490,000260-9,100160,內湖三總郵局,臺北160支,(02)8791-2867,(02)8791-2867,(02)8791-6549,臺北市,內湖區,成功路2段325號2樓,121.59244999999999,25.07134,○,,,,08:30-17:00 ,08:30-17:00 ,,,,,
11558,000261-2,100161,南港昆陽郵局,臺北161支,(02)2651-4945,(02)2651-4945,(02)2788-1484,臺北市,南港區,忠孝東路6段400、402、404、406號,121.59268550000002,25.049840500000002,○,○,○,,08:30-17:30 ,08:30-17:00 ,09:00-12:00 ,,,○,
11574,000262-6,100162,中研院郵局,臺北162支,(02)2782-3553,(02)2788-0823,(02)2783-5284,臺北市,南港區,研究院路2段108號,121.6165955,25.042757,○,,○,,08:30-17:30 ,08:30-17:00 ,09:00-12:00 ,,,,
11554,000264-3,100164,南港港三郵局,臺北164支,(02)2783-1409,(02)2783-1409,(02)2782-5394,臺北市,南港區,南港路3段184號,121.587049,25.053165500000002,○,,,,08:30-17:00 ,08:30-17:00 ,,,,,
11571,000265-7,100165,南港富康郵局,臺北165支,(02)2783-7204,(02)2783-7204,(02)2783-5204,臺北市,南港區,研究院路1段44號,121.616085,25.053535,○,,,,08:30-17:00 ,08:30-17:00 ,,,,,
11556,000266-1,100166,南港同德郵局,臺北166支,(02)2653-4350,(02)2786-8549,(02)2783-5254,臺北市,南港區,同德路85巷2號,121.58552,25.046374999999998,○,,,,08:30-17:00 ,08:30-17:00 ,,,,,
11579,000267-4,100167,南港郵局,臺北167支,(02)2785-0141,(02)2785-0141,(02)2782-5324,臺北市,南港區,南港路2段78號,121.6034579,25.053915899999996,○,,○,,08:30-18:00 ,08:30-17:30 ,09:00-12:00 ,,,,
11555,000268-8,100168,南港福德郵局,臺北168支,(02)2785-1709,(02)2785-1709,(02)2782-5174,臺北市,南港區,福德街314、316號,121.58776499999999,25.039460000000002,○,,,,08:30-17:00 ,08:30-17:00 ,,,,,
11575,000269-1,100169,南港後山埤郵局,臺北169支,(02)2786-7814,(02)2786-7814,(02)2782-5134,臺北市,南港區,忠孝東路5段994號,121.58296,25.04503,○,,,,08:30-17:00 ,08:30-17:00 ,,,,,
11648,000270-3,100170,木柵郵局,臺北170支,(02)2939-2781-20,(02)2939-2781-11,(02)2939-8514,臺北市,文山區,木柵路3段27號,121.5654183,24.988481299999986,○,,○,,08:30-18:00 ,08:30-17:30 ,09:00-12:00 ,,,,
11651,000271-7,100171,文山指南郵局,臺北171支,(02)2939-3767,(02)2939-3767,(02)2936-2484,臺北市,文山區,指南路2段115號,121.57591499999998,24.987730000000003,○,,,,08:30-17:00 ,08:30-17:00 ,,,,,
11645,000272-1,100172,文山溝子口郵局,臺北172支,(02)2236-0561,(02)2236-0561,(02)2236-1074,臺北市,文山區,木柵路1段119號,121.5481099,24.987348900000008,○,,,,08:30-17:30 ,08:30-17:00 ,,,,,
11659,000273-4,100173,文山木新郵局,臺北173支,(02)2936-0439,(02)2938-6373,(02)2937-3424,臺北市,文山區,木新路3段329號,121.55621,24.980425,○,,,,08:30-17:00 ,08:30-17:00 ,,,,,
22342,000274-8,100174,石碇郵局,臺北174支,(02)2663-1833,(02)2663-1833,(02)2663-2034,新北市,石碇區,碇坪路1段78-80號,121.673002,25.007688,○,,,,08:30-12:30 13:00-16:30,08:30-12:30 13:00-16:30,,,,,
22244,000275-1,100175,深坑郵局,臺北175支,(02)2662-1005,(02)2662-1005,(02)2662-5894,新北市,深坑區,北深路3段30號,121.60979999999999,25.001780000000004,○,,,,08:30-17:00 ,08:30-17:00 ,,,,,
11604,000276-5,100176,世新大學郵局,臺北176支,(02)2236-4310,(02)2236-4310,(02)2236-1944,臺北市,文山區,木柵路1段17巷1號,121.54641500000001,24.990015,○,,,,08:30-17:00 ,08:30-17:00 ,,,,,配合世新大學「世新週」期間作息，於107年4月2日（星期一）及4月3日（星期二）停止營業。<br>
10052,000277-9,100177,臺北仁杭郵局,臺北177支,(02)2395-5573,(02)2395-5573,(02)2395-5581,臺北市,中正區,杭州南路１段24號1樓(交通部大樓國際會議廳),121.52491500000001,25.03802,○,,,,08:30-17:00 ,08:30-17:00 ,,,,,
11658,000278-2,100178,文山樟腳里郵局,臺北178支,(02)2939-9424,(02)2939-9424,(02)2939-5144,臺北市,文山區,木新路3段25號,121.56491,24.982575,○,,,,08:30-17:00 ,08:30-17:00 ,,,,,
11605,000279-6,100179,政大郵局,臺北179支,(02)2938-7146,(02)2938-7146,(02)2939-7464,臺北市,文山區,指南路2段64號(國立政治大學藝文中心內),121.57586570000001,24.987511199999997,○,,,,09:00-12:30 ,09:00-12:30 ,,,,,為配合國立政治大學寒假期間作息，該局於107年2月14日(星期三)及2月21日(星期三)停止營業。<br>
22301,000280-8,100180,石碇華梵大學郵局,臺北180支,(02)2663-2697,(02)2663-2697,(02)2663-2902,新北市,石碇區,豐田里華梵路1號,121.692123,24.980779,○,,,,08:30-12:30 13:00-16:30,08:30-12:30 13:00-16:30,,,,,配合華梵大學校際活動日作息，於107年3月31日（星期六）停止營業。<br>
22241,000281-1,100181,深坑草地尾郵局,臺北181支,(02)2664-2140,(02)2664-2140,(02)2664-2825,新北市,深坑區,北深路3段264號之1,121.5991626,25.004663600000004,○,,,,08:30-17:00 ,08:30-17:00 ,,,,,
22641,000282-5,100182,平溪郵局,臺北182支,(02)2495-1062,(02)2495-1062,(02)2495-1004,新北市,平溪區,平溪街42號,121.7382375,25.026460000000004,○,,,,08:30-12:30 13:00-16:30,08:30-12:30 13:00-16:30,,,,,
11665,000283-9,100183,文山萬美街郵局,臺北183支,(02)2230-8803,(02)2230-8803,(02)2230-8793,臺北市,文山區,萬美街1段51號,121.568,25.0023,○,,,,08:30-17:00 ,08:30-17:00 ,,,,,
89345,000284-2,100184,金門郵局,臺北184支,(082)325-823,(082)325-823,(082)321-667,金門縣,金城鎮,民生路４號,118.31735,24.43376,○,,○,,08:00-17:00 ,08:30-17:00 ,09:00-12:00 ,,,,
89049,000285-6,100185,金門沙美郵局,臺北185支,(082)352-557,(082)352-557,(082)352-667,金門縣,金沙鎮,國中路21號,118.4114755,24.48887,○,,,,08:00-12:00 13:00-16:30,08:00-12:00 13:00-16:30,,,,,
89250,000286-0,100186,金門頂堡郵局,臺北186支,(082)325-787,(082)325-787,(082)322-744,金門縣,金寧鄉,頂堡52號,118.33599000000001,24.447920000000003,○,,,,08:00-12:00 13:00-16:30,08:00-12:00 13:00-16:30,,,,,
89441,000287-3,100187,金門烈嶼郵局,臺北187支,(082)362-171,(082)362-171,(082)363-167,金門縣,烈嶼鄉,林湖村西宅7之5號,118.243987,24.430222000000004,○,,,,08:30-16:30 ,08:30-16:30 ,,,,,
89146,000288-7,100188,金門尚義郵局,臺北188支,(082)311-955,(082)311-955,(082)311-956,金門縣,金湖鎮,尚義機場2號,118.36291999999999,24.433385,○,,,,08:30-12:30 13:00-16:30,08:30-12:30 13:00-16:30,,,,,
20941,000289-1,100189,馬祖郵局,臺北189支,(0836)22050,(0836)22050,(083)625-443,連江縣,南竿鄉,福沃村141號,119.940741,26.157792,○,,○,,08:00-17:00 ,08:30-17:00 ,09:00-12:00 ,,,,
20942,000290-2,100190,馬祖馬港郵局,臺北190支,(083)622-217,(083)622-217,(083)625-556,連江縣,南竿鄉,馬祖村51-2號,119.9152805,26.160572500000004,○,,,,08:00-12:00 13:30-17:00,08:00-12:00 13:30-17:00,,,,,
11503,000291-6,100191,南港軟體園區郵局,臺北191支,(02)2785-5033,(02)2785-5033,(02)2785-5370,臺北市,南港區,園區街3-2號H棟1樓,121.61186,25.05846,○,,,,08:30-17:30 ,08:30-17:00 ,,,,,
10462,000292-0,100192,臺北樂群二路郵局,臺北192支,(02)85023327,(02)85023327,(02)85020918,臺北市,中山區,樂群二路147號,121.557222,25.079999,○,,,,08:30-17:00 ,08:30-17:00 ,,,,,
89142,000350-0,100250,金門山外郵局,臺北250支,0823-33741,0823-33741,0823-31666,金門縣,金湖鎮,林森路39號,118.413589,24.441901,○,,,,08:00-17:00 ,08:30-17:00 ,,,,,
21141,000353-1,100253,馬祖西莒郵局,臺北253支,(0836)88170,(0836)88170,(0836)89144,連江縣,莒光鄉,西莒青帆村17號,119.972172,25.960157,○,,,,08:30-12:30 13:00-16:30,08:30-12:30 13:00-16:30,,,,,
21041,000354-4,100254,馬祖北竿郵局,臺北254支,(0836)55363,(0836)55363,(0836)56430,連江縣,北竿鄉,塘岐村256號,119.99182,26.225296,○,,○,,07:30-12:00 13:00-17:00,08:30-12:00 13:00-17:00,08:00-11:00 ,,,,周六郵務營業時間07:30-11:00<br>
21241,000356-1,100256,馬祖東引郵局,臺北256支,(0836)77276,(0836)77276,(0836)77244,連江縣,東引鄉,樂華村69號,120.494105,26.364958,○,,○,,08:30-12:00 13:00-17:00,08:30-12:00 13:00-17:00,09:00-12:00 ,,,,每月僅第1週及第3週週六營業。<br>
89641,000357-5,100257,金門烏坵郵局,臺北257支,(0826)66038,(0826)66038,(0826)66037,金門縣,烏坵鄉,大坵村,118.307569,24.415216,○,,,,08:30-12:30 13:00-16:30,08:30-12:30 13:00-16:30,,,,,
21191,000355-8,100255,馬祖東莒郵局,臺北255支,(0836)89036,(0836)89036,(0836)89044,連江縣,莒光鄉,東莒大坪村55號,119.972172,25.960157,○,,,,08:30-12:30 13:00-16:30,08:30-12:30 13:00-16:30,,,,,
20047,001100-2,200450,基隆愛三路郵局,基隆901支,(02)2421-0123-173,(02)2421-0148,(02)2422-3188,基隆市,仁愛區,愛三路130號1F,121.74387,25.130115,○,○,○,,08:30-19:00 ,08:30-19:00 ,09:00-12:00 ,,,○,
20248,001101-6,200001,基隆港東郵局,基隆1支,(02)2421-0156,(02)2421-0156,(02)2429-1614,基隆市,中正區,中正路56號,121.74538089999999,25.13417589999999,○,,,,08:30-17:00 ,08:30-17:00 ,,,,,
20041,001102-0,200002,基隆港西街郵局,基隆2支,(02)2421-0157,(02)2421-0157,(02)2429-1624,基隆市,仁愛區,港西街10號,121.74063,25.13379,○,,,,08:30-17:00 ,08:30-17:00 ,,,,,
20645,001103-3,200003,基隆七堵郵局,基隆3支,(02)2456-1286,(02)2456-1286,(02)2456-8344,基隆市,七堵區,明德一路171號,121.71267549999999,25.097055500000007,○,,○,,08:30-17:30 ,08:30-17:00 ,09:00-12:00 ,,,,
20248,001104-7,200004,基隆中正郵局,基隆4支,(02)2462-3324,(02)2462-3324,(02)2463-2004,基隆市,中正區,中正路393巷18號,121.766096,25.151085,○,,,,08:30-12:00 13:00-17:00,08:30-12:00 13:00-17:00,,,,,
20341,001105-1,200005,基隆新民郵局,基隆5支,(02)2421-0158,(02)2421-0158,(02)2429-1634,基隆市,中山區,新民路19號,121.7363,25.130480000000002,○,,,,08:30-17:00 ,08:30-17:00 ,,,,,
20246,001106-4,200006,基隆和平島郵局,基隆6支,(02)2462-2371,(02)2462-2371,(02)2463-2014,基隆市,中正區,和一路129號,121.76371499999999,25.154940000000007,○,,,,08:30-17:00 ,08:30-17:00 ,,,,,
20224,001107-8,200007,海洋大學郵局,基隆7支,(02)2462-1990,(02)2462-1990,(02)2463-2024,基隆市,中正區,北寧路2號,121.772736,25.150905500000004,○,,,,08:30-17:00 ,08:30-17:00 ,,,,,
20542,001108-1,200008,基隆過港路郵局,基隆8支,(02)2457-2339,(02)2457-2339,(02)2457-9074,基隆市,暖暖區,過港路58號,121.73765999999999,25.10529,○,,,,08:30-17:00 ,08:30-17:00 ,,,,,
20042,001109-5,200009,基隆孝三路郵局,基隆9支,(02)2421-0159,(02)2421-0159,(02)2429-1654,基隆市,仁愛區,孝三路62號,121.73955,25.13049,○,,,,08:30-17:00 ,08:30-17:00 ,,,,,
20342,001110-7,200010,基隆中山郵局,基隆10支,(02)2421-0160,(02)2421-0160,(02)2429-1674,基隆市,中山區,中華路3號,121.73840950000002,25.145283499999998,○,,,,08:30-17:00 ,08:30-17:00 ,,,,,
20249,001111-1,200011,基隆八斗子郵局,基隆11支,(02)2469-2134,(02)2469-2134,(02)2469-5014,基隆市,中正區,八斗街14號,121.79611100000001,25.139901000000002,○,,,,08:30-17:00 ,08:30-17:00 ,,,,,
20147,001112-4,200012,基隆信義郵局,基隆12支,(02)2421-0161,(02)2421-0161,(02)2429-1684,基隆市,信義區,信二路178號,121.75322149999998,25.129536999999996,○,,,,08:30-17:00 ,08:30-17:00 ,,,,,
20145,001113-8,200013,基隆東信路郵局,基隆13支,(02)2465-7502,(02)2465-7502,(02)2465-0195,基隆市,信義區,東信路123號,121.76360799999999,25.128255,○,,,,08:30-17:00 ,08:30-17:00 ,,,,,
20647,001114-1,200014,基隆六堵郵局,基隆14支,(02)2451-2153,(02)2451-2153,(02)2451-6484,基隆市,七堵區,工東街64號,121.70379550000001,25.0882435,○,,,,08:30-17:00 ,08:30-17:00 ,,,,,
20248,001115-5,200015,基隆安瀾橋郵局,基隆15支,(02)2462-1989,(02)2462-1989,(02)2463-2034,基隆市,中正區,中正路330號,121.76087,25.14346,○,,,,08:30-17:00 ,08:30-17:00 ,,,,,
20048,001116-9,200016,基隆仁二路郵局,基隆16支,(02)2421-0162,(02)2421-0162,(02)2429-1694,基隆市,仁愛區,仁二路19號,121.75046,25.127595000000003,○,,,,08:30-17:00 ,08:30-17:00 ,,,,,
20043,001117-2,200017,基隆光二路郵局,基隆17支,(02)2431-8895,(02)2431-8895,(02)2432-6404,基隆市,仁愛區,光二路1號,121.73707499999999,25.127290000000002,○,,,,08:30-17:00 ,08:30-17:00 ,,,,,
20447,001118-6,200018,基隆樂利郵局,基隆18支,(02)2432-8638,(02)2432-8638,(02)2432-8640,基隆市,安樂區,樂利三街261號,121.71522999999999,25.127693999999995,○,,,,08:30-17:00 ,08:30-17:00 ,,,,,
20045,001119-0,200019,基隆南榮路郵局,基隆19支,(02)2421-0163,(02)2421-0163,(02)2429-1734,基隆市,仁愛區,南榮路20號,121.742415,25.125735,○,,,,08:30-17:00 ,08:30-17:00 ,,,,,
20545,001120-1,200020,基隆碇內郵局,基隆20支,(02)2457-6082,(02)2457-6082,(02)2457-9084,基隆市,暖暖區,源遠路341號,121.75833999999999,25.099674999999998,○,,,,08:30-17:00 ,08:30-17:00 ,,,,,
20448,001121-5,200021,基隆安樂路郵局,基隆21支,(02)2431-5275,(02)2431-5275,(02)2432-6414,基隆市,安樂區,安樂路2段132號,121.72395549999999,25.1216455,○,,,,08:30-17:00 ,08:30-17:00 ,,,,,
20348,001122-9,200022,基隆復興路郵局,基隆22支,(02)2437-8290,(02)2437-8290,(02)2437-7754,基隆市,中山區,復興路38號,121.727,25.1418,○,,,,08:30-17:00 ,08:30-17:00 ,,,,,
20649,001124-6,200024,基隆百福郵局,基隆24支,(02)2451-2891,(02)2451-2891,(02)2451-6574,基隆市,七堵區,百五街93號,121.6979825,25.084316499999996,○,,,,08:30-17:00 ,08:30-17:00 ,,,,,
20242,001125-0,200025,基隆三沙灣郵局,基隆25支,(02)2421-0165,(02)2421-0165,(02)2429-1774,基隆市,中正區,中船路112巷28號,121.75260999999999,25.138640000000002,○,,,,08:30-17:00 ,08:30-17:00 ,,,,,
20445,001126-3,200026,基隆大武崙郵局,基隆26支,(02)2432-4246,(02)2432-4246,(02)2432-6424,基隆市,安樂區,基金一路131-24號,121.71174,25.140285,○,,,,08:30-17:00 ,08:30-17:00 ,,,,,
22843,001128-1,200028,貢寮郵局,基隆28支,(02)2494-1127,(02)2494-1127,(02)2494-1817,新北市,貢寮區,貢寮街50號,121.9082955,25.019170499999998,○,,,,08:30-12:00 13:00-17:00,08:30-12:00 13:00-17:00,,,,,
22844,001129-4,200029,貢寮澳底郵局,基隆29支,(02)2490-3082,(02)2490-1002,(02)2490-2124,新北市,貢寮區,仁和路230號,121.92419000000001,25.05419,○,,,,08:30-17:00 ,08:30-17:00 ,,,,,
20745,001130-6,200030,萬里郵局,基隆30支,(02)2492-2042,(02)2492-2042,(02)2492-1044,新北市,萬里區,瑪鋉路48號,121.68920950000002,25.17762799999999,○,,,,08:30-17:00 ,08:30-17:00 ,,,,,
20544,001131-0,200031,基隆暖暖郵局,基隆31支,(02)2458-4870,(02)2458-4870,(02)2458-1444,基隆市,暖暖區,暖暖街190號,121.73541500000002,25.0992,○,,,,08:30-17:00 ,08:30-17:00 ,,,,,
20845,001132-3,200032,金山郵局,基隆32支,(02)2498-2140,(02)2498-2140,(02)2498-6794,新北市,金山區,中山路97號,121.63969650000001,25.218928499999997,○,,,,08:30-17:00 ,08:30-17:00 ,,,,,
22744,001133-7,200033,雙溪郵局,基隆33支,(02)2493-1291,(02)2493-1291,(02)2493-3014,新北市,雙溪區,太平路81號,121.8651489,25.03622789999999,○,,,,08:30-17:00 ,08:30-17:00 ,,,,,
22441,001134-1,200034,瑞芳郵局,基隆34支,(02)2497-2158,(02)2497-2158,(02)2496-8004,新北市,瑞芳區,中正路13號,121.80827500000001,25.106950500000004,○,,○,,08:30-17:30 ,08:30-17:00 ,09:00-12:00 ,,,,
22448,001135-4,200035,瑞芳九份郵局,基隆35支,(02)2497-2854,(02)2497-2854,(02)2496-8034,新北市,瑞芳區,基山街126號,121.844416,25.108373999999998,○,,,,08:30-12:00 12:30-16:30,08:30-12:00 12:30-16:30,,,,,
22445,001136-8,200036,瑞芳四腳亭郵局,基隆36支,(02)2457-7730,(02)2457-7730,(02)2457-9044,新北市,瑞芳區,大埔路132-1號,121.76172,25.1012,○,,,,08:30-12:00 13:00-17:00,08:30-12:00 13:00-17:00,,,,,
22450,001137-1,200037,瑞芳金瓜石郵局,基隆37支,(02)2496-1419,(02)2496-1419,(02)2496-2551,新北市,瑞芳區,金光路51-1號,121.8571935,25.109378000000007,○,,,,08:30-12:00 12:30-16:30,08:30-12:00 12:30-16:30,,,,,
20251,001138-5,200038,基隆新豐街郵局,基隆38支,(02)2460-1533,(02)2460-1533,(02)2460-1488,基隆市,中正區,新豐街482號2樓,121.78540800000002,25.135696000000003,○,,,,08:30-17:00 ,08:30-17:00 ,,,,,
22174,001139-9,200039,汐止郵局,基隆39支,(02)2643-1356,(02)2643-1356,(02)2642-2131,新北市,汐止區,大同路2段393號,121.6583124,25.067397900000003,○,,○,,08:30-18:00 ,08:30-17:30 ,09:00-12:00 ,,,,
22103,001140-1,200040,汐止保長坑郵局,基隆40支,(02)8647-1112,(02)8647-1112,(02)8647-2404,新北市,汐止區,大同路3段188-1號,121.67450000000001,25.074099999999998,○,,,,08:30-17:00 ,08:30-17:00 ,,,,,
22146,001141-4,200041,汐止樟樹灣郵局,基隆41支,(02)2641-8422,(02)2641-8422,(02)2647-4414,新北市,汐止區,大同路1段322號,121.6375215,25.058610499999997,○,,,,08:30-17:00 ,08:30-17:00 ,,,,,
22157,001142-8,200042,汐止社后郵局,基隆42支,(02)2695-1315,(02)2695-1315,(02)2695-6434,新北市,汐止區,康寧街426號,121.6307,25.068025000000002,○,,○,,08:30-17:30 ,08:30-17:00 ,09:00-12:00 ,,,,
22167,001143-1,200043,汐止龍安郵局,基隆43支,(02)2642-6626,(02)2642-6626,(02)2647-4454,新北市,汐止區,龍安路42號,121.6541275,25.0635545,○,,,,08:30-17:00 ,08:30-17:00 ,,,,,
22147,001144-5,200044,汐止厚德郵局,基隆44支,(02)2647-7134,(02)2647-7134,(02)2647-0994,新北市,汐止區,樟樹一路224號,121.6424435,25.0664335,○,,,,08:30-17:00 ,08:30-17:00 ,,,,,
22176,001145-9,200045,汐止翠柏郵局,基隆45支,(02)2645-1457,(02)2645-1457,(02)2645-1424,新北市,汐止區,永春一路5號,121.604166,25.113055,○,,,,08:30-12:00 ,08:30-12:00 ,,,,,
22165,001146-2,200046,汐止南昌郵局,基隆46支,(02)2649-8837,(02)2649-8837,(02)2649-8839,新北市,汐止區,新昌路72號,121.6621174,25.067335399999997,○,,,,08:30-17:00 ,08:30-17:00 ,,,,,
22174,001147-6,200047,汐止建成路郵局,基隆47支,(02)8691-5658,(02)8691-5658,(02)8691-0789,新北市,汐止區,建成路58號,121.664444,25.073055,○,,,,08:30-17:00 ,08:30-17:00 ,,,,,
40001,002100-9,400000,臺中民權路郵局,臺中901支,(04)2221-5121-226,(04)2221-5121-245,(04)2220-8154,臺中市,中區,民權路86號,120.679,24.139,○,○,○,,08:30-21:00 ,08:30-17:30 ,09:00-12:00 ,,○,,統一發票兌領時間如下:<br>1.週一至週五為08:30至17:30。<br>2.例假日請參考例假日營業時間。<br>3.例假日除頭獎及特獎外均可兌換。<br>集郵服務中心：星期一至星期五08：30~17：30；星期六09：00~12：00<br>
40250,002101-2,400001,臺中臺中路郵局,臺中1支,(04)2222-6854,(04)2222-6854,(04)2227-2909,臺中市,南區,台中路100號,120.683,24.1333,○,,,,08:30-17:00 ,08:30-17:00 ,,,,,
40355,002102-6,400002,臺中中正路郵局,臺中2支,(04)2203-5080,(04)2201-6954,(04)2201-1241,臺中市,西區,臺灣大道1段701號,120.673901,24.147134,○,,,,08:30-17:00 ,08:30-17:00 ,,,,,因台灣電力公司停電，該局局內自動櫃員機於106年12月30日09:00至13:30暫停服務。<br>
41449,002103-0,400003,烏日郵局,臺中3支,(04)2338-1364,(04)2338-1364,(04)2337-4887,臺中市,烏日區,光日路123號,120.62463,24.10518,○,,○,,08:30-18:00 ,08:30-17:30 ,09:00-12:00 ,,,,
40704,002105-7,400005,東海大學郵局,臺中5支,(04)2359-2748,(04)2359-2748,(04)2359-5840,臺中市,西屯區,臺灣大道4段1727號(東海大學內),120.619064,24.1816,○,,,,08:30-17:00 ,08:30-17:00 ,,,,,配合該校師生作息於本107年3月31日(星期六)停止營業1天。<br>
41346,002106-1,400006,霧峰民生路郵局,臺中6支,(04)2339-3409,(04)2339-3409,(04)2332-5096,臺中市,霧峰區,民生路93號,120.69995,24.065839999999998,○,,,,08:30-17:00 ,08:30-17:00 ,,,,,
41341,002108-8,400008,霧峰郵局,臺中8支,(04)2339-3034,(04)2333-9633,(04)2332-5297,臺中市,霧峰區,中正路806號,120.69867999999998,24.061189999999996,○,,○,,08:30-18:00 ,08:30-17:30 ,09:00-12:00 ,,,,
42879,002109-1,400009,大雅清泉崗郵局,臺中9支,(04)2566-2010,(04)2566-2010,(04)2568-2574,臺中市,大雅區,忠義里仁愛路100號,120.623048,24.235573000000002,○,,,,08:30-12:30 13:30-17:00,08:30-12:30 13:30-17:00,,,,,
41145,002110-3,400010,太平長億郵局,臺中10支,(04)2270-2910,(04)2270-2910,(04)2276-0115,臺中市,太平區,長億一街53、55號,120.72,24.1199,○,,,,08:30-17:00 ,08:30-17:00 ,,,,,
41281,002111-7,400011,大里仁化郵局,臺中11支,(04)2495-0188,(04)2495-0188,(04)2495-3792,臺中市,大里區,至善路30號,120.703,24.0934,○,,,,08:30-17:00 ,08:30-17:00 ,,,,,
41170,002113-4,400013,太平坪林郵局,臺中13支,(04)2392-2841,(04)2392-2841,(04)2392-2410,臺中市,太平區,中山路1段325、327號,120.73431,24.14517,○,,,,08:30-12:30 13:30-17:00,08:30-12:30 13:30-17:00,,,,,
41148,002114-8,400014,太平竹仔坑郵局,臺中14支,(04)2271-0932,(04)2271-0932,(04)2271-0086,臺中市,太平區,光興路517、519號,120.72888,24.10522,○,,,,08:30-17:00 ,08:30-17:00 ,,,,,
40445,002115-1,400015,臺中育才郵局,臺中15支,(04)2227-0473,(04)2223-1684,(04)2227-2544,臺中市,北區,三民路3段140號,120.685,24.1511,○,,,,08:30-17:00 ,08:30-17:00 ,,,,,自101年11月1日起調整平常日營業時間為郵務08:30-17:30，儲匯08:30-17:00。<br>
40342,002116-5,400016,臺中法院郵局,臺中16支,(04)2224-2784,(04)2224-2784,(04)2220-6049,臺中市,西區,自由路1段91號(臺中地方法院內),120.675555,24.135277,○,,,,08:30-17:00 ,08:30-17:00 ,,,,,
40249,002117-9,400017,臺中國光路郵局,臺中17支,(04)2285-1030,(04)2287-3821,(04)2285-2040,臺中市,南區,國光路297號,120.67960000000001,24.122899999999998,○,,,,08:30-17:30 ,08:30-17:00 ,,,,,
40046,002118-2,400018,臺中公園路郵局,臺中18支,(04)2223-1784,,(04)2227-1936,臺中市,中區,公園路4號,120.685,24.142,○,,,,08:30-17:00 ,08:30-17:00 ,,,,,
40863,002119-6,400019,臺中南屯路郵局,臺中19支,(04)2389-0624,(04)2389-0625,(04)2387-3044,臺中市,南屯區,南屯路2段405號,120.643421,24.13812400000001,○,,○,,08:30-17:30 ,08:30-17:00 ,09:00-12:00 ,,,,
40252,002120-8,400020,臺中福平里郵局,臺中20支,(04)2261-1854,(04)2261-1854,(04)2261-3534,臺中市,南區,復興路2段169號,120.66614,24.12717,○,,○,,08:30-17:30 ,08:30-17:00 ,09:00-12:00 ,,,,
41270,002121-1,400021,大里郵局,臺中21支,(04)2482-5771,(04)2482-5657,(04)2485-0106,臺中市,大里區,中興路2段212號,120.689166,24.103055,○,,○,,08:30-18:00 ,08:30-17:30 ,09:00-12:00 ,,,,
42853,002122-5,400022,大雅郵局,臺中22支,(04)2566-2480,(04)2567-0791,(04)2568-2554,臺中市,大雅區,中清東路177號,120.646813,24.223067999999998,○,,○,,08:30-18:00 ,08:30-17:30 ,09:00-12:00 ,,,,
40142,002123-9,400023,臺中力行路郵局,臺中23支,(04)2360-3614,(04)2360-3614,(04)2360-1138,臺中市,東區,力行路52巷5號,120.696,24.1514,○,,,,08:30-17:00 ,08:30-17:00 ,,,,,
40153,002124-2,400024,臺中旱溪郵局,臺中24支,(04)2211-1864,(04)2211-1864,(04)2211-2841,臺中市,東區,一心街403號,120.70200200000001,24.140493,○,,,,08:30-17:00 ,08:30-17:00 ,,,,,
40744,002125-6,400025,臺中逢甲郵局,臺中25支,(04)2452-7033,(04)2452-7033,(04)2452-9332,臺中市,西屯區,河南路2段268號,120.649,24.1753,○,,,,08:30-17:30 ,08:30-17:00 ,,,,,
40455,002126-0,400026,臺中雙十路郵局,臺中26支,(04)2233-2382,(04)2233-8735,(04)2230-1156,臺中市,北區,雙十路2段119號,120.69,24.1562,○,,,,08:30-17:30 ,08:30-17:00 ,,,,,
40677,002127-3,400027,臺中水湳郵局,臺中27支,(04)2291-4800,(04)2292-6335,(04)2296-0774,臺中市,北屯區,四平路1號,120.67,24.1776,○,,○,,08:30-17:30 ,08:30-17:00 ,09:00-12:00 ,,,,
41270,002128-7,400028,大里內新郵局,臺中28支,(04)2483-8184,(04)2483-8184,(04)2483-1749,臺中市,大里區,中興路2段520號,120.690277,24.112222,○,,,,08:30-17:00 ,08:30-17:00 ,,,,,
40851,002129-1,400029,臺中嶺東郵局,臺中29支,(04)2389-8990,(04)2389-8990,(04)2389-5133,臺中市,南屯區,建功路50號,120.611,24.1358,○,,,,08:30-17:00 ,08:30-17:00 ,,,,,
40760,002130-2,400030,臺中西屯郵局,臺中30支,(04)2701-0016,(04)2701-3786,(04)2706-1025,臺中市,西屯區,黎明路3段130號,120.63764,24.17634,○,,○,,08:30-17:30 ,08:30-17:00 ,09:00-12:00 ,,,,
40458,002131-6,400031,臺中五權路郵局,臺中31支,(04)2202-3810,(04)2202-3810,(04)2203-9657,臺中市,北區,五權路311、313號,120.679,24.152,○,,,,08:30-17:00 ,08:30-17:00 ,,,,,
41271,002132-0,400032,大里草湖郵局,臺中32支,(04)2492-3050,(04)2492-3053,(04)2493-5424,臺中市,大里區,中興路1段298-3號,120.695187,24.089113,○,,○,,08:30-17:30 ,08:30-17:00 ,09:00-12:00 ,,,,
40150,002133-3,400033,臺中大智郵局,臺中33支,(04)2282-5118,(04)2282-5118,(04)2280-2043,臺中市,東區,建成路676、678號,120.69,24.1317,○,,,,08:30-17:30 ,08:30-17:00 ,,,,,
41167,002134-7,400034,太平郵局,臺中34支,(04)2279-0919,(04)2279-0912,(04)2276-2833,臺中市,太平區,中興東路25號,120.72,24.1301,○,,○,,08:30-17:30 ,08:30-17:00 ,09:00-12:00 ,,,,
40646,002135-1,400035,臺中北屯郵局,臺中35支,(04)2237-2725,(04)2237-2726,(04)2230-1157,臺中市,北屯區,進化北路37-1號,120.69122,24.162660000000002,○,,○,,08:30-17:30 ,08:30-17:00 ,09:00-12:00 ,,,,
40878,002136-4,400036,臺中東興路郵局,臺中36支,(04)2475-1984,(04)2475-1984,(04)2473-1944,臺中市,南屯區,東興路2段186號,120.65314000000001,24.1415,○,,,,08:30-17:30 ,08:30-17:00 ,,,,,
40441,002137-8,400037,臺中漢口路郵局,臺中37支,(04)2296-6679,(04)2296-6679,(04)2297-4149,臺中市,北區,漢口路3段189號,120.671,24.1671,○,,,,08:30-17:30 ,08:30-17:00 ,,,,,
40256,002138-1,400038,臺中樹仔腳郵局,臺中38支,(04)2262-6592,(04)2262-6592,(04)2261-3418,臺中市,南區,復興路1段236號,120.65468,24.114300000000004,○,,,,08:30-17:00 ,08:30-17:00 ,,,,,
40680,002139-5,400039,臺中四張犁郵局,臺中39支,(04)2422-4016,(04)2422-4016,(04)2422-8829,臺中市,北屯區,豐樂路2段162號,120.68017499999999,24.194719000000003,○,,,,08:30-17:00 ,08:30-17:00 ,,,,,
40360,002140-7,400040,臺中公益路郵局,臺中40支,(04)2302-0271,(04)2301-7921,(04)2305-8510,臺中市,西區,公益路193號,120.661,24.1507,○,,,,08:30-17:30 ,08:30-17:00 ,,,,,
40645,002141-1,400041,臺中大坑口郵局,臺中41支,(04)2231-5030,(04)2231-5030,(04)2230-1139,臺中市,北屯區,東山路1段38-1號,120.69976,24.172159999999998,○,,,,08:30-17:30 ,08:30-17:00 ,,,,,
40141,002142-4,400042,臺中進化路郵局,臺中42支,(04)2212-6621,(04)2212-6621,(04)2211-9826,臺中市,東區,進化路184、186號,120.69469249999999,24.1472835,○,,,,08:30-17:00 ,08:30-17:00 ,,,,,
41171,002143-8,400043,太平宜欣郵局,臺中43支,(04)2398-0539,(04)2398-0539,(04)2398-0805,臺中市,太平區,中山路4段27號,120.712,24.1496,○,,○,,08:30-18:00 ,08:30-17:30 ,09:00-12:00 ,,,,
40746,002144-1,400044,臺中何厝郵局,臺中44支,(04)2316-0166,(04)2316-3860,(04)2313-8437,臺中市,西屯區,青海路1段83號,120.654,24.1646,○,,○,,08:30-17:30 ,08:30-17:00 ,09:00-12:00 ,,,,
40255,002145-5,400045,臺中南和路郵局,臺中45支,(04)2261-6535,(04)2261-6535,(04)2262-5674,臺中市,南區,南和路42、44號,120.669,24.1162,○,,,,08:30-17:00 ,08:30-17:00 ,,,,,
40755,002146-9,400046,臺中工業區郵局,臺中46支,(04)2359-2387,(04)2358-0763,(04)2359-5841,臺中市,西屯區,工業區六路10號,120.607,24.1697,○,,,,08:30-17:30 ,08:30-17:00 ,,,,,
40844,002147-2,400047,臺中黎明郵局,臺中47支,(04)2252-1074,(04)2252-1074,(04)2252-0552,臺中市,南屯區,博愛街80巷49號,120.633,24.1534,○,,○,,08:30-17:30 ,08:30-17:30 ,09:00-12:00 ,,,,
40678,002149-0,400049,臺中中清路郵局,臺中49支,(04)2425-4069,(04)2425-4069,(04)2425-2184,臺中市,北屯區,中清路2段830號,120.662761,24.188150000000004,○,,,,08:30-17:00 ,08:30-17:00 ,,,,,
40344,002150-1,400050,臺中大全街郵局,臺中50支,(04)2371-2528,(04)2371-2528,(04)2372-1021,臺中市,西區,大全街42、44、46號,120.671,24.1361,○,,,,08:30-17:00 ,08:30-17:00 ,,,,,
40705,002152-9,400052,臺中榮總郵局,臺中52支,(04)2359-3263,(04)2359-3263,(04)2359-5842,臺中市,西屯區,臺灣大道4段1650號(台中榮總內),120.619064,24.1816,○,,,,08:30-12:30 13:30-17:00,08:30-12:30 13:30-17:00,,,,,自106年12月18日起，營業日調整為每週一至週四。<br>
40461,002153-2,400053,臺中淡溝郵局,臺中53支,(04)2205-1277,(04)2205-2532,(04)2206-1441,臺中市,北區,民權路365號,120.67,24.1571,○,,,,08:30-17:30 ,08:30-17:00 ,,,,,
40644,002154-6,400054,臺中軍功郵局,臺中54支,(04)2436-9107,(04)2436-9107,(04)2436-0873,臺中市,北屯區,環中東路2段253號，255號,120.72121,24.175641,○,,,,08:30-17:00 ,08:30-17:00 ,,,,,
40459,002155-0,400055,臺中健行路郵局,臺中55支,(04)2235-3673,(04)2235-3673,(04)2230-1219,臺中市,北區,健行路190號,120.68594000000002,24.1589,○,,,,08:30-17:30 ,08:30-17:00 ,,,,,
41261,002157-7,400057,大里永隆郵局,臺中57支,(04)2406-3514,(04)2406-3514,(04)2407-2495,臺中市,大里區,永隆一街82號,120.678333,24.105555,○,,,,08:30-17:00 ,08:30-17:00 ,,,,,
41474,002159-4,400059,烏日明道郵局,臺中59支,(04)2337-7621,(04)2337-7621,(04)2337-5083,臺中市,烏日區,仁德村信義街100號,120.63981100000001,24.105075,○,,,,08:30-17:00 ,08:30-17:00 ,,,,,
41143,002160-6,400060,太平永豐路郵局,臺中60支,(04)2278-2575,(04)2278-2575,(04)2275-2310,臺中市,太平區,永豐路338號,120.704,24.1139,○,,,,08:30-17:00 ,08:30-17:00 ,,,,,
40763,002161-0,400061,臺中永安郵局,臺中61支,(04)2461-5479,(04)2461-5479,(04)2461-8763,臺中市,西屯區,永安里西屯路3段166-80號,120.61102000000001,24.191020000000016,○,,,,08:30-17:00 ,08:30-17:00 ,,,,,
40666,002163-7,400063,臺中文心路郵局,臺中63支,(04)2235-6388,(04)2235-6408,(04)2230-1298,臺中市,北屯區,文心路4段752號,120.688611,24.171666,○,○,○,,08:30-18:00 ,08:30-17:00 ,09:00-12:00 ,,○,,
40358,002165-4,400065,臺中英才郵局,臺中65支,(04)2302-2484,(04)2301-5638,(04)2305-9143,臺中市,西區,民生路200號,120.666,24.1447,○,○,○,,08:30-21:00 ,08:30-21:00 ,09:00-12:00 ,,,○,
40675,002166-8,400066,臺中松竹郵局,臺中66支,(04)2243-7285,(04)2243-7285,(04)2245-3890,臺中市,北屯區,松竹北路110號,120.699,24.1854,○,,,,08:30-17:00 ,08:30-17:00 ,,,,,
40759,002167-1,400067,臺中大隆路郵局,臺中67支,(04)2320-6379,(04)2320-1870,(04)2329-0044,臺中市,西屯區,大隆路60、62號,120.653,24.1565,○,,,,08:30-17:30 ,08:30-17:00 ,,,,,
41466,002168-5,400068,烏日溪壩郵局,臺中68支,(04)2335-6043,(04)2335-6043,(04)2335-2044,臺中市,烏日區,溪南路2段372號,120.643333,24.061388,○,,,,08:30-17:00 ,08:30-17:00 ,,,,,
40764,002169-9,400069,臺中福安郵局,臺中69支,(04)2463-0618,(04)2463-0618,(04)2463-0619,臺中市,西屯區,福順路318號,120.619,24.1835,○,,,,08:30-17:00 ,08:30-17:00 ,,,,,
40867,002170-1,400070,臺中向上郵局,臺中70支,(04)2387-0215,(04)2387-0220,(04)2387-0222,臺中市,南屯區,向上路2段199號,120.641,24.1463,○,○,,,08:30-18:00 ,08:30-17:00 ,,,○,,
42850,002171-4,400071,大雅馬岡厝郵局,臺中71支,(04)2560-3740,(04)2560-3740,(04)2560-3757,臺中市,大雅區,西寶里昌平路4段82號,120.671173,24.220656,○,,,,08:30-12:30 13:30-17:00,08:30-12:30 13:30-17:00,,,,,
42056,014100-9,420000,豐原郵局,臺中72支,(04)2527-1140,(04)2522-2674,(04)2528-8434,臺中市,豐原區,中正路298號,120.71502,24.25162,○,○,○,,08:30-20:00 ,08:30-20:00 ,09:00-12:00 ,,,○,
42955,014101-2,420001,神岡郵局,臺中73支,(04)2562-2092,(04)2562-2092,(04)2561-9724,臺中市,神岡區,神岡路4號,120.663,24.2581,○,,○,,08:30-17:00 ,08:30-17:00 ,09:00-12:00 ,,,,
42261,014102-6,420002,石岡郵局,臺中74支,(04)2572-2960,(04)2572-2960,(04)2572-2454,臺中市,石岡區,石岡街86號,120.775,24.2762,○,,○,,08:30-12:30 13:30-17:00,08:30-12:30 13:30-17:00,09:00-12:00 ,,,,
42047,014103-0,420003,豐原中山路郵局,臺中75支,(04)2524-4282,(04)2524-4282,(04)2512-1674,臺中市,豐原區,大明路12號,120.71116450000001,24.2396875,○,,,,08:30-17:00 ,08:30-17:00 ,,,,,
42060,014104-3,420004,豐原三民路郵局,臺中76支,(04)2522-7074,(04)2522-7074,(04)2524-5144,臺中市,豐原區,三民路108號,120.72,24.2537,○,,,,08:30-17:00 ,08:30-17:00 ,,,,,
43343,014105-7,420005,沙鹿北勢郵局,臺中77支,(04)2631-3524,(04)2631-3524,(04)2631-2240,臺中市,沙鹿區,東晉路253號,120.57047700000001,24.223017000000002,○,,,,08:30-17:00 ,08:30-17:00 ,,,,,
42954,014106-1,420006,神岡圳堵郵局,臺 中78支,(04)2562-2957,(04)2562-2957,(04)2561-9734,臺中市,神岡區,神清路273號,120.657,24.271,○,,,,08:30-12:30 13:30-17:00,08:30-12:30 13:30-17:00,,,,,
42051,014107-4,420007,豐原南陽郵局,臺中79支,(04)2524-5424,(04)2524-5424,(04)2524-5264,臺中市,豐原區,圓環東路402號,120.725,24.2451,○,,,,08:30-17:00 ,08:30-17:00 ,,,,,
42085,014108-8,420008,豐原翁子郵局,臺中80支,(04)2524-4650,(04)2524-4650,(04)2523-1544,臺中市,豐原區,豐勢路1段576、578號,120.734,24.2595,○,,,,08:30-17:00 ,08:30-17:00 ,,,,,
42943,014109-1,420009,神岡社口郵局,臺中81支,(04)2562-1779,(04)2562-1779,(04)2561-9754,臺中市,神岡區,中山路611號,120.6822,24.246815,○,,○,,08:30-17:30 ,08:30-17:00 ,09:00-12:00 ,,,,
42079,014111-7,420011,豐原葫蘆墩郵局,臺中83支,(04)2526-6323,(04)2526-6323,(04)2524-5324,臺中市,豐原區,豐原大道7段25號,120.715833,24.263611,○,,,,08:30-12:30 13:30-17:00,08:30-12:30 13:30-17:00,,,,,
42950,014112-1,420012,神岡岸裡郵局,臺中84支,(04)2524-7483,(04)2524-7483,(04)2524-5394,臺中市,神岡區,中山路49號,120.698,24.2485,○,,,,08:30-17:00 ,08:30-17:00 ,,,,,
42080,014113-4,420013,豐原水源郵局,臺中85支,(04)2528-0930,(04)2528-0930,(04)2523-1564,臺中市,豐原區,水源路594-2號,120.72914,24.25518,○,,,,08:30-17:00 ,08:30-17:00 ,,,,,
42151,014114-8,420014,后里郵局,臺中86支,(04)2556-2067,(04)2556-1046,(04)2557-3054,臺中市,后里區,公安路77號,120.711,24.3045,○,,○,,08:30-18:00 ,08:30-17:30 ,09:00-12:00 ,,,,
42945,014115-1,420015,神岡豐洲郵局,臺中87支,(04)2513-0137,(04)2513-0137,(04)2515-8244,臺中市,神岡區,豐洲路359號,120.706,24.2608,○,,,,08:30-12:30 13:30-17:00,08:30-12:30 13:30-17:00,,,,,
42141,014116-5,420016,后里義里郵局,臺中88支,(04)2556-2330,(04)2556-2330,(04)2557-3134,臺中市,后里區,甲后路一段219號,120.72786700000002,24.30930300000001,○,,,,08:30-17:00 ,08:30-17:00 ,,,,,
42146,014117-9,420017,后里月眉郵局,臺中89支,(04)2556-3324,(04)2556-3324,(04)2557-3164,臺中市,后里區,甲后路二段377號,120.69371700000002,24.31382300000001,○,,,,08:30-12:30 13:30-17:00,08:30-12:30 13:30-17:00,,,,,
42343,014118-2,420018,東勢郵局,臺中90支,(04)2587-2701,(04)2587-2701,(04)2587-1004,臺中市,東勢區,中山路43號,120.83,24.257,○,○,○,,08:30-18:00 ,08:30-17:30 ,09:00-12:00 ,,,○,
42444,014119-6,420019,和平谷關郵局,臺中91支,(04)2595-1124,(04)2595-1124,(04)2595-1545,臺中市,和平區,博愛里東關路1段106號,121.02032,24.213781,○,,,,08:30-12:30 13:30-17:00,08:30-12:30 13:30-17:00,,,,,
42645,014120-8,420020,新社中興嶺郵局,臺中92支,(04)2581-2382,(04)2581-2382,(04)2581-0114,臺中市,新社區,中興嶺170-2號,120.792171,24.216213,○,,,,08:30-12:30 13:30-17:00,08:30-12:30 13:30-17:00,,,,,
42354,014121-1,420021,東勢中嵙口郵局,臺中93支,(04)2587-2614,(04)2587-2614,(04)2587-5914,臺中市,東勢區,豐勢路188、190號,120.83070000000001,24.2504,○,,,,08:30-17:00 ,08:30-17:00 ,,,,,
42447,014122-5,420022,和平梨山郵局,臺中94支,(04)2598-9334,(04)2598-9334,(04)2598-0014,臺中市,和平區,梨山里中正路89號,121.183681,24.296136,○,,,,08:00-16:00 ,08:00-16:00 ,,,,,
42641,014123-9,420023,新社郵局,臺中95支,(04)2581-1470,(04)2581-1470,(04)2581-0214,臺中市,新社區,中和街5段1號,120.809,24.2478,○,,○,,08:30-17:00 ,08:30-17:00 ,09:00-12:00 ,,,,
42082,014124-2,420024,豐原鐮村郵局,臺中96支,(04)2536-2138,(04)2536-2138,(04)2536-2141,臺中市,豐原區,鐮村路169號,120.725,24.2313,○,,,,08:30-12:30 13:30-17:00,08:30-12:30 13:30-17:00,,,,,
42441,014125-6,420025,和平郵局,臺中97支,(04)2594-1524,(04)2594-1524,(04)2594-2254,臺中市,和平區,南勢里東關路3段160-9號,120.897064,24.191303,○,,,,08:30-12:30 13:30-17:00,08:30-12:30 13:30-17:00,,,,,
42751,014126-0,420026,潭子郵局,臺中98支,(04)2532-4660,(04)2532-4660,(04)2534-6692,臺中市,潭子區,潭興路3段42號,120.704,24.2118,○,,○,,08:30-18:00 ,08:30-17:30 ,09:00-12:00 ,,,,
42760,014127-3,420027,潭子加工區郵局,臺中99支,(04)25324-791,(04)25324-791,(04)25327-844,臺中市,潭子區,南二路1-1號,120.705115,24.216742000000004,○,,,,08:30-17:00 ,08:30-17:00 ,,,,,
42755,014128-7,420028,潭子頭家厝郵局,臺中100支,(04)2532-2210,(04)2532-2210,(04)2532-8044,臺中市,潭子區,中山路1段25號,120.702,24.191,○,,,,08:30-17:00 ,08:30-17:00 ,,,,,
42758,014129-1,420029,潭子東寶郵局,臺中101支,(04)2532-8047,(04)2532-8047,(04)2532-8244,臺中市,潭子區,昌平路3段116號,120.693969,24.225563,○,,,,08:30-12:30 13:30-17:00,08:30-12:30 13:30-17:00,,,,,
42754,014130-2,420030,潭子栗林郵局,臺中102支,(04)2532-3820,(04)2532-3820,(04)2532-8444,臺中市,潭子區,中山路3段334號,120.709,24.2315,○,,,,08:30-17:00 ,08:30-17:00 ,,,,,
42751,014131-6,420031,潭子潭北郵局,臺中103支,(04)2538-3324,(04)2538-3324,(04)2538-4714,臺中市,潭子區,潭子街3段55號,120.7063,24.214579999999998,○,,,,08:30-17:00 ,08:30-17:00 ,,,,,
43748,014132-0,420032,大甲郵局,臺中104支,(04)2687-2632,(04)2687-2632,(04)2688-0755,臺中市,大甲區,新政路1號,120.62754,24.3475,○,,○,,08:30-18:00 ,08:30-17:30 ,09:00-12:00 ,,,,
43951,014133-3,420033,大安郵局,臺中105支,(04)2671-3192,(04)2671-3192,(04)2671-0264,臺中市,大安區,中山南路343號,120.586,24.3464,○,,,,08:30-12:30 13:30-17:00,08:30-12:30 13:30-17:00,,,,,
43741,014134-7,420034,大甲廟口郵局,臺中106支,(04)2687-3624,(04)2687-3624,(04)2686-9944,臺中市,大甲區,順天路159號,120.62235,24.34543,○,,,,08:30-17:00 ,08:30-17:00 ,,,,,
43856,014135-1,420035,外埔郵局,臺中107支,(04)2683-2341,(04)2683-2341,(04)2683-0194,臺中市,外埔區,甲后路三段923號,120.72425100000001,24.308780000000002,○,,,,08:30-17:00 ,08:30-17:00 ,,,,,
43769,014136-4,420036,大甲日南郵局,臺中108支,(04)2681-4259,(04)2681-4259,(04)2681-6844,臺中市,大甲區,中山路2段233號,120.655,24.3809,○,,,,08:30-17:00 ,08:30-17:00 ,,,,,
43767,014137-8,420037,大甲幼獅郵局,臺中109支,(04)2681-4009,(04)2681-4009,(04)2681-6944,臺中市,大甲區,幼獅路45號,120.652,24.4052,○,,,,08:30-17:30 ,08:30-17:00 ,,,,,
43749,014138-1,420038,大甲庄美郵局,臺中110支,(04)2686-8931,(04)2686-8931,(04)2686-9844,臺中市,大甲區,經國路768號,120.619,24.3548,○,,,,08:30-12:30 13:30-17:00,08:30-12:30 13:30-17:00,,,,,
43542,014139-5,420039,臺中港郵局,臺中111支,(04)2657-3645,(04)2657-3645,(04)2657-3684,臺中市,梧棲區,四維路129號,120.538,24.262,○,,○,,08:30-18:00 ,08:30-17:30 ,09:00-12:00 ,,,,
43350,014140-7,420040,沙鹿郵局,臺中112支,(04)2662-6687,(04)2662-6659,(04)2662-6690,臺中市,沙鹿區,中山路341號,120.56,24.2392,○,○,○,,08:30-18:00 ,08:30-17:00 ,09:00-12:00 ,,○,,
43653,014141-1,420041,清水郵局,臺中113支,(04)2622-7353,(04)2622-2166,(04)2622-0400,臺中市,清水區,中山路124號,120.57523,24.26804,○,○,○,,08:30-18:00 ,08:30-17:00 ,09:00-12:00 ,,○,,
43541,014142-4,420042,梧棲郵局,臺中114支,(04)2656-5530,(04)2656-5530,(04)2657-1060,臺中市,梧棲區,梧棲路173號,120.53,24.2576,○,,,,08:30-17:00 ,08:30-17:00 ,,,,,
43452,014143-8,420043,龍井郵局,臺中115支,(04)2635-2294,(04)2635-2294,(04)2635-7630,臺中市,龍井區,龍新路163號,120.547,24.1968,○,,,,08:30-17:00 ,08:30-17:00 ,,,,,
43344,014144-1,420044,沙鹿鹿寮郵局,臺中116支,(04)2662-4294,(04)2662-4294,(04)2662-0545,臺中市,沙鹿區,中山路584-1號,120.56738,24.252290000000002,○,,,,08:30-12:30 13:30-17:00,08:30-12:30 13:30-17:00,,,,,
43448,014145-5,420045,龍井新庄郵局,臺中117支,(04)2631-2272,(04)2631-2272,(04)2631-0150,臺中市,龍井區,遊園南路171號,120.58395,24.18232,○,,○,,08:30-17:00 ,08:30-17:00 ,09:00-12:00 ,,,,
43444,014146-9,420046,龍井茄投郵局,臺中118支,(04)2639-5049,(04)2639-5049,(04)2639-9834,臺中市,龍井區,舊車路101之2號,120.53028000000002,24.182419999999993,○,,,,08:30-12:30 13:30-17:00,08:30-12:30 13:30-17:00,,,,,
43301,014147-2,420047,靜宜大學郵局,臺中119支,(04)2631-9704,(04)2631-9704,(04)2632-5444,臺中市,沙鹿區,台灣大道7段200號,120.562753,24.218371,○,,,,08:30-12:30 13:30-17:00,08:30-12:30 13:30-17:00,,,,,配合本(107)年2月靜宜大學寒假期間，於本年2月8日(星期四)、2月9日(星期五)、2月12日(星期一)、2月13日(星期二)、2月14日(星期三)及2月21日(星期三)等6天停止營業。<br>
43648,014148-6,420048,清水南社郵局,臺中120支,(04)2626-3040,(04)2626-3040,(04)2626-0204,臺中市,清水區,忠貞路39號,120.558,24.2719,○,,,,08:30-17:00 ,08:30-17:00 ,,,,,
43646,014149-0,420049,清水田寮郵局,臺中121支,(04)2626-4073,(04)2626-4073,(04)2626-0504,臺中市,清水區,高美路162-14號,120.575,24.2815,○,,,,08:30-12:30 13:30-17:00,08:30-12:30 13:30-17:00,,,,,
43545,014151-5,420051,梧棲大庄郵局,臺中123支,(04)2656-1193,(04)2656-1193,(04)2657-1087,臺中市,梧棲區,中央路1段921-2號,120.53818,24.24846,○,,,,08:30-17:00 ,08:30-17:00 ,,,,,
43242,014152-9,420052,大肚郵局,臺中124支,(04)2699-7555,(04)2699-7555,(04)2699-6444,臺中市,大肚區,沙田路2段666號,120.54532,24.15155,○,,○,,08:30-18:00 ,08:30-17:30 ,09:00-12:00 ,,,,
43246,014153-2,420053,大肚追分郵局,臺中125支,(04)2693-1955,(04)2693-1955,(04)2693-4054,臺中市,大肚區,沙田路1段564-5號,120.562,24.1252,○,,,,08:30-17:00 ,08:30-17:00 ,,,,,
43250,014154-6,420054,大肚蔗廍郵局,臺中126支,(04)2691-2475,(04)2691-2475,(04)2691-0424,臺中市,大肚區,遊園路2段65、67號,120.579,24.1703,○,,,,08:30-17:00 ,08:30-17:00 ,,,,,
43451,014155-0,420055,龍井龍津郵局,臺中127支,(04)2630-0493,(04)2630-0493,(04)2639-3044,臺中市,龍井區,中央路1段246、248號,120.524,24.2026,○,,,,08:30-12:30 13:30-17:00,08:30-12:30 13:30-17:00,,,,,
70401,003100-5,704000,臺南成功路郵局,臺南901支,(06)2267-962,(06)2265-046,(06)2200-155,臺南市,北區,成功路6、8號,120.21054499999998,22.99775,○,○,○,,08:30-20:00 ,08:30-18:00 ,09:00-12:00 ,,,○,
70242,003101-9,704001,臺南西門路郵局,臺南1支,(06)2222-471,(06)2222-471,(06)2111-870,臺南市,南區,西門路1段681號,120.19728949999998,22.986679500000008,○,,,,08:30-17:30 ,08:30-17:00 ,,,,,
70052,003102-2,704002,臺南水交社郵局,臺南2支,(06)2142-892,(06)2142-892,(06)2141-394,臺南市,中西區,健康路1段260號,120.20484499999999,22.981515,○,,,,08:30-17:00 ,08:30-17:00 ,,,,,
70044,003103-6,704003,臺南興華街郵局,臺南3支,(06)2226-883,(06)2226-883,(06)2111-873,臺南市,中西區,興華街37號,120.21118249999999,22.992639499999996,○,,,,08:30-17:00 ,08:30-17:00 ,,,,,
70841,003104-0,704004,臺南安平郵局,臺南4支,(06)2235-402,(06)2235-402,(06)2111-874,臺南市,安平區,安北路149-1號,120.161458,23.002716000000003,○,,,,08:30-17:00 ,08:30-17:00 ,,,,,
70048,003105-3,704005,臺南中正路郵局,臺南5支,(06)2223-304,(06)2223-304,(06)2111-875,臺南市,中西區,中正路42號,120.2021525,22.992220500000006,○,,,,08:30-17:30 ,08:30-17:00 ,,,,,
71754,003106-7,704006,仁德車路墘郵局,臺南6支,(06)2662-944,(06)2662-944,(06)2665-661,臺南市,仁德區,中正路1段32號,120.23167450000001,22.919153499999993,○,,,,08:30-17:00 ,08:30-17:00 ,,,,,
70101,003107-1,704007,成功大學郵局,臺南7支,(06)2377-908,(06)2377-908,(06)2748-223,臺南市,東區,大學路１號（光復校區內）,120.21713699999998,22.997415000000004,○,,,,08:30-17:30 ,08:30-17:00 ,,,,,
71052,003108-4,704008,永康網寮郵局,臺南8支,(06)3121-095,(06)3121-095,(06)3121-501,臺南市,永康區,小東路481、483號,120.23516,22.99887,○,,,,08:30-17:00 ,08:30-17:00 ,,,,,
71143,003109-8,704009,歸仁郵局,臺南9支,(06)2307-454,(06)2304-904,(06)2392-780,臺南市,歸仁區,中山路1段637號,120.29487350000001,22.966538500000002,○,,○,,08:30-18:00 ,08:30-17:30 ,09:00-12:00 ,,,,
71089,003110-0,704010,永康郵局,臺南10支,(06)2322-405轉12,(06)2322-405轉13,(06)2313-504,臺南市,永康區,中山路78號,120.25694000000001,23.0281,○,,○,,08:30-18:00 ,08:30-17:30 ,09:00-12:00 ,,,,
71067,003111-3,704011,永康六甲頂郵局,臺南11支,(06)2829-564,(06)2829-564,(06)2510-523,臺南市,永康區,中正南路160號,120.217562,23.022560000000002,○,,,,08:30-17:00 ,08:30-17:00 ,,,,,
70173,003112-7,704012,臺南德高厝郵局,臺南12支,(06)2681-297,(06)2681-297,(06)2901-510,臺南市,東區,崇德路678號,120.22724000000001,22.96744,○,,,,08:30-17:00 ,08:30-17:00 ,,,,,
70060,003113-1,704013,臺南永樂郵局,臺南13支,(06)2234-495,(06)2234-495,(06)2230-499,臺南市,中西區,民族路3段282號,120.19243699999998,23.0002965,○,,○,,08:30-17:30 ,08:30-17:00 ,09:00-12:00 ,,,,
70055,003114-4,704014,臺南友愛街郵局,臺南14支,(06)2235-406,(06)2235-406,(06)2111-880,臺南市,中西區,友愛街318號,120.19391100000001,22.9929425,○,,,,08:30-17:00 ,08:30-17:00 ,,,,,
70049,003115-8,704015,臺南南門路郵局,臺南15支,(06)2147-235,(06)2147-235,(06)2131-883,臺南市,中西區,南門路93號,120.2048305,22.988420499999997,○,,,,08:30-17:30 ,08:30-17:00 ,,,,,
71757,003116-1,704016,仁德太子郵局,臺南16支,(06)2724-666,(06)2724-666,(06)2728-624,臺南市,仁德區,土庫路2號,120.26031099999999,22.991047000000002,○,,,,08:30-17:00 ,08:30-17:00 ,,,,,
70448,003117-5,704017,臺南西華郵局,臺南17支,(06)2288-491,(06)2288-491,(06)2280-444,臺南市,北區,公園路176-1號,120.208255,22.99959,○,,,,08:30-17:00 ,08:30-17:00 ,,,,,
70141,003118-9,704018,臺南東城郵局,臺南18支,(06)2375-408,(06)2375-408,(06)2748-225,臺南市,東區,府連路433、435號,120.217,22.9862,○,,,,08:30-17:00 ,08:30-17:00 ,,,,,
70456,003119-2,704019,臺南開元路郵局,臺南19支,(06)2371-330,(06)2371-330,(06)2748-226,臺南市,北區,開元路162號,120.21975004999999,23.006971999999994,○,,,,08:30-17:00 ,08:30-17:00 ,,,,,
70263,003120-4,704020,臺南大同路郵局,臺南20支,(06)2155-409,(06)2155-409,(06)2151-514,臺南市,南區,大同路2段410號,120.214193,22.974571,○,,○,,08:30-18:00 ,08:30-17:30 ,09:00-12:00 ,,,,
71078,003121-8,704021,永康二王郵局,臺南21支,06-2329575,06-2329575,06-2313505,臺南市,永康區,中山南路363號,120.24548999999999,23.02082,○,,,,08:30-17:00 ,08:30-17:00 ,,,,,
70042,003122-1,704022,臺南普濟郵局,臺南22支,(06)2235-410,(06)2235-410,(06)2111-890,臺南市,中西區,西門路2段366號,120.20073049999999,22.9982255,○,,,,08:30-17:00 ,08:30-17:00 ,,,,,
70267,003123-5,704023,臺南灣裡郵局,臺南23支,(06)2622-411,(06)2622-411,(06)2624-426,臺南市,南區,灣裡路82號,120.180615,22.931095,○,,,,08:30-17:00 ,08:30-17:00 ,,,,,
71746,003124-9,704024,仁德二空郵局,臺南24支,(06)2682-328,(06)2682-328,(06)2902-467,臺南市,仁德區,二空路65號,120.223202,22.95858,○,,,,08:30-17:00 ,08:30-17:00 ,,,,,
70447,003125-2,704025,臺南大光郵局,臺南25支,(06)2516-481,(06)2516-481,(06)2815-274,臺南市,北區,長榮路5段266號,120.218055,23.013055,○,,,,08:30-17:00 ,08:30-17:00 ,,,,,
70157,003126-6,704026,臺南東門郵局,臺南26支,(06)2683-290,(06)2683-290,(06)2901-519,臺南市,東區,東門路2段216號,120.223585,22.98501,○,,,,08:30-17:30 ,08:30-17:00 ,,,,,
71749,003127-0,704027,仁德郵局,臺南27支,(06)2700-982,(06)2700-982,(06)2705-767,臺南市,仁德區,中正路2段1118號,120.25227,22.96972000000001,○,,○,,08:30-17:30 ,08:30-17:00 ,09:00-12:00 ,,,,
70160,003128-3,704028,臺南東寧路郵局,臺南28支,(06)2363-607,(06)2363-607,(06)2748-227,臺南市,東區,東寧路323號,120.227695,22.99025,○,,○,,08:30-17:30 ,08:30-17:00 ,09:00-12:00 ,,,,
70445,003129-7,704029,臺南北小北郵局,臺南29支,(06)2516-135,(06)2516-135,(06)2815-275,臺南市,北區,西門路4段482號,120.211,23.0164,○,,,,08:30-17:00 ,08:30-17:00 ,,,,,
71077,003130-9,704030,永康大灣郵局,臺南30支,(06)2713-784,(06)2713-784,(06)2722-826,臺南市,永康區,民族路244號,120.269,23.0062,○,,,,08:30-17:00 ,08:30-17:00 ,,,,,
70959,003131-2,704031,臺南和順郵局,臺南31支,(06)3559-285,(06)3559-285,(06)3563-900,臺南市,安南區,安和路5段119號,120.2179545,23.065548499999984,○,,,,08:30-17:00 ,08:30-17:00 ,,,,,
71072,003132-6,704032,永康鹽行郵局,臺南32支,(06)2531-054,(06)2531-054,(06)2537-064,臺南市,永康區,中正北路79號,120.24031,23.04179,○,,,,08:30-17:00 ,08:30-17:00 ,,,,,
70251,003133-0,704033,臺南鹽埕郵局,臺南33支,(06)2616-286,(06)2616-286,(06)2634-984,臺南市,南區,金華路1段292號,120.190695,22.968284999999998,○,,,,08:30-17:00 ,08:30-17:00 ,,,,,
70941,003134-3,704034,臺南安順郵局,臺南34支,(06)2555-030,(06)2555-030,(06)2464-590,臺南市,安南區,安和路1段430號,120.2132,23.034800000000008,○,,,,08:30-17:00 ,08:30-17:00 ,,,,,
70268,003135-7,704035,臺南新義郵局,臺南35支,(06)2654-762,(06)2654-762,(06)2637-064,臺南市,南區,安平工業區新義路1號,120.183,22.97,○,,,,08:30-17:00 ,08:30-17:00 ,,,,,
70960,003136-1,704036,臺南安南郵局,臺南36支,(06)2561-849,(06)2561-849,(06)2463-901,臺南市,安南區,安中路3段106號,120.18124,23.04795,○,,,,08:30-17:00 ,08:30-17:00 ,,,,,
70262,003137-4,704037,臺南金華郵局,臺南37支,(06)2227-221,(06)2227-221,(06)2229-844,臺南市,南區,健康路2段182號,120.19271499999999,22.98175,○,,,,08:30-17:00 ,08:30-17:00 ,,,,,
70950,003138-8,704038,臺南海佃郵局,臺南38支,(06)2580-744,(06)2580-744,(06)2592-938,臺南市,安南區,國安街8號,120.1914404,23.022976399999994,○,,○,,08:30-17:00 ,08:30-17:00 ,09:00-12:00 ,,,,
70948,003139-1,704039,臺南土城郵局,臺南39支,(06)2571-208,(06)2571-208,(06)2572-787,臺南市,安南區,安中路6段712號,120.128614,23.065061000000007,○,,,,08:30-17:00 ,08:30-17:00 ,,,,,
70154,003140-3,704040,臺南小東郵局,臺南40支,(06)2370-917,(06)2370-917,(06)2748-229,臺南市,東區,東和路45、47、49號,120.22925000000001,22.998425,○,,,,08:30-17:00 ,08:30-17:00 ,,,,,
71079,003142-1,704042,永康大橋郵局,臺南42支,(06)2320-332,(06)2320-332,(06)2313-506,臺南市,永康區,中華路473號1F,120.23201,23.011194999999997,○,,○,,08:30-17:00 ,08:30-17:00 ,09:00-12:00 ,,,,
71087,003143-4,704043,永康崑山郵局,臺南43支,(06)2715-182,(06)2715-182,(06)2715-171,臺南市,永康區,永大路2段3號,120.25924,23.00103,○,,,,08:30-17:00 ,08:30-17:00 ,,,,,
71743,003145-1,704045,仁德後壁厝郵局,臺南45支,(06)2700-674,(06)2700-674,(06)2705-771,臺南市,仁德區,中正路2段417、419號,120.25187949999993,22.953960499999994,○,,,,08:30-17:00 ,08:30-17:00 ,,,,,
71041,003146-5,704046,永康王行郵局,臺南46支,(06)2338-750,(06)2338-750,(06)2313-507,臺南市,永康區,永康工業區環工路6號,120.27443,23.04924,○,,,,08:30-17:00 ,08:30-17:00 ,,,,,
70943,003147-9,704047,臺南原佃郵局,臺南47支,(06)2464-402,(06)2464-402,(06)2464-404,臺南市,安南區,怡安路2段462號,120.20222089999999,23.043619900000003,○,,○,,08:30-17:00 ,08:30-17:00 ,09:00-12:00 ,,,,
70451,003148-2,704048,臺南文元郵局,臺南48支,(06)2585-364,(06)2585-364,(06)2584-499,臺南市,北區,文成路765號,120.1950885,23.012040499999994,○,,,,08:30-17:00 ,08:30-17:00 ,,,,,
70162,003149-6,704049,臺南虎尾寮郵局,臺南49支,(06)2676-870,(06)2907-881,(06)2891-144,臺南市,東區,自由路三段386號,120.237406,22.9829,○,,,,08:30-17:00 ,08:30-17:00 ,,,,,
71143,003150-8,704050,歸仁南保郵局,臺南50支,(06)230-4904,(06)230-4904,(06)239-2780,臺南市,歸仁區,中山路一段637號,120.294722,22.966388,○,,,,,08:30-17:00 ,,,,,歸仁南保郵局因「高雄美濃大地震」毀損嚴重，已於105年2月15日暫先遷移至歸仁郵局營業，郵務業務自即日起暫不營業，儲匯業務仍維持營業。<br>
71845,003159-1,704059,關廟郵局,臺南59支,(06)5950-850,(06)5952-009,(06)5952-244,臺南市,關廟區,中央路222號,120.3289864,22.96083639999999,○,,○,,08:30-17:30 ,08:30-17:00 ,09:00-12:00 ,,,,
71942,003160-2,704060,龍崎郵局,臺南60支,(06)5941-365,(06)5941-365,(06)5941-414,臺南市,龍崎區,崎頂里新市仔186號,120.378607,22.967076,○,,,,08:30-12:00 ,08:30-12:00 ,,,,,
71846,003161-6,704061,關廟文衡路郵局,臺南61支,(06)5950-858,(06)5950-858,(06)5962-344,臺南市,關廟區,文衡路20號,120.32619,22.960805,○,,,,08:30-17:00 ,08:30-17:00 ,,,,,
70848,003162-0,704062,臺南新南郵局,臺南62支,(06)2992-514,(06)2992-514,(06)2976-084,臺南市,安平區,永華三街6號,120.18157,22.99074,○,,,,08:30-17:00 ,08:30-17:00 ,,,,,
70802,003163-3,704063,臺南地方法院郵局,臺南63支,(06)2986-435,(06)2986-435,(06)2986-437,臺南市,安平區,健康路3段308號,120.171945,22.984275000000007,○,,,,08:30-17:00 ,08:30-17:00 ,,,,,
70843,003164-7,704064,臺南育平郵局,臺南64支,(06)2973-047,(06)2973-047,(06)2973-044,臺南市,安平區,育平路333號,120.16742740000001,22.9933774,○,,,,08:30-17:00 ,08:30-17:00 ,,,,,
80027,004100-1,800000,新興郵局,高雄901支,(07)2212-591,(07)2513-473,(07)2152-604,高雄市,新興區,中正三路177、179號,120.3040505,22.6310105,○,○,○,,08:30-21:00 ,08:30-21:00 ,09:00-12:00 ,,,○,
81356,004101-5,800001,左營華夏路郵局,高雄1支,(07)3415-636,(07)3415-636,(07)3415-652,高雄市,左營區,華夏路390號,120.29846800000001,22.672955,○,,,,08:30-17:00 ,08:30-17:00 ,,,,,
80249,004102-9,800002,苓雅郵局,高雄2支,(07)3330-818,(07)3330-818,(07)3364-139,高雄市,苓雅區,成功一路134號,120.297735,22.614819999999998,○,,○,,08:30-17:30 ,08:30-17:00 ,09:00-12:00 ,,,,
80542,004103-2,800003,旗津郵局,高雄3支,(07)5717-832,(07)5713-751,(07)5711-044,高雄市,旗津區,中洲三路817號,120.2696145,22.612441000000008,○,,○,,08:30-17:00 ,08:30-17:00 ,09:00-12:00 ,,,,
80344,004105-0,800005,鹽埕郵局,高雄5支,(07)5510-421,(07)5514-658,(07)5330-018,高雄市,鹽埕區,五福四路133號,120.2843895,22.623069,○,,○,,08:30-17:30 ,08:30-17:00 ,09:00-12:00 ,,,,
81166,004106-3,800006,楠梓郵局,高雄6支,(07)3517-250,(07)3511-744,(07)3530-064,高雄市,楠梓區,楠梓新路247號,120.32588249999999,22.72838699999999,○,,○,,08:30-17:30 ,08:30-17:00 ,09:00-12:00 ,,,,
81346,004107-7,800007,左營郵局,高雄7支,(07)5830-331,(07)5810-018,(07)5856-364,高雄市,左營區,實踐路43號,120.29265000000001,22.690885,○,,○,,08:30-18:00 ,08:30-17:30 ,09:00-12:00 ,,,,
80748,004108-1,800008,高雄站前郵局,高雄8支,(07)2867-211,(07)2867-211,(07)2871-163,高雄市,三民區,建國三路2-2號,120.3014465,22.638470499999993,○,,○,,08:30-17:00 ,08:30-17:00 ,09:00-12:00 ,,,,
80443,004109-4,800009,鼓山郵局,高雄9支,(07)5516-044,(07)5516-044,(07)5330-017,高雄市,鼓山區,臨海二路17號,120.27389,22.621755,○,,○,,08:30-17:00 ,08:30-17:00 ,09:00-12:00 ,,,,
80141,004110-6,800010,前金郵局,高雄10支,(07)2855-808,(07)2855-808,(07)2855-898,高雄市,前金區,六合二路147號,120.296666,22.631111,○,,,,08:30-17:30 ,08:30-17:00 ,,,,,
80448,004111-0,800011,高雄內惟郵局,高雄11支,(07)5613-543,(07)5613-543,(07)5330-010,高雄市,鼓山區,九如四路1020、1022號,120.27937399999999,22.655705000000005,○,,○,,08:30-17:00 ,08:30-17:00 ,09:00-12:00 ,,,,
81465,004112-3,800012,仁武臺塑郵局,高雄12支,(07)3722-811,(07)3722-811,(07)3714-454,高雄市,仁武區,水管路100-1號,120.33607800000001,22.705842499999996,○,,,,08:30-17:00 ,08:30-17:00 ,,,,,
81347,004113-7,800013,左營南站郵局,高雄13支,(07)5813-816,(07)5813-816,(07)5854-041,高雄市,左營區,左營大路75號,120.28778,22.6817,○,,,,08:30-17:00 ,08:30-17:00 ,,,,,
81355,004114-1,800014,左營果貿郵局,高雄14支,(07)5820-716,(07)5820-716,(07)5854-101,高雄市,左營區,翠峰路2號,120.29002000000001,22.671380000000003,○,,,,08:30-17:00 ,08:30-17:00 ,,,,,
80144,004116-8,800016,高雄社東郵局,高雄16支,(07)2726-714,(07)2815-201,(07)2510-547,高雄市,前金區,自強二路104之1號,120.2951765,22.626375000000007,○,,○,,08:30-17:00 ,08:30-17:00 ,09:00-12:00 ,,,,
80758,004117-1,800017,高雄德智郵局,高雄17支,(07)3117-501,(07)3117-501,(07)3210-191,高雄市,三民區,熱河一街84、86號,120.31099,22.64366,○,,○,,08:30-17:30 ,08:30-17:00 ,09:00-12:00 ,,,,
80662,004118-5,800018,前鎮郵局,高雄18支,(07)8214-865,(07)8214-865,(07)8120-113,高雄市,前鎮區,前鎮街92號,120.30625,22.58875,○,,,,08:30-17:00 ,08:30-17:00 ,,,,,
80203,004119-9,800019,高雄市府郵局,高雄19支,(07)3318-950,(07)3318-950,(07)3344-401,高雄市,苓雅區,四維三路2號(市政大樓1樓),120.31209,22.62042,○,,,,08:30-17:00 ,08:30-17:00 ,,,,,
80445,004120-1,800020,高雄鼓岩郵局,高雄20支,(07)5614-812,(07)5614-812,(07)5330-031,高雄市,鼓山區,鼓山二路166-12、13號,120.281,22.6375,○,,,,08:30-17:00 ,08:30-17:00 ,,,,,
80655,004121-4,800021,高雄廣澤郵局,高雄21支,(07)3333-961,(07)3333-961,(07)3362-695,高雄市,前鎮區,三多三路139號,120.310715,22.615850000000002,○,,,,08:30-17:30 ,08:30-17:00 ,,,,,
80341,004123-1,800023,高雄府北郵局,高雄23支,(07)5613-431,(07)5613-431,(07)5330-032,高雄市,鹽埕區,七賢二路470號,120.28393000000001,22.62976,○,,,,08:30-17:00 ,08:30-17:00 ,,,,,
80749,004124-5,800024,高雄三塊厝郵局,高雄24支,(07)2865-203,(07)2866-716,(07)2860-004,高雄市,三民區,中華三路270號,120.29386789999998,22.635690899999997,○,,,,08:30-17:00 ,08:30-17:00 ,,,,,
81142,004125-9,800025,楠梓莒光郵局,高雄25支,(07)3612-330,(07)3612-330,(07)3640-164,高雄市,楠梓區,新昌街53、55號,120.298888,22.71,○,,,,08:30-17:00 ,08:30-17:00 ,,,,,
80681,004126-2,800026,前鎮加工區郵局,高雄26支,(07)8218-017,(07)8218-017,(07)8120-103,高雄市,前鎮區,中四路1號(前鎮加工區內),120.29018,22.600939999999998,○,,,,08:30-17:00 ,08:30-17:00 ,,,,,
80053,004127-6,800027,高雄青年郵局,高雄27支,(07)2825-716,(07)2827-498,(07)2826-087,高雄市,新興區,復興二路171號,120.30833000000001,22.62511,○,,,,08:30-17:30 ,08:30-17:00 ,,,,,
80778,004128-0,800028,高雄灣仔內郵局,高雄28支,(07)3862-656,(07)3821-357,(07)3891-064,高雄市,三民區,建工路679、681號,120.317405,22.6479,○,,,,08:30-17:30 ,08:30-17:00 ,,,,,
81242,004129-3,800029,小港郵局,高雄29支,(07)8218-605,(07)8218-605,(07)8120-484,高雄市,小港區,小港一街1號,120.33680000000001,22.56438,○,,○,,08:30-17:30 ,08:30-17:00 ,09:00-12:00 ,,,,
80201,004130-5,800030,高雄師大郵局,高雄30支,(07)7511-343,(07)7511-343,(07)7211-062,高雄市,苓雅區,和平一路116號(高雄師範大學內),120.3202065,22.625082499999994,○,,,,08:30-17:00 ,08:30-17:00 ,,,,,
80745,004132-2,800032,高雄九如二路郵局,高雄32支,(07)3220-780,(07)3128-294,(07)3119-884,高雄市,三民區,九如二路661、663號,120.29389,22.641730000000003,○,,,,08:30-17:00 ,08:30-17:00 ,,,,,
80282,004133-6,800033,高雄五塊厝郵局,高雄33支,(07)7614-810,(07)7614-810,(07)7161-013,高雄市,苓雅區,三多一路237號,120.33039,22.622275000000002,○,,○,,08:30-17:30 ,08:30-17:00 ,09:00-12:00 ,,,,
81547,004134-0,800034,大社郵局,高雄34支,(07)3531-730,(07)3511-348,(07)3534-032,高雄市,大社區,自強街9號,120.347015,22.731465,○,,○,,08:30-18:00 ,08:30-17:30 ,09:00-12:00 ,,,,
81170,004135-3,800035,楠梓加工區郵局,高雄35支,(07)3612-885,(07)3612-885,(07)3640-145,高雄市,楠梓區,楠梓加工區中三街6號(楠梓加工出口區內),120.297869,22.725552,○,,,,08:30-17:00 ,08:30-17:00 ,,,,,
80654,004136-7,800036,高雄西甲郵局,高雄36支,(07)3343-490,(07)3343-490,(07)3364-138,高雄市,前鎮區,復興三路94號,120.31,22.6097,○,○,○,,08:30-19:00 ,08:30-17:30 ,09:00-12:00 ,,○,,
81252,004137-1,800037,小港機場郵局,高雄37支,(07)8011-918,(07)8011-918,(07)8030-284,高雄市,小港區,中山四路2號(小港國際機場內),120.34431849999999,22.571293499999992,○,,,,08:30-16:30 ,08:30-16:30 ,,,,,
80673,004138-4,800038,高雄草衙郵局,高雄38支,(07)8212-582,(07)8212-582,(07)8120-102,高雄市,前鎮區,草衙一路78、80號,120.32255199999999,22.583670999999995,○,,○,,08:30-17:30 ,08:30-17:00 ,09:00-12:00 ,,,,
80645,004139-8,800039,高雄籬仔內郵局,高雄39支,(07)7711-009,(07)7253-095,(07)7156-054,高雄市,前鎮區,瑞隆路482號,120.329,22.6055,○,,○,,08:30-17:30 ,08:30-17:00 ,09:00-12:00 ,,,,
80284,004140-0,800040,高雄正言郵局,高雄40支,(07)7518-290,(07)7518-290,(07)7210-534,高雄市,苓雅區,中正一路322、324號,120.326655,22.63005,○,,,,08:30-17:00 ,08:30-17:00 ,,,,,
80053,004141-3,800041,高雄順昌郵局,高雄41支,(07)2223-287,(07)2223-287,(07)2221-390,高雄市,新興區,七賢一路104、106號,120.314365,22.633985,○,,,,08:30-17:30 ,08:30-17:00 ,,,,,
80266,004142-7,800042,高雄林華郵局,高雄42支,(07)7716-170,(07)7618-875,(07)7210-400,高雄市,苓雅區,三多二路249號,120.3211,22.619529999999997,○,,,,08:30-17:00 ,08:30-17:00 ,,,,,
81149,004143-1,800043,楠梓右昌郵局,高雄43支,(07)3614-445,(07)3614-445,(07)3640-133,高雄市,楠梓區,右昌街347號,120.28884000000001,22.71462,○,,○,,08:30-17:00 ,08:30-17:00 ,09:00-12:00 ,,,,
80666,004144-4,800044,高雄佛公郵局,高雄44支,(07)8316006,(07)8316006,(07)8120107,高雄市,前鎮區,后安路147號,120.323531,22.574423999999997,○,,○,,08:30-17:00 ,08:30-17:00 ,09:00-12:00 ,,,,每月僅第1週週六營業。<br>
81261,004145-8,800045,高雄大林蒲郵局,高雄45支,(07)8711-345,(07)8711-345,(07)8717-014,高雄市,小港區,鳳林路82號,120.34693,22.526449999999997,○,,,,08:30-17:00 ,08:30-17:00 ,,,,,
80448,004146-1,800046,高雄前峰郵局,高雄46支,(07)5818-612,(07)5818-612,(07)5854-059,高雄市,鼓山區,九如四路2008、2010號,120.28621,22.66786,○,,,,08:30-17:00 ,08:30-17:00 ,,,,,
81233,004147-5,800047,高雄中鋼郵局,高雄47支,(07)8020-283,(07)8020-283,(07)8030-141,高雄市,小港區,中鋼路1號〈中鋼公司福利社內〉,120.35680000000002,22.559899999999992,○,,,,08:30-17:00 ,08:30-17:00 ,,,,,
80763,004148-9,800048,高雄民族社區郵局,高雄48支,(07)3822-625,(07)3822-625,(07)3891-045,高雄市,三民區,九如一路952號,120.31709,22.64047,○,,,,08:30-17:00 ,08:30-17:00 ,,,,,
80757,004149-2,800049,高雄站後郵局,高雄49支,(07)3114-521,(07)3114-521,(07)3119-864,高雄市,三民區,博愛一路28號,120.30315999999999,22.641985,○,,,,08:30-17:00 ,08:30-17:00 ,,,,,
80787,004150-4,800050,高雄大順郵局,高雄50支,(07)3847-163,(07)3847-163,(07)3891-047,高雄市,三民區,大順二路207號,120.326295,22.6436645,○,,○,,08:30-17:30 ,08:30-17:00 ,09:00-12:00 ,,,,
81234,004151-8,800051,高雄台船郵局,高雄51支,(07)8021-442,(07)8021-442,(07)8021-440,高雄市,小港區,中鋼路3號(台船公司內),120.35726,22.56129,○,,,,08:30-17:00 ,08:30-17:00 ,,,,,
81451,004152-1,800052,仁武郵局,高雄52支,(07)3716-005,(07)3716-005,(07)3721-145,高雄市,仁武區,仁武里中正路115號,120.344945,22.699065,○,,○,,08:30-17:30 ,08:30-17:00 ,09:00-12:00 ,,,,
80776,004153-5,800053,高雄建工郵局,高雄53支,(07)3835-089,(07)3835-089,(07)3802-006,高雄市,三民區,大昌二路517號,120.3303885,22.651220499999997,○,,,,08:30-17:00 ,08:30-17:00 ,,,,,
80757,004154-9,800054,高雄博愛路郵局,高雄54支,(07)3225-576,(07)3225-576,(07)3131-141,高雄市,三民區,博愛一路372號1樓,120.30396600000002,22.651029500000014,○,,○,,08:30-17:30 ,08:30-17:00 ,09:00-12:00 ,,,,
81358,004155-2,800055,左營新莊仔郵局,高雄55支,(07)5561-083,(07)5577-411,(07)5562-021,高雄市,左營區,富民路356號,120.305,22.6649,○,,○,,08:30-17:30 ,08:30-17:00 ,09:00-12:00 ,,,,
80792,004156-6,800056,高雄鼎泰郵局,高雄56支,(07)3425-127,(07)3425-127,(07)3472-008,高雄市,三民區,民族一路519號,120.31660049999999,22.665066999999997,○,,,,08:30-17:00 ,08:30-17:00 ,,,,,
81345,004157-0,800057,海軍官校郵局,高雄57支,(07)5827-759,(07)5827-759,(07)5854-061,高雄市,楠梓區,軍校路669號,120.29235249999999,22.7048905,○,,,,08:30-17:00 ,08:30-17:00 ,,,,,
80656,004158-3,800058,高雄英德街郵局,高雄58支,(07)7715-893,(07)7715-893,(07)7156-049,高雄市,前鎮區,英德街149號,120.32228,22.61392,○,,,,08:30-17:00 ,08:30-17:00 ,,,,,
80424,004159-7,800059,中山大學郵局,高雄59支,(07)5250-829,(07)5250-829,(07)5250-215,高雄市,鼓山區,蓮海路70號(西子灣國立中山大學內),120.266,22.6265,○,,,,08:30-17:00 ,08:30-17:00 ,,,,,
80289,004160-9,800060,高雄武廟郵局,高雄60支,(07)7233-650,(07)7233-650,(07)7156-051,高雄市,苓雅區,武廟路83號,120.32979,22.630650000000003,○,,○,,08:30-17:30 ,08:30-17:00 ,09:00-12:00 ,,,,
80768,004161-2,800061,高雄民壯郵局,高雄61支,(07)3861-194,(07)3861-194,(07)3891-046,高雄市,三民區,民壯路16、18、20、22號,120.34107999999999,22.63911,○,,○,,08:30-17:30 ,08:30-17:00 ,09:00-12:00 ,,,,
81257,004162-6,800062,高雄二苓郵局,高雄62支,(07)8013-486,(07)8013-486,(07)8030-114,高雄市,小港區,中山四路7、9、11號,120.347805,22.569305,○,,○,,08:30-17:30 ,08:30-17:00 ,09:00-12:00 ,,,,
80785,004163-0,800063,高雄大昌郵局,高雄63支,(07)3898-502,(07)3898-502,(07)3898-343,高雄市,三民區,大昌一路258號,120.321855,22.657104999999998,○,,○,,08:30-17:00 ,08:30-17:00 ,09:00-12:00 ,,,,
80253,004164-3,800064,高雄文化中心郵局,高雄64支,(07)7152-673,(07)7152-673,(07)7111-448,高雄市,苓雅區,光華一路148-30號,120.31617,22.62313,○,,,,08:30-17:00 ,08:30-17:00 ,,,,,
80448,004165-7,800065,高雄民強郵局,高雄65支,(07)5615-354,(07)5615-354,(07)5330-043,高雄市,鼓山區,九如四路636、638號,120.2793305,22.64942599999999,○,,,,08:30-17:00 ,08:30-17:00 ,,,,,
81156,004166-1,800066,楠梓後勁郵局,高雄66支,(07)3613-972,(07)3613-972,(07)3640-614,高雄市,楠梓區,後昌路128號,120.30975500000001,22.718329999999998,○,,,,08:30-17:00 ,08:30-17:00 ,,,,,
80774,004167-4,800067,高雄義民郵局,高雄67支,(07)3868-148,(07)3868-148,(07)3897-049,高雄市,三民區,大豐二路203號,120.329945,22.646060000000002,○,,,,08:30-17:00 ,08:30-17:00 ,,,,,
80457,004168-8,800068,高雄瑞豐郵局,高雄68支,(07)5529-669,(07)5529-669,(07)5534-048,高雄市,鼓山區,中華一路316之3號,120.292,22.66469,○,,,,08:30-17:00 ,08:30-17:00 ,,,,,
80044,004169-1,800069,高雄新田郵局,高雄69支,(07)2158-772,(07)2158-772,(07)2156-904,高雄市,新興區,新田路133號,120.3040405,22.622125500000003,○,○,,,08:30-19:00 ,08:30-17:30 ,,,,○,
81152,004170-3,800070,楠梓亞洲城郵局,高雄70支,(07)3639-199,(07)3639-199,(07)3640-119,高雄市,楠梓區,壽民路222號,120.29697999999999,22.71628,○,,,,08:30-17:00 ,08:30-17:00 ,,,,,
80708,004172-1,800072,高雄醫學大學郵局,高雄72支,(07)3217-467,(07)3217-467,(07)3230-015,高雄市,三民區,十全一路100號(高雄醫學大學內),120.31006450000001,22.645342499999995,○,,,,09:00-17:00 ,09:00-17:00 ,,,,,
80402,004173-4,800073,高雄高分院郵局,高雄73支,(07)5535-869,(07)5535-869,(07)5524-075,高雄市,鼓山區,明誠三路586號(高等法院高雄分院內),120.29910000000001,22.66135,○,,,,08:30-17:00 ,08:30-17:00 ,,,,,高等法院高雄分院<br>門禁管制時間12:00-13:30<br>
81362,004174-8,800074,左營榮總郵局,高雄74支,(07)3455-239,(07)3455-239,(07)3455-265,高雄市,左營區,大中一路386號(榮總高雄分院內),120.32232,22.677560000000003,○,,,,09:00-17:00 ,09:00-17:00 ,,,,,
81271,004175-1,800075,高雄高松郵局,高雄75支,(07)8035-049,(07)8035-049,(07)8064-490,高雄市,小港區,高鳳路33-3、4號,120.371,22.5744,○,,,,08:30-17:00 ,08:30-17:00 ,,,,,
80122,004176-5,800076,高雄地方法院郵局,高雄76支,(07)2168-291,(07)2168-291,(07)2168-924,高雄市,前金區,市中一路171號(高雄地院內),120.29061,22.62711,○,,,,09:00-17:00 ,09:00-17:00 ,,,,,
80546,004177-9,800077,高雄中洲郵局,高雄77支,(07)5718-784,(07)5718-784,(07)5719-264,高雄市,旗津區,旗津二路243號,120.29567,22.576435,○,,,,08:30-12:30 13:00-16:30,08:30-12:30 13:00-16:30,,,,,
81268,004178-2,800078,高雄宏平郵局,高雄78支,(07)8031-143,(07)8031-143,(07)8021-400,高雄市,小港區,宏平路322號,120.360555,22.569722,○,,,,08:30-17:00 ,08:30-17:00 ,,,,,
80790,004179-6,800079,高雄鼎金郵局,高雄79支,(07)3474-504,(07)3474-504,(07)3474-491,高雄市,三民區,鼎強街264、266號,120.322,22.6682,○,,,,08:30-17:00 ,08:30-17:00 ,,,,,
80747,004181-1,800081,高雄中都郵局,高雄81支,(07)3211-086,(07)3211-086,(07)3230-444,高雄市,三民區,力行路89、91號,120.2881,22.638395,○,,,,08:30-17:00 ,08:30-17:00 ,,,,,
80465,004182-5,800082,高雄凹仔底郵局,高雄82支,(07)5527-141,(07)5527-141,(07)5543-424,高雄市,鼓山區,文信路327號,120.298333,22.664444,○,,,,08:30-17:00 ,08:30-17:00 ,,,,,
81162,004183-9,800083,楠梓建楠郵局,高雄83支,(07)3523-590,(07)3523-590,(07)3536-101,高雄市,楠梓區,建楠路3號,120.33006999999999,22.72776,○,,,,08:30-17:00 ,08:30-17:00 ,,,,,
80646,004184-2,800084,高雄崗山仔郵局,高雄84支,(07)7224-150,(07)7224-150,(07)7511-140,高雄市,前鎮區,瑞北路39號,120.333685,22.609045000000002,○,,,,08:30-17:00 ,08:30-17:00 ,,,,,
81262,004185-6,800085,高雄中林子郵局,高雄85支,(07)8716-064,(07)8716-064,(07)8713-802,高雄市,小港區,中智街1號,120.3662,22.52974,○,,,,08:30-17:00 ,08:30-17:00 ,,,,,
84001,004186-0,800086,義守大學郵局,高雄86支,(07)6577-328,(07)6577-328,(07)6578-614,高雄市,大樹區,學城路1段1號,120.404,22.7268,○,,,,08:30-12:30 13:00-16:30,08:30-12:30 13:00-16:30,,,,,
81274,004187-3,800087,高雄桂林郵局,高雄87支,(07)7915-275,(07)7915-275,(07)7918-244,高雄市,小港區,桂華街130號,120.358,22.5834,○,,,,08:30-17:00 ,08:30-17:00 ,,,,,
81365,004188-7,800088,左營菜公郵局,高雄88支,(07)3455-598,(07)3455-598,(07)3484-746,高雄市,左營區,博愛三路520、522、524、526號,120.30891,22.67939,○,,○,,08:30-17:00 ,08:30-17:00 ,09:00-12:00 ,,,,
81368,004189-1,800089,左營福山郵局,高雄89支,(07)3598-435,(07)3598-435,(07)3598-430,高雄市,左營區,自由四路332號,120.318611,22.686944,○,,,,08:30-17:00 ,08:30-17:00 ,,,,,
81463,004190-2,800090,仁武仁雄郵局,高雄90支,(07)3740-875,(07)3740-875,(07)3740-879,高雄市,仁武區,仁和里仁忠路79、81號,120.354044,22.677759,○,,,,08:30-17:00 ,08:30-17:00 ,,,,,
81167,004191-6,800091,高雄高等行政法院郵局,高雄91支,(07)3550-418,(07)3550-418,(07)3550-422,高雄市,楠梓區,興楠路180號,120.335,22.7312,○,,,,08:30-17:00 ,08:30-17:00 ,,,,,
81362,004192-0,800092,高雄郵件中心郵局,高雄92支,(07)3109-655,(07)3109-655,(07)3109-656,高雄市,左營區,民族一路853號,120.31854000000001,22.67795,○,,,,08:30-17:30 ,08:30-17:00 ,,,,,
81154,004193-3,800093,楠梓翠屏郵局,高雄93支,(07)3603-893,(07)3603-893,(07)3603-892,高雄市,楠梓區,德祥路129、131號,120.3101515,22.7269695,○,,,,08:30-17:00 ,08:30-17:00 ,,,,,
80674,004194-7,800094,高雄君毅郵局,高雄94支,(07)5373-542,(07)5373-542,(07)5373-541,高雄市,前鎮區,中華五路963號,120.30595,22.602359999999997,○,,,,08:30-17:00 ,08:30-17:00 ,,,,,
81455,004195-1,800095,仁武八德郵局,高雄95支,(07)3733-510,(07)3733-510,(07)3733-514,高雄市,仁武區,八德南路396號,120.34,22.680833,○,,,,08:30-17:00 ,08:30-17:00 ,,,,,
83054,010100-3,830000,鳳山郵局,高雄96支,(07)7462-446-605、606,(07)7462-446-602、603,(07)7480-424,高雄市,鳳山區,中山東路86-2號,120.37202,22.62442,○,○,○,,08:30-20:00 ,08:30-17:30 ,09:00-12:00 ,,,○,統一發票兌領時間為08:30至17:30<br>
83059,010101-7,830001,陸軍官校郵局,高雄97支,(07)7414-947,(07)7414-947,(07)7482-105,高雄市,鳳山區,維武路1號(陸軍官校內),120.366435,22.619028,○,,,,08:30-12:30 13:00-16:30,08:30-12:30 13:00-16:30,,,,,
83341,010102-1,830002,鳥松郵局,高雄98支,(07)7321-811,(07)7321-811,(07)7323-644,高雄市,鳥松區,中正路311號,120.36348,22.66188,○,,○,,08:30-17:00 ,08:30-17:00 ,09:00-12:00 ,,,,
83053,010103-4,830003,澄清湖郵局,高雄99支,(07)767-0929,(07)767-0929,(07)780-1708,高雄市,鳳山區,青年路2段634、636號,120.34811,22.647119999999997,○,,,,08:30-17:00 ,08:30-17:00 ,,,,,
82445,010104-8,830004,燕巢義大醫院郵局,高雄100支,07-6154282,07-6154282,07-6154691,高雄市,燕巢區,義大路1號,120.3649345,22.765438500000005,○,,,,08:30-12:30 13:00-16:30,08:30-12:30 13:00-16:30,,,,,
83001,010105-1,830005,鳳山行政中心郵局,高雄101支,(07)7420-218,(07)7420-218,(07)7482-103,高雄市,鳳山區,光復路2段132號(高雄市政府鳳山行政中心內),120.344117,22.629888,○,,,,08:30-17:00 ,08:30-17:00 ,,,,,
83052,010106-5,830006,鳳山文山郵局,高雄102支,(07)7768-544,(07)7768-544,(07)7762-104,高雄市,鳳山區,文衡路236號,120.35659999999999,22.63812,○,,,,08:30-17:00 ,08:30-17:00 ,,,,,
83167,010107-9,830007,大寮郵局,高雄103支,(07)7828-723,(07)7816-684,(07)7830-211,高雄市,大寮區,永芳里鳳林三路530號,120.395417,22.606561999999997,○,○,○,,08:30-18:00 ,08:30-17:00 ,09:00-12:00 ,,,○,
83065,010108-2,830008,鳳山大東郵局,高雄104支,(07)7466-936,(07)7466-936,(07)7482-102,高雄市,鳳山區,大東一路122、124號,120.36094,22.622,○,,,,08:30-17:00 ,08:30-17:00 ,,,,,
83088,010109-6,830009,鳳山五甲郵局,高雄105支,(07)8217-661,(07)8317-414,(07)8120-100,高雄市,鳳山區,五甲三路45號,120.32822000000002,22.592959999999994,○,,○,,08:30-17:30 ,08:30-17:00 ,09:00-12:00 ,,,,
83143,010111-1,830011,大寮中庄郵局,高雄107支,(07)7012-348,(07)7010-076,(07)7031-235,高雄市,大寮區,鳳屏一路370、372號,120.39081,22.63477,○,,,,08:30-17:00 ,08:30-17:00 ,,,,,
83082,010113-9,830013,鳳山一甲郵局,高雄108支,(07)7111-930,(07)7111-930,(07)7156-050,高雄市,鳳山區,五甲二路87、89、91號,120.342,22.6021,○,,,,08:30-17:00 ,08:30-17:00 ,,,,,
83062,010114-2,830014,鳳山鳳松路郵局,高雄109支,(07)7425-490,(07)7425-490,(07)7482-106,高雄市,鳳山區,鳳松路11號,120.361,22.6324,○,,,,08:30-17:00 ,08:30-17:00 ,,,,,
83150,010115-6,830015,大寮中興郵局,高雄110支,(07)7825-018,(07)7825-018,(07)7830-212,高雄市,大寮區,鳳林四路34至38號,120.38819549999998,22.6149355,○,,,,08:30-17:00 ,08:30-17:00 ,,,,,
83072,010116-0,830016,鳳山新甲郵局,高雄111支,(07)7660-079,(07)7660-079,(07)7666-064,高雄市,鳳山區,大明路39、41號,120.342,22.6076,○,,,,08:30-17:00 ,08:30-17:00 ,,,,,
83343,010118-7,830018,鳥松仁美郵局,高雄112支,(07)7311-412,(07)7311-412,(07)7320-537,高雄市,鳥松區,學堂路89號,120.3925,22.658140000000003,○,,,,08:30-17:00 ,08:30-17:00 ,,,,,
83075,010119-1,830019,鳳山新富郵局,高雄113支,(07)7632-485,(07)7632-485,(07)7638-101,高雄市,鳳山區,新富路391號,120.349,22.6163,○,,○,,08:30-17:00 ,08:30-17:00 ,09:00-12:00 ,,,,
84041,010120-2,830020,大樹九曲堂郵局,高雄114支,(07)6512-051,(07)6512-051,(07)6510-744,高雄市,大樹區,久堂里中興街143號,120.416162,22.658882,○,,,,08:30-17:00 ,08:30-17:00 ,,,,,
84047,010121-6,830021,大樹郵局,高雄115支,(07)6510-464,(07)6512-314,(07)6510-754,高雄市,大樹區,檨腳里中興西路40號,120.437109,22.692713,○,,○,,08:30-17:00 ,08:30-17:00 ,09:00-12:00 ,,,,
83160,010122-0,830022,大寮大發郵局,高雄116支,(07)7879-688,(07)7879-688,(07)7881-967,高雄市,大寮區,大寮路767號,120.416125,22.591549999999998,○,,,,08:30-17:00 ,08:30-17:00 ,,,,,
83058,010123-3,830023,鳳山三民路郵局,高雄117支,(07)7452-124,(07)7458-617,(07)7436-303,高雄市,鳳山區,三民路289號,120.35797000000001,22.62579,○,,○,,08:30-18:00 ,08:30-17:30 ,09:00-12:00 ,,,,
83248,010124-7,830024,林園郵局,高雄118支,(07)6412-106,(07)6410-828,(07)6427-844,高雄市,林園區,東林里鳳林路1段176號,120.397036,22.499852,○,,○,,08:30-18:00 ,08:30-17:30 ,09:00-12:00 ,,,,
83241,010125-1,830025,林園三庄郵局,高雄119支,(07)6411-223,(07)6411-223,(07)6427-944,高雄市,林園區,林內里林內路153號,120.398909,22.53301,○,,,,08:30-17:00 ,08:30-17:00 ,,,,,
83248,010126-4,830026,林園福興郵局,高雄120支,(07)6431-863,(07)6431-863,(07)6432-314,高雄市,林園區,東林里福興街104號,120.397036,22.499852,○,,,,08:30-17:00 ,08:30-17:00 ,,,,,
83301,010127-8,830027,鳥松長庚醫院郵局,高雄121支,(07)7332-527,(07)7332-527,(07)7332-528,高雄市,鳥松區,鳥松里大埤路125號(長庚兒童醫院內),120.36014,22.657782,○,,,,08:30-17:00 ,08:30-17:00 ,,,,,
83095,010128-1,830028,鳳山中崙郵局,高雄122支,(07)7536-919,(07)7536-919,(07)7536-920,高雄市,鳳山區,中崙路576號,120.351,22.6021,○,,,,08:30-17:00 ,08:30-17:00 ,,,,,
83093,010129-5,830029,鳳山過埤郵局,高雄123支,(07)7921-753,(07)7921-753,(07)7921-754,高雄市,鳳山區,過勇路156、158號,120.362944,22.588722,○,,,,08:30-17:00 ,08:30-17:00 ,,,,,
83046,010130-7,830030,鳳山鎮北郵局,高雄124支,(07)7901-455,(07)7901-455,(07)7901-501,高雄市,鳳山區,經武路166、168號,120.364,22.636,○,,,,08:30-17:00 ,08:30-17:00 ,,,,,
84256,010131-1,830031,旗山郵局,高雄125支,(07)6612-102,(07)6612-788,(07)6614-840,高雄市,旗山區,延平一路690號,120.48286,22.88403,○,,○,,08:30-18:00 ,08:30-17:30 ,09:00-12:00 ,,,,
84244,010132-4,830032,旗山旗尾郵局,高雄126支,(07)6614-790,(07)6614-790,(07)6614-854,高雄市,旗山區,延平二路8、10號,120.493,22.8818,○,,,,08:30-12:00 ,08:30-12:00 ,,,,,
84257,010133-8,830033,旗山大洲郵局,高雄127支,(07)6661-005,(07)6661-005,(07)6661-054,高雄市,旗山區,旗南二路192-1號,120.46365999999999,22.84252,○,,,,08:30-12:30 13:00-16:30,08:30-12:30 13:00-16:30,,,,,
84248,010134-1,830034,旗山圓潭郵局,高雄128支,(07)6691-450,(07)6691-450,(07)6691-054,高雄市,旗山區,旗甲路2段354號,120.49772,22.9227,○,,,,08:30-12:30 13:00-16:30,08:30-12:30 13:00-16:30,,,,,
84552,010135-5,830035,內門郵局,高雄129支,(07)6671-271,(07)6671-271,(07)6671-054,高雄市,內門區,內豐里內埔121號,120.460841,22.93982,○,,,,08:30-12:30 13:00-16:30,08:30-12:30 13:00-16:30,,,,,
84654,010136-9,830036,杉林郵局,高雄130支,(07)6771-163,(07)6771-163,(07)6772-054,高雄市,杉林區,上平里山仙路26號,120.554198,22.972362,○,,,,08:30-12:30 13:00-16:30,08:30-12:30 13:00-16:30,,,,,
84243,010137-2,830037,旗山四保郵局,高雄131支,(07)6613-838,(07)6613-838,(07)6614-844,高雄市,旗山區,中山路242號,120.4824,22.890580000000003,○,,,,08:30-17:00 ,08:30-17:00 ,,,,,
84348,010138-6,830038,美濃郵局,高雄132支,(07)6819-051,(07)6812-158,(07)6818-064,高雄市,美濃區,中正路1段39號,120.542,22.9007,○,,○,,08:30-17:00 ,08:30-17:00 ,09:00-12:00 ,,,,
84349,010139-0,830039,美濃中壇郵局,高雄133支,(07)6813-014,(07)6813-014,(07)6811-846,高雄市,美濃區,中興路1段788號,120.53,22.8867,○,,,,08:30-12:30 13:00-16:30,08:30-12:30 13:00-16:30,,,,,
84742,010140-1,830040,甲仙郵局,高雄134支,(07)6751-042,(07)6751-042,(07)6751-242,高雄市,甲仙區,林森路44號,120.58905999999999,23.0826,○,,,,08:30-17:00 ,08:30-17:00 ,,,,,
84941,010141-5,830041,那瑪夏郵局,高雄135支,(07)6701-138,(07)6701-138,(07)6701-112,高雄市,那瑪夏區,瑪雅里平和巷164號,120.701792,23.25605,○,,,,08:00-12:00 12:30-16:00,08:00-12:00 12:30-16:00,,,,,
84441,010142-9,830042,六龜郵局,高雄136支,(07)6891-046,(07)6891-046,(07)6893-200,高雄市,六龜區,義寶里光復路173號,120.629938,22.996097,○,,,,08:30-17:00 ,08:30-17:00 ,,,,,
84841,010143-2,830043,桃源郵局,高雄137支,(07)6861-141,(07)6861-141,(07)6861-224,高雄市,桃源區,桃源里南進巷182號,120.76404999999998,23.158871000000012,○,,,,08:00-12:00 12:30-16:00,08:00-12:00 12:30-16:00,,,,,
84444,010144-6,830044,六龜寶來郵局,高雄138支,(07)6881-420,(07)6881-420,(07)6881-724,高雄市,六龜區,寶來街18-1號,120.633,22.9979,○,,,,08:00-12:00 12:30-16:00,08:00-12:00 12:30-16:00,,,,,
82051,010145-0,830045,岡山郵局,高雄139支,(07)6212-462,(07)6212-461,(07)6232-426,高雄市,岡山區,民有路68號,120.2964,22.792180000000005,○,,○,,08:30-18:00 ,08:30-17:30 ,09:00-12:00 ,,,,
82047,010146-3,830046,空軍通校郵局,高雄140支,(07)6251-614,(07)6251-614,(07)6254-348,高雄市,岡山區,介壽西路198號〈空軍航空技術學院內〉　,120.28072,22.78466,○,,,,08:30-12:30 13:00-16:30,08:30-12:30 13:00-16:30,,,,,
82548,010148-1,830048,橋頭郵局,高雄142支,(07)6113-602,(07)6121-967,(07)6120-001,高雄市,橋頭區,橋頭里橋頭路113號,120.310719,22.761426,○,,○,,08:30-17:00 ,08:30-17:00 ,09:00-12:00 ,,,,
82063,010149-4,830049,空軍機校郵局,高雄143支,(07)6258-391,(07)6258-391,(07)6254-499,高雄市,岡山區,巨輪路1號〈空軍航空技術學院內〉,120.2787855,22.7970275,○,,,,08:30-16:30 ,08:30-16:30 ,,,,,
82743,010150-6,830050,彌陀郵局,高雄144支,(07)6178-124,(07)6178-124,(07)6177-404,高雄市,彌陀區,彌陀里中正路7號,120.253962,22.776265,○,,,,08:30-17:00 ,08:30-17:00 ,,,,,
82441,010151-0,830051,燕巢郵局,高雄145支,(07)6161-164,(07)6161-164,(07)6165-084,高雄市,燕巢區,南燕里中民路621號,120.364463,22.785918,○,,○,,08:30-17:00 ,08:30-17:00 ,09:00-12:00 ,,,,
82445,010152-3,830052,燕巢鳳山厝郵局,高雄146支,(07)6153-670,(07)6153-670,(07)6153-944,高雄市,燕巢區,鳳雄里鳳旗路39號,120.350523,22.755942,○,,,,08:30-16:30 ,08:30-16:30 ,,,,,
82641,010153-7,830053,梓官郵局,高雄147支,(07)6172-484,(07)6172-484,(07)6173-064,高雄市,梓官區,梓義里中崙路260號,120.2544,22.760363,○,,○,,08:30-17:00 ,08:30-17:00 ,09:00-12:00 ,,,,
82843,010154-1,830054,永安郵局,高雄148支,(07)6912-285,(07)6912-285,(07)6910-054,高雄市,永安區,永華里永華路15號,120.22398,22.81154,○,,,,08:30-12:30 13:00-16:30,08:30-12:30 13:00-16:30,,,,,
82646,010155-4,830055,梓官蚵子寮郵局,高雄149支,(07)6101-014,(07)6101-014,(07)6170-954,高雄市,梓官區,港九街68號,120.25573800000002,22.728502999999996,○,,,,08:30-17:00 ,08:30-17:00 ,,,,,
82344,010156-8,830056,田寮郵局,高雄150支,(07)6361-675,(07)6361-675,(07)6361-599,高雄市,田寮區,南安里崗北路61號,120.395984,22.86138,○,,,,08:30-12:30 13:00-16:30,08:30-12:30 13:00-16:30,,,,,
82248,010157-1,830057,阿蓮郵局,高雄151支,(07)6312-140,(07)6312-140,(07)6314-002,高雄市,阿蓮區,清蓮里民生路101號,120.327288,22.877492,○,,○,,08:30-17:30 ,08:30-17:00 ,09:00-12:00 ,,,,
82042,010158-5,830058,岡山平和路郵局,高雄152支,(07)6212-584,(07)6212-584,(07)6210-674,高雄市,岡山區,平和路65號,120.29488000000002,22.794120000000007,○,,,,08:30-17:00 ,08:30-17:00 ,,,,,
82044,010159-9,830059,岡山仁壽路郵局,高雄153支,(07)6254-554,(07)6254-554,(07)6251-884,高雄市,岡山區,仁壽路215號,120.28627,22.785709999999998,○,,,,08:30-17:00 ,08:30-17:00 ,,,,,
82057,010160-1,830060,岡山五甲尾郵局,高雄154支,(07)6227-841,(07)6227-841,(07)6221-154,高雄市,岡山區,嘉興路255號,120.304,22.822,○,,,,08:30-17:00 ,08:30-17:00 ,,,,,
82841,010161-4,830061,永安竹仔港郵局,高雄155支,(07)6214-448,(07)6214-448,(07)6213-849,高雄市,永安區,永工二路1號(永安工業區內),120.25187999999999,22.809659999999997,○,,,,08:30-12:30 13:00-16:30,08:30-12:30 13:00-16:30,,,,,
82946,010162-8,830062,湖內郵局,高雄156支,(07)6993-057,(07)6993-057,(07)6996-014,高雄市,湖內區,中正路2段13號,120.2151,22.90844,○,,○,,08:30-17:30 ,08:30-17:00 ,09:00-12:00 ,,,,
82945,010163-1,830063,湖內大湖郵局,高雄157支,(07)6933-246,(07)6933-246,(07)6933-554,高雄市,湖內區,大湖里民權路243號,120.24186399999999,22.892638,○,,,,08:30-17:00 ,08:30-17:00 ,,,,,
85245,010164-5,830064,茄萣郵局,高雄158支,(07)6900-206,(07)6900-206,(07)6907-844,高雄市,茄萣區,進學路158號,120.1870479,22.903885900000002,○,,,,08:30-17:00 ,08:30-17:00 ,,,,,
82141,010165-9,830065,路竹郵局,高雄159支,(07)6962-311,(07)6968-012,(07)6973-554,高雄市,路竹區,中興路11號,120.261,22.8609,○,,○,,08:30-18:00 ,08:30-17:30 ,09:00-12:00 ,,,,
82151,010166-2,830066,路竹竹南郵局,高雄160支,(07)6962-804,(07)6962-804,(07)6973-654,高雄市,路竹區,中山路1097號,120.261,22.8564,○,,,,08:30-17:00 ,08:30-17:00 ,,,,,
82144,010167-6,830067,路竹一甲郵局,高雄161支,(07)6966-896,(07)6966-896,(07)6973-454,高雄市,路竹區,大智路60號,120.27068,22.874019999999998,○,,,,08:30-12:30 13:00-16:30,08:30-12:30 13:00-16:30,,,,,
82061,010168-0,830068,岡山大仁郵局,高雄162支,(07)6243-043,(07)6243-043,(07)6243-044,高雄市,岡山區,大仁路89號,120.301,22.8076,○,,,,08:30-17:00 ,08:30-17:00 ,,,,,
60044,005100-8,600000,嘉義文化路郵局,嘉義901支,(05)2259-408,(05)2227-881,(05)2243-414,嘉義市,東區,文化路134號,120.45006000000001,23.477880000000003,○,○,○,,08:30-19:00 ,08:30-19:00 ,09:00-12:00 ,,,○,
60041,005101-1,600001,嘉義中山路郵局,嘉義1支,(05)2785-145,(05)2785-145,(05)2780-130,嘉義市,東區,中山路107號,120.45791,23.48182,○,,,,08:30-17:30 ,08:30-17:00 ,,,,,
60859,005102-5,600002,水上南靖郵局,嘉義2支,(05)2682-035,(05)2682-035,(05)2685-844,嘉義縣,水上鄉,三鎮村三鎮路1號,120.3862175,23.414695499999993,○,,,,08:30-12:30 13:30-17:00,08:30-12:30 13:30-17:00,,,,,
60857,005103-9,600003,水上中庄郵局,嘉義3支,(05)2890-344,(05)2890-344,(05)2892-234,嘉義縣,水上鄉,中庄村中庄61-61號,120.43789000000001,23.421229999999987,○,,,,08:30-12:30 13:30-17:00,08:30-12:30 13:30-17:00,,,,,
60042,005104-2,600004,嘉義站前郵局,嘉義4支,(05)2242-021,(05)2242-021,(05)2220-347,嘉義市,西區,中正路647號,120.443313,23.478498000000002,○,,,,08:30-12:30 13:30-17:00,08:30-12:30 13:30-17:00,,,,,
60044,005105-6,600005,嘉義民權路郵局,嘉義5支,(05)2273-547,(05)2273-547,(05)2220-352,嘉義市,西區,民權路467號,120.4454255,23.481625500000003,○,,,,08:30-12:30 13:30-17:00,08:30-12:30 13:30-17:00,,,,,
61250,005106-0,600006,太保郵局,嘉義6支,(05)3711-040,(05)3711-040,(05)3715-994,嘉義縣,太保市,後潭里439之2號,120.34746899999996,23.452638999999994,○,,,,08:30-17:00 ,08:30-17:00 ,,,,,
60044,005107-3,600007,嘉義忠孝郵局,嘉義7支,(05)2783-079,(05)2783-079,(05)2752-854,嘉義市,東區,民權路208-1號,120.45444349999995,23.48324150000001,○,,,,08:30-17:00 ,08:30-17:00 ,,,,,
60092,005108-7,600008,嘉義北社郵局,嘉義8支,(05)2320-200,(05)2320-200,(05)2310-649,嘉義市,西區,北興街245號,120.438399,23.485520500000003,○,,,,08:30-17:00 ,08:30-17:00 ,,,,,
60848,005109-1,600009,水上郵局,嘉義9支,(05)2682-140,(05)2682-140,(05)2685-644,嘉義縣,水上鄉,中興路356號,120.4014785,23.431015500000004,○,,○,,08:30-17:00 ,08:30-17:00 ,09:00-12:00 ,,,,
60089,005110-2,600010,嘉義玉山郵局,嘉義10支,(05)2860-153,(05)2860-153,(05)2860-154,嘉義市,西區,中興路672號,120.42884699999999,23.472053999999993,○,○,○,,09:00-20:00 ,09:00-18:00 ,09:00-12:00 ,,,○,集郵服務中心：星期一至星期五09：00~18：00<br>
60850,005111-6,600011,水上回歸郵局,嘉義11支,(05)2356-840,(05)2356-840,(05)2358-762,嘉義縣,水上鄉,三和村新厝仔2之4號,120.40888949999999,23.454475499999997,○,,,,08:00-12:00 13:00-16:30,08:00-12:00 13:00-16:30,,,,,
60096,005112-0,600012,嘉義福全郵局,嘉義12支,(05)2334-064,(05)2334-064,(05)2314-140,嘉義市,西區,北港路55、57號,120.435,23.477,○,,,,08:30-17:00 ,08:30-17:00 ,,,,,
60042,005113-3,600013,嘉義東門郵局,嘉義13支,(05)2273-549,(05)2273-549,(05)2220-405,嘉義市,東區,中正路141號,120.456,23.4795,○,,,,08:30-12:00 13:00-17:00,08:30-12:00 13:00-17:00,,,,,
60241,005114-7,600014,番路郵局,嘉義14支,(05)2591-105,(05)2591-105,(05)2592-604,嘉義縣,番路鄉,下坑村菜公店55號,120.50988000000002,23.476420000000005,○,,,,08:30-12:30 13:30-17:00,08:30-12:30 13:30-17:00,,,,,
60078,005115-1,600015,嘉義後湖郵局,嘉義15支,(05)2771-054,(05)2771-054,(05)2750-090,嘉義市,東區,保健街30-5號,120.45514,23.501239999999996,○,,,,08:30-17:00 ,08:30-17:00 ,,,,,
60057,005116-4,600016,嘉義興業路郵局,嘉義16支,(05)2241-450,(05)2241-450,(05)2220-161,嘉義市,東區,興業東路12號,120.45395,23.46931,○,,,,08:30-17:00 ,08:30-17:00 ,,,,,
60054,005117-8,600017,嘉義成功街郵局,嘉義17支,(05)2287-742,(05)2287-742,(05)2220-408,嘉義市,西區,成功街112號,120.44323999999999,23.47221,○,,,,08:30-17:00 ,08:30-17:00 ,,,,,
60066,005118-1,600018,嘉義彌陀郵局,嘉義18支,(05)2782-918,(05)2782-918,(05)2780-170,嘉義市,東區,彌陀路268號,120.4628212,23.4741752,○,,,,08:30-17:00 ,08:30-17:00 ,,,,,
60053,005119-5,600019,嘉義湖內郵局,嘉義19支,(05)2351-175,(05)2351-175,(05)2358-401,嘉義市,西區,民生南路540號,120.44333999999999,23.45909,○,,,,08:30-17:00 ,08:30-17:00 ,,,,,
60081,005120-7,600020,嘉義埤子頭郵局,嘉義20支,(05)2323-660,(05)2323-660,(05)2310-650,嘉義市,西區,文化路456號,120.4468575,23.488793500000003,○,,,,08:30-17:00 ,08:30-17:00 ,,,,,
60668,005121-1,600021,中埔郵局,嘉義21支,(05)2531-030,(05)2531-030,(05)2533-025,嘉義縣,中埔鄉,中埔村167號,120.52608249999999,23.423051500000007,○,,,,08:30-17:00 ,08:30-17:00 ,,,,,
60004,005122-4,600022,嘉義大學郵局,嘉義22支,(05)2771-612,(05)2771-612,(05)2750-091,嘉義市,東區,學府路300號,120.483611,23.463888,○,,,,08:30-12:30 13:30-17:00,08:30-12:30 13:30-17:00,,,,,
60661,005123-8,600023,中埔後庄郵局,嘉義23支,(05)2394-623,(05)2394-623,(05)2391-401,嘉義縣,中埔鄉,和興村中華路889號,120.4600935,23.451418500000003,○,,,,08:30-17:00 ,08:30-17:00 ,,,,,
61251,005124-1,600024,太保南新郵局,嘉義24支,(05)2372-244,(05)2372-244,(05)2377-141,嘉義縣,太保市,北新里中山路1段470、472號,120.379085,23.498575,○,,,,08:30-17:00 ,08:30-17:00 ,,,,,
60741,005125-5,600025,大埔郵局,嘉義25支,(05)2521-224,(05)2521-224,(05)2521-851,嘉義縣,大埔鄉,大埔村262號之1,120.59419999999997,23.29835999999999,○,,,,08:30-12:30 13:30-17:00,08:30-12:30 13:30-17:00,,,,,
60447,005126-9,600026,竹崎郵局,嘉義26支,(05)2611-042,(05)2611-042,(05)2615-004,嘉義縣,竹崎鄉,中山路68號,120.55089,23.523259999999997,○,,,,08:30-17:00 ,08:30-17:00 ,,,,,
60444,005127-2,600027,竹崎內埔郵局,嘉義27支,(05)2541-305,(05)2541-305,(05)2540-004,嘉義縣,竹崎鄉,內埔村元興路127號,120.559,23.4853,○,,,,08:30-12:30 13:30-17:00,08:30-12:30 13:30-17:00,,,,,
60541,005128-6,600028,阿里山郵局,嘉義28支,(05)2679-970,(05)2679-970,(05)2679-844,嘉義縣,阿里山鄉,中正村2鄰東阿里山53號,120.811762,23.530311,○,,,,08:00-12:00 13:00-16:30,08:00-12:00 13:00-16:30,,,,,
60072,005129-0,600029,嘉義林森郵局,嘉義29支,(05)2766-074,(05)2766-074,(05)2750-092,嘉義市,東區,林森東路488號,120.47044,23.4919,○,,,,08:30-12:30 13:30-17:00,08:30-12:30 13:30-17:00,,,,,
60061,005130-1,600030,嘉義興嘉郵局,嘉義30支,(05)2355-047,(05)2355-047,(05)2358-445,嘉義市,西區,南京路409號,120.4359165,23.4653665,○,,,,08:30-17:00 ,08:30-17:00 ,,,,,
61252,005131-5,600031,太保嘉太郵局,嘉義31支,(05)2381-562,(05)2381-562,(05)2378-554,嘉義縣,太保市,嘉太工業區中興路1號,120.36256700000001,23.509281,○,,,,08:30-12:30 13:30-17:00,08:30-12:30 13:30-17:00,,,,,
62142,005132-9,600032,民雄郵局,嘉義32支,(05)2262-609,(05)2262-609,(05)2268-996,嘉義縣,民雄鄉,東榮村民族路17號,120.43111,23.554949999999998,○,,○,,08:30-17:00 ,08:30-17:00 ,09:00-12:00 ,,,,
62149,005133-2,600033,民雄頭橋郵局,嘉義33支,(05)2211-075,(05)2211-075,(05)2219-710,嘉義縣,民雄鄉,頭橋工業區工業一路2號,120.4358815,23.520108499999996,○,,,,08:30-17:00 ,08:30-17:00 ,,,,,
62102,005134-6,600034,中正大學郵局,嘉義34支,(05)2720-547,(05)2720-547,(05)2720-996,嘉義縣,民雄鄉,三興村大學路1段168號,120.474722,23.5625,○,,,,09:00-17:00 ,09:00-17:00 ,,,,,
62154,005135-0,600035,民雄雙福郵局,嘉義35支,(05)2219-187,(05)2219-187,(05)2203-045,嘉義縣,民雄鄉,中山路7號,120.447,23.5235,○,,,,08:30-17:30 ,08:30-17:00 ,,,,,
60344,005136-3,600036,梅山郵局,嘉義36支,(05)2621-213,(05)2621-213,(05)2622-740,嘉義縣,梅山鄉,中山路109號,120.559,23.5807,○,,,,08:30-17:00 ,08:30-17:00 ,,,,,
61693,005137-7,600037,新港郵局,嘉義37支,(05)3742-130,(05)3742-130,(05)3744-974,嘉義縣,新港鄉,宮前村中正路8號,120.34581,23.55517,○,,○,,08:30-17:00 ,08:30-17:00 ,09:00-12:00 ,,,,
61541,005139-4,600039,六腳蒜頭郵局,嘉義39支,(05)3802-029,(05)3802-029,(05)3800-904,嘉義縣,六腳鄉,蒜頭村126之1號,120.29234,23.491960000000002,○,,,,08:30-17:00 ,08:30-17:00 ,,,,,
61363,005140-6,600040,朴子長庚醫院郵局,嘉義40支,(05)3623-947,(05)3623-947,(05)3625-693,嘉義縣,朴子市,嘉朴路西段8號1樓,120.28951700000002,23.461071,○,,,,08:30-12:30 13:30-17:00,08:30-12:30 13:30-17:00,,,,,
62441,005141-0,600041,義竹郵局,嘉義41支,(05)3412-049,(05)3412-049,(05)3416-849,嘉義縣,義竹鄉,仁里村422-2號,120.24148,23.33718,○,,,,08:30-17:00 ,08:30-17:00 ,,,,,
62541,005142-3,600042,布袋郵局,嘉義42支,(05)3472-050,(05)3472-050,(05)3474-400,嘉義縣,布袋鎮,九龍里入船路2號,120.158415,23.377905000000002,○,,,,08:30-17:00 ,08:30-17:00 ,,,,,
62543,005143-7,600043,布袋過溝郵局,嘉義43支,(05)3451-401,(05)3451-401,(05)3454-498,嘉義縣,布袋鎮,中安里頂厝11號,120.1817905,23.419882499999993,○,,,,08:00-12:00 13:00-16:30,08:00-12:00 13:00-16:30,,,,,
62545,005144-1,600044,布袋大寮郵局,嘉義44支,(05)3471-860,(05)3471-860,(05)3476-004,嘉義縣,布袋鎮,東港里埔仔厝86號之1,120.185,23.374,○,,,,08:00-12:00 13:00-16:30,08:00-12:00 13:00-16:30,,,,,
62548,005145-4,600045,布袋新塭郵局,嘉義45支,(05)3432-646,(05)3432-646,(05)3431-014,嘉義縣,布袋鎮,復興里新塭24-17號,120.15934999999999,23.33143,○,,,,08:00-12:00 13:00-16:30,08:00-12:00 13:00-16:30,,,,,
61146,005146-8,600046,鹿草郵局,嘉義46支,(05)3752-007,(05)3752-007,(05)3750-684,嘉義縣,鹿草鄉,西井村長壽路222號,120.299848,23.415876,○,,,,08:30-17:00 ,08:30-17:00 ,,,,,
61345,005147-1,600047,朴子郵局,嘉義47支,(05)3792-130,(05)3792-130,(05)3702-404,嘉義縣,朴子市,光復路46號,120.24642,23.46629,○,,○,,08:30-18:00 ,08:30-17:30 ,09:00-12:00 ,,,,
61347,005148-5,600048,朴子海通路郵局,嘉義48支,(05)3796-291,(05)3796-291,(05)3702-484,嘉義縣,朴子市,永和里4-2號,120.230025,23.462995,○,,,,08:30-12:00 13:00-17:00,08:30-12:00 13:00-17:00,,,,,
61441,005149-9,600049,東石郵局,嘉義49支,(05)3732-224,(05)3732-224,(05)3730-004,嘉義縣,東石鄉,東石村34號,120.15794849999999,23.457850500000003,○,,,,08:30-12:00 13:00-17:00,08:30-12:00 13:00-17:00,,,,,
61363,005150-1,600050,朴子祥和郵局,嘉義50支,(05)3620-051,(05)3620-051,(05)3620-334,嘉義縣,朴子市,祥和二路西段6號,120.2882815,23.458358500000003,○,,,,08:30-17:00 ,08:30-17:00 ,,,,,
62242,005151-4,600051,大林郵局,嘉義51支,(05)2652-107,(05)2652-107,(05)2650-100,嘉義縣,大林鎮,平和街28-1號,120.45681049999999,23.6024115,○,,○,,08:30-17:30 ,08:30-17:00 ,09:00-12:00 ,,,,
60441,005152-8,600052,竹崎灣橋郵局,嘉義52支,(05)2790-279,(05)2790-790,(05)2790-858,嘉義縣,竹崎鄉,灣橋村五間厝3-1號,120.50344,23.49277,○,,,,08:30-12:30 13:30-17:00,08:30-12:30 13:30-17:00,,,,,
60083,005153-1,600053,嘉義保安郵局,嘉義53支,(05)2313-810,(05)2313-810,(05)2314-350,嘉義市,西區,保安一路241號,120.43517000000001,23.492910000000006,○,,,,08:30-12:30 13:30-17:00,08:30-12:30 13:30-17:00,,,,,
62341,005154-5,600054,溪口郵局,嘉義54支,(05)2691-132,(05)2691-132,(05)2695-800,嘉義縣,溪口鄉,中正路131號,120.39662949999999,23.60425349999999,○,,,,08:30-17:00 ,08:30-17:00 ,,,,,
62242,005155-9,600055,大林中山路郵局,嘉義55支,(05)2652-714,(05)2652-714,(05)2650-535,嘉義縣,大林鎮,中山路232號,120.45616550000004,23.605535500000002,○,,,,08:30-12:30 13:30-17:00,08:30-12:30 13:30-17:00,,,,,
30041,006100-4,300000,新竹武昌街郵局,新竹901支,(03)5215-984,(03)5250-760,(03)5230-244,新竹市,東區,武昌街81號,120.96716449999998,24.802552999999993,○,○,○,,08:30-19:00 ,08:30-19:00 ,09:00-12:00 ,,,○,
30041,006101-8,300001,新竹東門郵局,新竹1支,(03)5229-044,(03)5229-044,(03)5252-761,新竹市,東區,東門街51號,120.973,24.804,○,,,,08:30-17:30 ,08:30-17:00 ,,,,,
30071,006102-1,300002,清華大學郵局,新竹2支,(03)5717-086,(03)5717-086,(03)5720-984,新竹市,東區,光復路2段99號,120.997391,24.796091999999998,○,,,,08:30-17:30 ,08:30-17:00 ,,,,,
30059,006103-5,300003,新竹復中里郵局,新竹3支,(03)5330-441,(03)5330-441,(03)5320-244,新竹市,東區,經國路1段452-1號,120.97950390000001,24.814881899999996,○,,,,08:30-12:30 13:30-17:00,08:30-12:30 13:30-17:00,,,,,
30053,006104-9,300004,新竹光華街郵局,新竹4支,(03)5330-945,(03)5330-945,(03)5330-949,新竹市,北區,光華北街87號,120.97143040000002,24.816925399999995,○,,,,08:30-17:00 ,08:30-17:00 ,,,,,
30094,006105-2,300005,新竹內湖路郵局,新竹5支,(03)5374-709,(03)5374-709,(03)5374-704,新竹市,香山區,內湖路68號,120.905775,24.74388,○,,,,08:30-16:30 ,08:30-16:30 ,,,,,
30042,006106-6,300006,新竹英明街郵局,新竹6支,(03)5238-365,(03)5238-365,(03)5252-840,新竹市,北區,英明街10號,120.96733,24.806755,○,,,,08:30-17:30 ,08:30-17:00 ,,,,,
30074,006107-0,300007,新竹關東橋郵局,新竹7支,(03)5772-024,(03)5772-024,(03)5785-054,新竹市,東區,光復路1段313號,121.01889,24.78259,○,,○,,08:30-17:30 ,08:30-17:00 ,09:00-12:00 ,,,,
