Name,lat,lng,weight
建功高中,24.797065,121.001682,1
營房口,24.813760000000002,120.92827,1
湳雅,24.819329999999997,120.97246000000001,1
冠軍廠,24.824279999999998,120.92735,1
中山路,24.80101,120.95948,1
生科館(人社院),24.789443,120.989571,1
交大南大門,24.783541,120.99639199999999,1
聖經書院,24.79279,120.97316000000001,1
清華大學,24.796310000000002,120.99745,1
三德,24.83158,120.92913,1
金山街口,24.778178,121.018622,1
西門市場,24.80322,120.96477,1
二分局,24.80324,120.98695,1
西大路,24.796860000000002,120.968616,1
學園商場,24.798593,120.97802800000001,1
公學新城,24.80149,120.99616,1
水田,24.815820000000002,120.96778,1
海軍新村,24.79938,120.99226999999999,1
光華國中,24.81805,120.97426000000002,1
高鐵新竹站,24.80743,121.04026999999999,1
西門派出所,24.8017,120.96078999999999,1
海口,24.815479999999997,120.92891000000002,1
金竹路,24.82401,120.97213,1
瑞光街口,24.79293,120.92358,1
大庄里活動中心,24.793056,120.920795,1
地方法院,24.807570000000002,120.96778,1
忠孝社區,24.79149,120.96408999999998,1
新竹下站,24.80047,120.96938,1
民享一站,24.78496,121.00893,1
下路北,24.781685999999997,120.98783799999998,1
文教新村,24.79542,120.99878000000001,1
林森路口,24.79697,120.961855,1
竹蓮街,24.79768,120.96949,1
林森路口,24.79678,120.96155,1
文興嘉豐南路口,24.80876,121.03186000000001,1
北大橋,24.81034,120.96862,1
關新公園,24.785826999999998,121.018707,1
科學園區別墅,24.78458,121.01426000000001,1
古奇峰,24.778906,120.97971899999999,1
文興嘉興路口,24.812839999999998,121.02393000000001,1
仙水,24.7829,121.01873,1
埔羌圍,24.80005,120.9509,1
世界高中,24.782252,121.020146,1
過溝,24.79276,121.00237,1
高翠,24.78012,120.98697,1
同步輻射中心,24.783587,120.994429,1
美術館,24.806379999999997,120.96968000000001,1
罟寮,24.80593,120.92199,1
黃帝神宮,24.77117,120.97107,1
農會,24.79658,120.95456999999999,1
城隍廟,24.80534,120.96645,1
曙光女中,24.81265,120.97247,1
香山高中,24.78518,120.9306,1
竹蓮國小,24.796229999999998,120.97473000000001,1
大庄里,24.79174,120.92732,1
隘口,24.782729999999997,120.93301000000001,1
里辦公處,24.841265,120.936121,1
上南寮,24.84422,120.93073999999999,1
雞蛋面,24.78739,120.98592,1
新東藥廠,24.80011,120.94663,1
重義橋,24.79804,120.9436,1
建功高中,24.796959996,121.0012749135,1
三姓橋火車站,24.78656,120.92948,1
中埔里,24.79747,120.94495,1
民生民族路口,24.808529999999998,120.97843,1
新竹國小,24.796110000000002,120.96688999999999,1
大庄里活動中心,24.792973,120.920803,1
台大醫院新竹分院,24.81566,120.98053,1
文興嘉興路口,24.812720000000002,121.02408,1
監獄邊,24.80432,120.95728000000001,1
武陵路口,24.81769,120.96354,1
西門國小,24.80244,120.96003,1
警察宿舍,24.800232,120.973903,1
高翠,24.78032,120.98713000000001,1
高峰路口,24.7943,120.97303000000001,1
建功高中,24.79703,121.00128000000001,1
苗圃,24.78837,120.98201999999999,1
大潤發2站,24.805897,120.983924,1
輕便車站,24.83651,120.94368,1
工研院光復院區,24.8002,120.98913,1
交大光復校區,24.78831,120.99941000000001,1
大潤發1站,24.804270000000002,120.98433999999999,1
馬偕醫院,24.800420000000003,120.99128,1
水源,24.80679,120.99866000000002,1
好市多,24.79374,121.0128,1
香雅橋,24.80406,120.9259,1
親仁里,24.807445,120.971667,1
中寮,24.83879,120.93288000000001,1
新竹轉運站,24.801274,120.972613,1
華清社區,24.77822,121.02543999999999,1
竹中,24.78114,121.03033,1
東門國小,24.80624,120.97335,1
前溪社區,24.81521,120.98657,1
警察宿舍,24.80051,120.974456,1
田美一站,24.813489999999998,120.97367,1
火車站,24.803816,120.971015,1
火車站(民族路),24.803407,120.971855,1
煙波庭,24.784813,120.980323,1
二分局,24.80349,120.98691000000001,1
大潤發,24.817610000000002,120.97053999999999,1
美術館,24.806379999999997,120.96983999999999,1
竹光2站,24.813470000000002,120.95929,1
水源地,24.79779,120.98581999999999,1
後站(公園路口),24.80152,120.97568000000001,1
竹中口,24.78094,121.02856000000001,1
富群街口,24.76747,120.96083999999999,1
西門市場,24.803729999999998,120.96377,1
荷蘭村,24.822029999999998,120.96945,1
北大橋,24.80987,120.96807,1
中正經國路口,24.811628,120.964902,1
西門口,24.802448000000002,120.96218799999998,1
西門市場,24.80367,120.96375,1
交流道口,24.79873,121.00603000000001,1
關東新村,24.7813,121.02553999999999,1
北新竹後站,24.807501000000002,120.984551,1
茄苳湖,24.75773,120.94813,1
西門市場,24.8031,120.96478,1
南門市場,24.799623,120.967744,1
新竹轉運站,24.801228,120.972854,1
元培科技大學,24.77811,120.94012,1
學府路口,24.80048,120.98692,1
民享二站,24.78383,121.00943999999998,1
科技生活館,24.779819,121.00537,1
國軍新竹地區醫院,24.81575,120.96258,1
明月香榭,24.79874,120.9448,1
南油車港,24.82037,120.92792,1
湳雅公園(大潤發),24.819470000000003,120.96888999999999,1
龍山社區口,24.78666,121.01011000000001,1
大鵬二村,24.80513,120.94628,1
仙水,24.782938,121.01868799999998,1
三德,24.83166,120.92896999999999,1
竹蓮街,24.79768,120.96949,1
水利局,24.81129,120.97018999999999,1
清大南大校區,24.794123000000003,120.963953,1
青峰路口,24.779629999999997,120.98143999999999,1
蝦仔埔,24.84349,120.932,1
柴橋,24.77001,120.96642,1
金山公園,24.776395,121.025025,1
三姓橋一站,24.789089999999998,120.92833,1
仙水,24.782939000000002,121.01856200000002,1
罟寮,24.80583,120.9222,1
城隍廟,24.805020000000003,120.96627,1
土地公廟,24.77955,120.93581999999999,1
香山國小,24.79695,120.94568999999998,1
服務中心,24.804129999999997,120.96068999999999,1
下路北,24.78171,120.98783,1
上南寮,24.84427,120.93043999999999,1
新科國中,24.78031,121.02425,1
花園新城,24.76761,120.9791,1
總站,24.80124,120.9706,1
體育館,24.79918,120.97968999999999,1
罟寮一站,24.80684,120.92155,1
中正經國路口,24.811426,120.96499299999999,1
北大教堂,24.809260000000002,120.96726000000001,1
青峰路口,24.77958,120.98143999999999,1
東區區公所,24.80521,120.97305,1
花園新城,24.76765,120.97923999999999,1
經國路口,24.81766,120.99453000000001,1
火車站,24.803691,120.971049,1
虎山,24.80745,120.93524,1
警察宿舍,24.800468,120.97447199999999,1
棒球場,24.80623,120.96172,1
觀日大地,24.77693,120.96101999999999,1
竹光1站,24.81406,120.96033,1
土雞城,24.77855,120.98228999999999,1
草厝,24.83344,120.92961000000001,1
士林里,24.82324,120.95823999999999,1
台灣玻璃,24.79111,120.9374,1
仙宮里,24.784273000000002,120.99052900000001,1
客運補習班,24.78033,120.9673,1
湳中街口,24.818781,120.967141,1
香山高中,24.78518,120.9306,1
新竹監獄,24.803720000000002,120.95924,1
公園,24.80227,120.97838,1
過溝,24.79201,121.00312,1
新竹下站,24.80067,120.96925,1
漁港口,24.84486,120.92903000000001,1
馬偕醫院,24.800420000000003,120.99143000000001,1
金城新村口,24.79382,121.00045,1
港北橋,24.82594,120.92747,1
東華路,24.79448,120.94536000000001,1
親仁里,24.807501000000002,120.971544,1
海軍新村,24.799310000000002,120.99223,1
實驗中學,24.776614000000002,121.016998,1
金華大樓,24.8166,120.97308999999998,1
新竹高中,24.795720000000003,120.98103,1
孟竹國宅,24.799960000000002,120.99735,1
鄭氏家廟,24.810238000000002,120.96583500000001,1
火車站,24.803279999999997,120.97131,1
隘口,24.78274,120.93298,1
新竹高商,24.79691,120.98453,1
上寮,24.83921,120.93451999999999,1
土地公廟,24.77946,120.93602,1
愛買2站,24.804170000000003,120.9935,1
雞蛋面,24.787007,120.98631699999999,1
東華路,24.794420000000002,120.9453,1
東南街口,24.79945,120.97261,1
新竹國小,24.795817,120.966867,1
南勢,24.80505,120.94991,1
聖公宮,24.785483,120.91848999999999,1
經國西大路口,24.80868,120.95917,1
台大新竹分院,24.81568,120.98003,1
冠軍廠,24.824189999999998,120.92712,1
埔頂庄,24.79468,121.00901999999999,1
美術館,24.806379999999997,120.96983999999999,1
大潤發,24.81769,120.97051,1
新光路口,24.80445,120.99043,1
三民國中,24.811410000000002,120.97955,1
成功路口,24.815089999999998,120.95558999999999,1
原興路口,24.80782,121.0052,1
青峰路口,24.779638000000002,120.98132700000001,1
中寮,24.83877,120.93285,1
好市多,24.79424,121.01195,1
天公壇,24.8006,120.95778999999999,1
後站(公園路口),24.80152,120.97568000000001,1
北門國小,24.814510000000002,120.96712,1
金華大樓,24.816523999999998,120.97220300000001,1
香山坑,24.77845,120.93817,1
林森路口,24.79697,120.96185,1
地政事務所,24.8172,120.97606999999999,1
深湖,24.77046,120.96591000000001,1
巨城購物,24.80922,120.97568999999999,1
清大南大校區,24.794009,120.96392800000001,1
高峰植物園,24.78839,120.98203999999998,1
仙宮里活動中心,24.783535,120.989827,1
新竹國小,24.795384,120.965884,1
中埔口,24.79362,120.94552,1
水源地,24.797810000000002,120.98566000000001,1
南寮,24.84744,120.92873,1
三廠,24.80461,120.95533999999999,1
台貿四村,24.8019216856,120.955485383,1
土雞城,24.778569,120.98222,1
瓦厝,24.809910000000002,120.92419,1
科學園區,24.78824,121.00835,1
文教新村,24.79671,120.999276,1
獅頭橋,24.77634,120.94353999999998,1
高峰,24.77746,120.98311000000001,1
瑞光街口,24.793039999999998,120.92347,1
新竹轉運站,24.801274,120.972613,1
漢威光電,24.783478,120.99987,1
土地廟,24.82284,120.97667,1
國軍新竹地區醫院,24.815754000000002,120.96259099999999,1
清大南大校區,24.793651999999998,120.96351299999999,1
介壽山口,24.792084,120.975476,1
中正城北街口,24.813470000000002,120.96342,1
大鵬新城,24.80329,120.9538,1
南大路口,24.796879999999998,120.96967,1
士林里,24.822960000000002,120.95839,1
大同磁器,24.79025,120.92735,1
香山行政大樓,24.79421,120.94293,1
清華大學,24.79645,120.99746999999999,1
東門市場,24.80521,120.96963999999998,1
金山園,24.7905,120.93406999999999,1
西門市場,24.80438,120.96385,1
鄭厝,24.821260000000002,120.97464,1
學府路口,24.80024,120.98671999999999,1
田美一站,24.81324,120.97356,1
翠壁岩寺,24.78569,120.98803999999998,1
載熙國小,24.81929,120.96261000000001,1
孟竹國宅,24.799529999999997,120.99739,1
國華街口,24.81399,120.97034,1
南門市場,24.79965,120.96791,1
竹蓮市場,24.79368,120.97393000000001,1
瓦厝,24.81006,120.92426,1
警察宿舍,24.800769,120.974621,1
竹蓮街,24.79795,120.97011,1
竹興公司,24.78944,120.93201,1
東美路,24.80177,121.00325,1
香山區公所,24.79716,120.9421,1
東門市場,24.805219,120.969633,1
中華大學宿舍,24.7579,120.95015,1
新竹青果,24.796310000000002,120.9705,1
馬偕醫院,24.79999,120.99036000000001,1
青峰路口,24.779664999999998,120.981485,1
吉悌,24.79435,120.93248,1
光復中學,24.79824,120.99479,1
東門市場,24.805562,120.96938,1
西門派出所,24.801679999999998,120.96103000000001,1
高峰,24.77763,120.98307,1
建華國中,24.794295,120.976229,1
同業公會,24.782379000000002,121.002049,1
北新竹後站,24.807501000000002,120.984551,1
苦苓腳,24.83373,120.94743000000001,1
服務中心,24.80441,120.96083999999999,1
柴橋,24.774,120.96667,1
水田尾,24.81632,120.96871000000002,1
火車站,24.803320000000003,120.9711,1
西門市場,24.80415,120.96401999999999,1
曙光女中,24.81231,120.97228,1
科學園區別墅,24.78473,121.014,1
深湖,24.77001,120.96642,1
田美二站,24.81511,120.97421000000001,1
忠貞新村,24.79707,120.99812,1
牛埔,24.79716,120.9421,1
監理站,24.8114,120.98225,1
關新公園,24.78579,121.01891100000002,1
日光燈,24.7841,121.01612,1
湳中街口,24.81878,120.96713999999999,1
武陵社區,24.817970000000003,120.96595,1
香山坑,24.77846,120.93788,1
國軍新竹地區醫院,24.816356,120.963086,1
西門市場,24.804145000000002,120.96401999999999,1
竹光國中,24.80764,120.95585,1
虎山,24.80752,120.93502,1
東美路,24.80171,121.00358999999999,1
東香南街口,24.762006799999998,120.949913,1
巨城購物,24.80922,120.97568999999999,1
世界高中,24.782107999999997,121.020082,1
德和,24.795939999999998,120.93458000000001,1
港北橋,24.82584,120.92725,1
草厝,24.83332,120.92958999999999,1
東南街口,24.797520000000002,120.97405,1
中正經國路口,24.811629999999997,120.9649,1
南大路口,24.79714,120.96955,1
客運補習班,24.78044,120.96716,1
烏瓦厝,24.83043,120.95551,1
後站(公園路口),24.80141,120.9758,1
景湖別墅,24.77721,120.96734,1
韭菜坑,24.769779999999997,120.94722,1
南門市場,24.80114,120.96632,1
埔頂庄,24.794620000000002,121.00901999999999,1
新竹區漁會,24.846392,120.92494199999999,1
烏瓦厝,24.83015,120.95508000000001,1
慈濟路口,24.79346,121.01501,1
慈濟路口,24.79331,121.01515,1
和平橋,24.8012,120.95414,1
普天宮,24.78115,120.98062,1
富美宮,24.84044,120.93768999999999,1
經國北大路口,24.8141,120.97466000000001,1
青草湖,24.77083,120.97326000000001,1
火車站,24.80348,120.97101,1
客運補習班,24.78033,120.9673,1
隘口,24.78274,120.93298,1
新安站,24.78112,121.004406,1
苗圃,24.78865,120.98193,1
中埔口,24.7938,120.94533999999999,1
新東藥廠,24.80003,120.94689,1
中埔里,24.79757,120.94493999999999,1
舊社,24.82335,120.97769,1
文化中心,24.81174,120.96914,1
金山八街,24.77826,121.02045,1
火車站,24.80314,120.97176,1
綜合運動場,24.79243,120.93025,1
上寮,24.839129999999997,120.93422,1
監獄邊,24.80424,120.95727,1
關東橋,24.78155,121.02296000000001,1
千甲車站,24.80744,121.00222,1
北門國小,24.81436,120.96687,1
關東新村,24.78122,121.02555,1
十塊寮,24.83756,120.93198000000001,1
郵局,24.8205,120.96086000000001,1
育賢國中,24.78953,120.96598,1
中埔,24.79565,120.94948000000001,1
御史崎,24.787229999999997,120.96748999999998,1
竹泰社區,24.77883,120.98534,1
火車站,24.802789999999998,120.97277,1
三民國中,24.811410000000002,120.97955,1
仙宮里活動中心,24.783439,120.989704,1
市政府,24.807392,120.968101,1
竹泰社區,24.778966,120.985469,1
忠孝社區,24.78955,120.96598999999999,1
第二綜合大樓,24.794098,120.993702,1
鄭氏家廟,24.809988,120.966001,1
仙宮里活動中心,24.783739999999998,120.98977,1
大鵬二村,24.80505,120.94653000000001,1
文教新村,24.79671,120.99928,1
陽明清境,24.77945,120.9596,1
建功高中,24.79704,121.00173999999998,1
中和路,24.80135,120.95647,1
鄭氏家廟,24.810229999999997,120.96583999999999,1
店子口,24.79642,120.94055,1
香山轉運站,24.75611,120.95331000000002,1
梅竹山莊,24.78955,121.00046999999999,1
聖德宮,24.797710000000002,120.94778000000001,1
生科館(人社院),24.789329000000002,120.989681,1
中埔,24.79565,120.94948000000001,1
南油車港,24.820510000000002,120.92793999999999,1
翠壁岩寺,24.78567,120.98817,1
和平橋,24.80144,120.95421999999999,1
營房口,24.814,120.92867,1
建功公園,24.79427,121.00258000000001,1
明月香榭,24.79896,120.94476,1
樹林頭,24.82149,120.95995,1
萬佛寺,24.790131,120.97728700000002,1
警光一村,24.79733,120.95605,1
後站,24.80152,120.97568000000001,1
體育場,24.8014,120.98286,1
忠孝社區,24.79149,120.96408999999998,1
光華國中,24.817749994099998,120.97378007649999,1
太子宮,24.80509,120.95312,1
富群花園,24.76878,120.9582,1
上糠榔,24.83451,120.94623,1
吉悌,24.79436,120.93238999999998,1
南門市場,24.80114,120.9664,1
中埔,24.7954,120.94953000000001,1
愛買1站,24.80314,120.99396999999999,1
變電所,24.81597,120.9603,1
科技生活館,24.779819,121.00537,1
新竹高商,24.796879999999998,120.98421,1
信義新村,24.8427,120.93348999999999,1
漁港口,24.84487,120.92928,1
愛買1站,24.802770000000002,120.99393,1
港北,24.82969,120.92832,1
茄苳湖,24.75783,120.9482,1
果菜市場,24.81469,120.97886000000001,1
大同磁器,24.79042,120.92719,1
高翠,24.780283999999998,120.986999,1
光復中學,24.79834,120.99484,1
文教新村,24.796684,120.999583,1
公園,24.80227,120.97838,1
天公壇,24.80005,120.95778999999999,1
介壽山口,24.79226,120.97556999999999,1
東南街口,24.799485,120.972563,1
下路北,24.78171,120.98783,1
經國北大路口,24.814410000000002,120.9749,1
東門市場,24.805239999999998,120.9695,1
中正經國路口,24.811420000000002,120.965,1
中華大學宿舍,24.7579,120.95015,1
自由經國路口,24.81405,120.98008,1
育賢國中,24.78953,120.96598,1
警察宿舍,24.800232,120.973903,1
千甲社區,24.807598000000002,121.00680200000001,1
農會,24.79668,120.95456999999999,1
日光燈,24.78402,121.01566000000001,1
民富國小,24.808120000000002,120.96082,1
武陵路口,24.817742000000003,120.96345900000001,1
好市多,24.79254,121.01266000000001,1
光華國中,24.81805,120.97426000000002,1
馬偕醫院,24.79962,120.99183000000001,1
樹林頭,24.82151,120.95988999999999,1
世界高中,24.782329999999998,121.02004,1
經國西大路口,24.80848,120.95933000000001,1
日月光飯店,24.76935,120.95681,1
國賓大飯店,24.80609,120.97764,1
頂埔社區,24.799386471,120.952659075,1
過溝,24.79256,121.00263000000001,1
金華二站,24.81646,120.97883999999999,1
仙水,24.782785999999998,121.01848600000001,1
獅頭橋,24.77628,120.94333,1
台積館,24.786945000000003,120.98855900000001,1
後站(公園路口),24.80141,120.9758,1
里辦公處,24.84167,120.93568,1
林森路口,24.79697,120.96186000000002,1
火車站,24.803320000000003,120.9711,1
經國北大路口,24.81288,120.97478000000001,1
日光燈,24.784026,121.015653,1
火車站,24.803082,120.97125,1
育賢國中,24.78975,120.96571000000002,1
光武國中,24.78555,121.01205,1
竹蓮市場,24.79399,120.97346,1
南門市場,24.799326,120.96693700000002,1
元培科技大學,24.778000000000002,120.94049,1
綜合運動場,24.79232,120.93016999999999,1
科學園區,24.78885,121.00801000000001,1
火車站,24.80336,120.97113999999999,1
實驗中學,24.776485,121.017398,1
景湖別墅,24.77721,120.96734,1
竹光3站,24.81189,120.95746000000001,1
北大橋,24.809820000000002,120.96815,1
新竹車站,24.803072,120.97111000000001,1
觀日大地,24.77688,120.96101999999999,1
信義新村,24.84255,120.93373999999999,1
高峰社區,24.79151,120.9756,1
亞美佳社區,24.76914,120.97735,1
東區區公所,24.80529,120.9732,1
育賢國中,24.78975,120.96571000000002,1
龍山社區口,24.7861,121.01021999999999,1
新竹高商,24.796916074099997,120.9845548072,1
海濱,24.83605,120.93083999999999,1
介壽山口,24.79218,120.97561999999999,1
科學二站,24.783360000000002,121.01131000000001,1
親仁里,24.8075,120.97153999999999,1
外湖路口,24.828210000000002,120.92787,1
北區區公所,24.81702,120.9713,1
雞蛋面,24.78706,120.98641,1
榮民之家,24.7948,120.95518,1
光武國中,24.78576,121.012,1
富美宮,24.84065,120.93735,1
湳雅公園(大潤發),24.81845,120.97053000000001,1
公園,24.80104,120.97653999999999,1
武陵社區,24.817953,120.965893,1
金廈園,24.80611,120.92911000000001,1
親仁里,24.80745,120.97168,1
湳中街口,24.819886999999998,120.967188,1
二分局,24.80171,120.98553000000001,1
神學院,24.78901,121.00253000000001,1
旭家經貿,24.80377,121.00616000000001,1
美麗家園,24.77185,120.96806000000001,1
地方法院,24.80755,120.9678,1
國泰醫院,24.798029999999997,120.96518999999999,1
新竹國小,24.795882000000002,120.967032,1
龍山里,24.789028,121.011831,1
聖德宮,24.797710000000002,120.94783999999999,1
新瓦屋(文興路),24.8114,121.02694,1
香山高中,24.785,120.93081000000001,1
美森街口,24.7921,120.92561,1
千甲車站,24.807170000000003,121.00136,1
梅竹山莊,24.7895,121.00044,1
武陵社區,24.81794,120.96565,1
韭菜坑,24.769779999999997,120.94731000000002,1
小南勢,24.80536,120.93828,1
同步輻射中心,24.783838,120.994472,1
過溝,24.79177,121.00323,1
慈雲埔頂二路口,24.7911,121.01227,1
火車站(中正路),24.803239,120.971151,1
慈雲埔頂二路口,24.791179999999997,121.01207,1
警光路,24.79739,120.95721,1
高峰,24.77763,120.98307,1
冰廠,24.8466,120.92893000000001,1
實踐新村,24.80506,120.94424,1
同業公會,24.782384,121.00183999999999,1
新竹監獄,24.80359,120.95928,1
西大路口,24.79705,120.96865,1
香山區公所,24.797150786,120.9420958979,1
光復中學,24.79816,120.99456,1
店子口,24.7962,120.94057,1
市政府,24.807385999999997,120.96778300000001,1
柴橋,24.774,120.96667,1
客運補習班,24.78044,120.96716,1
土地廟,24.82302,120.97685,1
國泰醫院,24.79801,120.96507,1
台貿四村,24.8018353681,120.9553539125,1
西門市場,24.804384,120.96385,1
青松公寓,24.79542,120.97178000000001,1
孟竹國宅,24.799431,120.99739,1
竹光新村,24.814970000000002,120.9624,1
旭家經貿,24.80416,121.00623,1
外湖路口,24.82783,120.92785,1
牛埔口,24.79255,120.94211999999999,1
農會,24.79658,120.95456999999999,1
千甲社區,24.807669,121.00680200000001,1
西大路,24.796986999999998,120.968528,1
三姓橋火車站,24.78633,120.92926000000001,1
北大橋,24.81033,120.96865,1
天公壇,24.80058,120.95753,1
吉羊路口,24.82537,120.95693999999999,1
老人大學,24.80227,120.97838,1
沙崙,24.81307,120.95426,1
華夏金城,24.795070000000003,121.00447,1
美森街口,24.7919,120.92573999999999,1
溪埔,24.81527,120.98987,1
金華里,24.818720000000003,120.97672,1
第二綜合大樓,24.794003,120.99374499999999,1
竹興公司,24.78971,120.93178999999999,1
頂埔社區,24.79968,120.9527,1
香山坑,24.778470000000002,120.9382,1
高翠,24.78032,120.98713000000001,1
工研院光復院區,24.80046,120.98891,1
新竹高中,24.79565,120.98113000000001,1
科學園區,24.788320000000002,121.00837,1
西門國小,24.80234,120.96009,1
水田,24.81581,120.96779,1
火車站,24.80261,120.9724,1
虎林新村,24.80507,120.94218000000001,1
古賢里,24.83251,120.95177,1
交大博愛校區,24.79853,120.98313999999999,1
南光新村,24.78521,120.96761000000001,1
牛埔口,24.79215,120.94171000000001,1
水源,24.80671,120.99873000000001,1
景湖別墅,24.77714,120.96728999999999,1
湳中街口,24.81989,120.96718999999999,1
新竹國小,24.796110000000002,120.96688999999999,1
新莊車站,24.788010999999997,121.021254,1
東南街口,24.799345000000002,120.97266299999998,1
南光新村,24.78521,120.96761000000001,1
香雅橋,24.80424,120.92586999999999,1
金元寶,24.80815,120.9223,1
科學園區,24.78835,121.00846000000001,1
經國路口,24.81648,120.99383999999999,1
民生中央路口,24.81017,120.97708,1
二分局,24.801433,120.985459,1
港南,24.8223,120.92695,1
糠榔,24.83537,120.94528999999999,1
輕便車站,24.8362,120.94408999999999,1
香山高中,24.785,120.93081000000001,1
愛買2站,24.80396,120.99353,1
鄭厝,24.82114,120.97455,1
西門口,24.80242,120.96213,1
信義幼稚園,24.79888,120.95496000000001,1
南光新村,24.78722,120.96743000000001,1
新竹女中,24.80481,120.97633,1
國泰醫院,24.798032,120.965193,1
北大教堂,24.80924,120.96706,1
海口,24.815360000000002,120.92881000000001,1
牛埔口,24.79255,120.94211999999999,1
榕樹下,24.77261,120.94478000000001,1
大庄里,24.79177,120.92681,1
雞蛋面,24.787354999999998,120.985877,1
竹蓮街,24.797392000000002,120.96948200000001,1
水利路,24.80286,121.00548,1
郵局,24.820610000000002,120.9609,1
榮民之家,24.79472,120.95525,1
湳雅公園(大潤發),24.8196,120.96888999999999,1
東光忠孝路口,24.80482,120.98676999999999,1
土地廟,24.78144,121.00961000000001,1
建功高中,24.796960000000002,121.00126999999999,1
世博台灣館,24.80494,120.99335,1
東光忠孝路口,24.80467,120.98688999999999,1
海濱,24.83601,120.93086000000001,1
中興橋,24.785120000000003,120.96758999999999,1
虎林國小,24.80516,120.94078,1
火車站,24.803239,120.971151,1
哈洛德(嘉豐十一路),24.80796,121.03625,1
下路北,24.78156,120.98808000000001,1
文化中心,24.81188,120.96928,1
和平,24.78664,121.01083,1
博愛街口,24.79949,120.98118999999998,1
警察宿舍,24.80051,120.974456,1
成德路,24.794162,120.95798500000001,1
台灣玻璃,24.79094,120.93784,1
北區區公所,24.81726,120.97164,1
三姓橋火車站,24.78633,120.92926000000001,1
公園,24.80227,120.97838,1
南寮國小,24.8391,120.93947,1
聖經書院,24.79262,120.9733,1
西門口,24.802569000000002,120.962177,1
交流道口,24.79906,121.0063,1
文教新村,24.796670000000002,120.99953000000001,1
新竹女中,24.805139999999998,120.97631000000001,1
莊厝,24.82976,120.98147,1
集福宮,24.77776,121.02238,1
新莊車站,24.78806,121.02145,1
磐石高中,24.81042,120.95613999999999,1
工研院光復院區,24.80069,120.98866000000001,1
玄奘大學,24.7746,120.94434,1
華夏金城,24.79504,121.00405,1
台貿四村,24.801920000000003,120.95549,1
水利路,24.802670000000003,121.00523000000001,1
十塊寮,24.837429999999998,120.93191000000002,1
港南,24.82229,120.9271,1
萬佛寺,24.79053,120.97695,1
新竹高商,24.796859,120.98417099999999,1
學園商場,24.79862,120.97773000000001,1
頂埔社區,24.79939,120.95265,1
忠貞新村,24.79704,120.99811000000001,1
國泰醫院,24.797995999999998,120.96504399999999,1
警光一村,24.79743,120.95615,1
馬偕醫院,24.79955,120.99188000000001,1
學園商場,24.798679999999997,120.97798999999999,1
文教新村,24.79531,120.99877,1
重義橋,24.79795,120.94368,1
景湖別墅,24.77714,120.96728999999999,1
文興嘉豐南路口,24.80953,121.03195,1
建華社區,24.7880766667,120.9753183333,1
東門市場,24.80528,120.96958899999998,1
文雅新村,24.811770000000003,120.9558,1
萬佛寺,24.790454999999998,120.97700800000001,1
美麗家園,24.771639999999998,120.9682,1
蝦仔埔,24.8436,120.93206,1
後站,24.80141,120.9758,1
新竹高中,24.795704999999998,120.98098600000002,1
工研院光復院區,24.80044,120.98913999999999,1
西大路口,24.79705,120.96865,1
青峰路口,24.77958,120.98143999999999,1
高翠,24.779911,120.986951,1
文教新村,24.79684,120.99976000000001,1
金山園,24.7905,120.93392,1
台大新竹分院,24.8157,120.98001000000001,1
香山行政大樓,24.79411,120.94296999999999,1
竹中口,24.78087,121.02861999999999,1
金華里,24.81863,120.97668,1
新竹車站,24.80377,120.97107,1
竹光1站,24.81414,120.96055,1
牛埔,24.79713,120.94209,1
金廈園,24.80627,120.92915,1
金城一路站,24.794567,121.00201100000001,1
東門市場,24.805256,120.969606,1
體育場,24.80149,120.98273,1
新竹轉運站,24.801228,120.972854,1
博愛街口,24.79958,120.98126,1
湳雅,24.8194,120.97243,1
國軍新竹地區醫院,24.81636,120.96309,1
愛買2站,24.80411,120.99345,1
大潤發1站,24.80419,120.98455,1
地方法院,24.807570000000002,120.96779,1
土雞城,24.778589999999998,120.98206299999998,1
南勢,24.80506,120.94981000000001,1
中山路,24.80095,120.95938000000001,1
青草湖,24.770670000000003,120.97322,1
林森路口,24.79678,120.961545,1
中興橋,24.78275,120.96728,1
金華二站,24.816489999999998,120.97886000000001,1
東南街口,24.7995,120.9726,1
南寮國小,24.83933,120.93931,1
土雞城,24.77855,120.98228999999999,1
中正城北街口,24.813489999999998,120.96343999999999,1
棒球場,24.80601,120.96201,1
南勢化工,24.80503,120.95161,1
介壽山口,24.792088,120.97563799999999,1
南勢化工,24.80511,120.95143999999999,1
高峰植物園,24.787007,120.98195600000001,1
成德高中,24.79322,120.95284,1
高峰路口,24.79506,120.97231000000001,1
御史崎,24.785220000000002,120.9676,1
二分局,24.801370000000002,120.98598999999999,1
金元寶,24.808529999999998,120.92251,1
三姓橋一站,24.78901,120.92838,1
神學院,24.789070000000002,121.00266,1
關埔公園,24.791179999999997,121.01783,1
中和路,24.8013,120.95645,1
民富國小,24.808239999999998,120.96094,1
愛買2站,24.80404,120.9936,1
建華國中,24.794028,120.9758,1
學園商場,24.798576,120.977805,1
清華大學,24.79665,120.99746999999999,1
港北,24.8296,120.92831000000001,1
新光路口,24.80442,120.99066,1
糠榔,24.83534,120.94515,1
金城新村口,24.793779999999998,121.00052,1
西大路口,24.79704,120.96858999999999,1
三姓橋火車站,24.78656,120.92948,1
明烈宮,24.793120000000002,120.92221,1
和平,24.78683,121.01076,1
東南街口,24.7995,120.9726,1
田美二站,24.81471,120.97417,1
陽明清境,24.77926,120.95976999999999,1
載熙國小,24.81953,120.96198000000001,1
光華國中,24.81775,120.97379,1
地方法院,24.80738,120.96779,1
上糠榔,24.83442,120.94646999999999,1
好市多,24.79413,121.01203999999998,1
民生民族路口,24.80896,120.97778999999998,1
國賓大飯店,24.80651,120.97872,1
長壽會館,24.8235,120.97063,1
清大南大校區,24.79364,120.96351399999999,1
南光新村,24.78722,120.96743000000001,1
東區區公所,24.805329999999998,120.97305,1
竹蓮街,24.797913,120.970049,1
公園,24.80227,120.97838,1
果菜市場,24.81455,120.97826,1
中埔,24.7954,120.94953000000001,1
鄭氏家廟,24.81009,120.96592,1
建華國中,24.794329,120.976226,1
水田尾,24.816570000000002,120.96882,1
九甲埔,24.80726,121.00832,1
台積館,24.786894,120.98841100000001,1
埔羌圍,24.80005,120.95062,1
苦苓腳,24.833679999999998,120.94769,1
金城新村口,24.79385,121.00101000000001,1
仙宮里,24.784423999999998,120.990637,1
虎林新村,24.805139999999998,120.94228000000001,1
中庄,24.80698,120.93182,1
科學園區,24.78877,121.00802,1
東山文教院,24.79738,120.979,1
九甲埔,24.80729,121.00804,1
水利局,24.811239999999998,120.97046999999999,1
如意新村,24.81609,120.95913,1
交大南大門,24.783376,120.996232,1
東門市場,24.80561,120.96954,1
古賢里,24.83253,120.95251999999999,1
老人大學,24.80227,120.97838,1
警察宿舍,24.800232,120.973903,1
西大路口,24.79704,120.96858999999999,1
財神廟,24.78611,120.97673999999999,1
仙宮里,24.784273000000002,120.990582,1
體育館,24.799220000000002,120.97952,1
南寮,24.84743,120.92884,1
雞蛋面,24.78706,120.98641,1
愛買1站,24.80262,120.99388,1
世界高中,24.78218,121.02008000000001,1
竹蓮街,24.79795,120.97011,1
水源地,24.7978037537,120.98565888610001,1
竹泰社區,24.778716,120.985496,1
溪埔,24.81539,120.98982,1
原興路口,24.80774,121.00538999999999,1
萬佛寺,24.79026,120.97729,1
東門市場,24.80561,120.96954,1
東門市場,24.805524,120.969408,1
台貿四村,24.80184,120.95533999999999,1
警光路,24.79751,120.95713,1
漢威光電,24.783476999999998,120.99901000000001,1
虎林國小,24.80505,120.94071000000001,1
火車站(中正路),24.803320000000003,120.9711,1
竹光3站,24.8114,120.95726,1
海埔地,24.81812,120.92901,1
火車站,24.803407,120.971855,1
東香南街口,24.7620792,120.94979099999999,1
清華大學,24.795820000000003,120.99831999999999,1
後站(公園路口),24.80151,120.97581000000001,1
東南街口,24.79755,120.97413999999999,1
舊社國小,24.822329999999997,120.97482,1
北校門,24.796429,120.99653300000001,1
高峰,24.77739,120.983048,1
實踐新村,24.80498,120.94443999999999,1
過溝,24.79185,121.00352,1
榕樹下,24.772270000000002,120.94481,1
黃帝神宮,24.77111,120.97118999999999,1
自由經國路口,24.81407,120.97989,1
中興橋,24.785120000000003,120.96758999999999,1
東門國小,24.80643,120.97365,1
金山街口,24.778051,121.019019,1
土雞城,24.778589999999998,120.9821,1
新瓦屋(文興路),24.81137,121.02673999999999,1
香山區公所,24.79713,120.94209,1
牛埔口,24.79215,120.94171000000001,1
西門口,24.802570000000003,120.96218,1
獅頭橋,24.776220000000002,120.94391999999999,1
東山文教院,24.79747,120.97886000000001,1
學府路口,24.800236398200003,120.986719624,1
光復中學,24.79824,120.99456,1
公學新城,24.801820000000003,120.99603,1
高峰植物園,24.788586,120.981918,1
竹光3站,24.81166,120.95761,1
民生中央路口,24.81048,120.97691,1
民有二街,24.78087,121.00978,1
富群街口,24.767429999999997,120.96073,1
德和,24.796020000000002,120.93471000000001,1
牛埔,24.83784,120.94167,1
舊社,24.823339999999998,120.97768,1
高峰,24.777612,120.983096,1
監理站,24.811510000000002,120.98206,1
竹光國中,24.807560000000002,120.95562,1
竹泰社區,24.77883,120.98534,1
火車站,24.80312,120.971227,1
信義幼稚園,24.79875,120.95505,1
中埔口,24.7938,120.94533999999999,1
東門市場,24.805319,120.969559,1
海埔地,24.81793,120.92891999999999,1
牛埔,24.83801,120.94148999999999,1
獅頭橋,24.7762,120.94398999999999,1
竹泰社區,24.778760000000002,120.98553000000001,1
香山坑,24.77841,120.93818,1
冰廠,24.84627,120.9288,1
大潤發2站,24.805897,120.983924,1
交大博愛校區,24.79842,120.98382,1
成德路,24.794247,120.958148,1
埔前,24.79645,120.93782,1
關東橋,24.78152,121.02303,1
金城新村口,24.793689999999998,121.00086,1
新竹青果,24.79635,120.97065,1
天公壇,24.79959,120.95753,1
建功公園,24.79412,121.00272,1
莊厝,24.829729999999998,120.98136000000001,1
御史崎,24.785220000000002,120.9676,1
東區區公所,24.805310000000002,120.97301000000002,1
馬偕醫院,24.799889999999998,120.99049,1
武陵社區,24.81795,120.965713,1
關埔公園,24.79123,121.01794,1
亞美佳社區,24.76764,120.97928,1
三廠,24.80435,120.95539,1
哈洛德(文興路),24.80773,121.03473000000001,1
大潤發2站,24.805729,120.98358700000001,1
玄奘大學,24.775170000000003,120.94406000000001,1
普天宮,24.78115,120.98062,1
竹光2站,24.812839999999998,120.9587,1
南門市場,24.79962,120.96773999999999,1
警察宿舍,24.80051,120.974456,1
東門市場,24.805286,120.96958400000001,1
頂埔社區,24.7996798923,120.9523735708,1
火車站,24.803307999999998,120.97182,1
火車站(民族路),24.80314,120.97176,1
仙水,24.782970000000002,121.01858999999999,1
太子宮,24.80499,120.95329,1
忠孝社區,24.78955,120.96598999999999,1
金城一路站,24.794696,121.002086,1
地政事務所,24.81705,120.9761,1
中庄,24.80677,120.93165,1
吉羊路口,24.824920000000002,120.95711999999999,1
前溪社區,24.81514,120.98695,1
中興橋,24.78275,120.96728,1
下路北,24.781531,120.988018,1
小南勢,24.80559,120.93758999999999,1
柴橋,24.77001,120.96642,1
罟寮一站,24.80668,120.92154,1
埔前,24.79659,120.93755,1
竹蓮國小,24.79626,120.97456000000001,1
東南街口,24.79945,120.97261,1
御史崎,24.787229999999997,120.96748999999998,1
新竹國小,24.795817,120.966867,1
埤塘窩口,24.851866,121.106283,1
地政所,24.83362,121.01298999999999,1
縣政二路,24.83098,121.01787,1
庄頭,24.86206,120.9595,1
上泉州厝,24.819760000000002,121.01742,1
中泰路口,24.8406,121.00542,1
莊敬北路,24.82958,121.02622,1
土地公,24.858258,120.984711,1
文化局,24.83021,121.01166,1
家樂福,24.827427,121.008602,1
興隆,24.80017,121.04265,1
台鐵竹中站,24.781295999999998,121.031296,1
郵局,24.736645000000003,121.093021,1
特殊教育學校,24.81486,121.03238,1
溪洲,24.84101,120.97645,1
貓兒錠口,24.85524,121.00138000000001,1
竹北地政事務所站,24.833000000000002,121.01299999999999,1
中泰路口,24.84074,121.00532,1
仁愛國中,24.83277,121.01498000000001,1
新溪街,24.83324,120.99111,1
中華公園,24.871931,121.01296799999999,1
喜來登,24.82014,121.02906000000002,1
東海國小,24.805245000000003,121.04960600000001,1
東平,24.80039,121.05231,1
鳳岡國中,24.86385,120.96637,1
縣政九路,24.825210000000002,121.00849,1
員山路口,24.782989999999998,121.03908600000001,1
逸境新村,24.85667,120.99196,1
蓮華寺,24.827879,121.03496399999999,1
中和街口,24.848770000000002,121.00505,1
公三公園,24.803179,121.03618999999999,1
二重埔,24.766610999999997,121.056716,1
溪洲,24.84101,120.97645,1
義民廟,24.841867999999998,121.036698,1
莊敬北路,24.82947,121.02632,1
麻園橋,24.84476,120.97644,1
茄苳伯公,24.74152,121.13456000000001,1
天后宮站,24.835196,121.012376,1
郵局前,24.86288,121.02573000000001,1
博愛國小,24.83009,121.00511000000002,1
泰和一街口,24.8474,121.0053,1
華興街口,24.842229999999997,121.00478999999999,1
米崙,24.81276,121.04088999999999,1
山腳,24.87408,120.95608,1
榮民講習所,24.857744,121.01376299999998,1
東元醫院,24.8236,121.01258,1
交叉口,24.81909,121.03063,1
麻園國小,24.84638,120.9764,1
清境名園,24.84224,120.96619,1
黃昏市場,24.84161,120.98675,1
邱厝,24.84058,120.9806,1
水瀧,24.835160000000002,121.02106,1
豐田口,24.84221,120.96701000000002,1
下枋寮,24.84582,121.03048999999999,1
新瓦屋,24.84463,121.03348000000001,1
蓮華寺,24.827931,121.035366,1
伍福宮,24.82191,121.02891000000001,1
福德宮,24.831529999999997,120.98347,1
兒15公園,24.84405,120.99972,1
盛隆,24.84244,120.98931,1
莊敬五路,24.8237,121.02698000000001,1
明新科大,24.865423999999997,120.99100800000001,1
水利大樓,24.8346,121.00473999999998,1
鴛鴦池口,24.861836,121.10411299999998,1
大肚社區,24.72525,121.13136000000002,1
新埔宗祠客家文化導覽館,24.827986,121.07918899999999,1
庄頭,24.86204,120.95925,1
縣政九路,24.82524,121.00878999999999,1
竹北國中,24.841089999999998,121.00031000000001,1
三玄宮,24.8322,120.98881999999999,1
富貴街口,24.77735,121.03451000000001,1
新豐車站,24.869292,120.99600600000001,1
衛生所,24.8313,121.00658,1
新庄口,24.841910000000002,120.95539,1
特殊教育學校站,24.814253,121.0327,1
博愛國小,24.829697,121.004985,1
縣政二路,24.83103,121.01789,1
新竹鄉城,24.86063,121.00771,1
十興國小,24.8247,121.02512,1
東海國小,24.80585,121.04913,1
百木達景觀休閒花市,24.84198,121.03656000000001,1
新農民市場,24.831313,121.08773500000001,1
稻花香,24.86099,120.96238799999999,1
公九公園,24.83292,121.00118,1
許厝,24.84658,120.95697,1
稻花香,24.86099,120.96238799999999,1
東平,24.800280167399997,121.0523969321,1
金山街,24.778229999999997,121.01871000000001,1
莊敬五路,24.82359,121.02695,1
廣和宮,24.827932999999998,121.074472,1
下溪洲,24.84177,120.97015,1
竹東火車站,24.73798,121.09418000000001,1
市場前,24.83371,121.0145,1
田九厝,24.85902,120.97966000000001,1
園頂,24.8616,120.97133999999998,1
縣政府,24.82612,121.012,1
地政所,24.83323,121.01321000000002,1
天主堂,24.859985,121.022489,1
台灣企銀,24.827920000000002,121.01016000000001,1
文山三民路口,24.788972,121.06728700000001,1
台新罐頭廠,24.82739,121.00271000000001,1
海仔尾,24.85049,120.94165,1
喜來登飯店,24.8203,121.02702,1
新仁醫院,24.835160000000002,121.00863000000001,1
新民街,24.844379999999997,120.99668,1
聯興口,24.84304,120.99491,1
婦幼館站,24.833000000000002,121.01899999999999,1
東平,24.80069,121.05228999999999,1
油羅溪橋,24.71978,121.1226,1
廣聖宮,24.8224,121.027,1
新港,24.85061,120.94641000000001,1
園仔頂,24.866789999999998,120.95114,1
仰德園,24.85104,121.027075,1
新庄子,24.72168,121.1091,1
福德宮,24.83164,120.98333000000001,1
台新罐頭廠,24.82739,121.00271000000001,1
大肚社區,24.72544,121.13146,1
公園城,24.83313,121.02356,1
尚海灘,24.869967000000003,120.95149599999999,1
水瓏,24.8351,121.02146,1
中溪洲,24.841348999999997,120.973221,1
豐田國小,24.84248,120.96466000000001,1
彰化銀行,24.8418,121.01256000000001,1
褒忠自強北路口,24.830970999999998,121.036404,1
田中央,24.855897,120.9978,1
高鐵新竹站,24.807173000000002,121.040384,1
港安宮,24.84978,120.94855,1
田九厝,24.858929999999997,120.97976000000001,1
大肚,24.72244,121.13548999999999,1
十興國小站,24.824,121.023,1
東勢口,24.8634,120.96813999999999,1
縣政府,24.825979999999998,121.01165,1
竹北火車站,24.840943,121.008827,1
豆子埔橋,24.832488,121.003573,1
市公所,24.83915,121.00436,1
崁仔腳,24.86155,120.94923,1
仰德園,24.851156,121.02696100000001,1
園仔頂,24.8666,120.95109,1
麻園涼亭,24.84781,120.97678,1
大肚,24.72237,121.13531,1
田心子,24.86883,120.95128000000001,1
天主堂,24.8601,121.02228999999998,1
實驗中學,24.776510000000002,121.01736000000001,1
德惠宮,24.862070000000003,120.95407,1
泰和里,24.84546,121.00771999999999,1
下東興,24.8095,121.04553999999999,1
員山便利屋,24.784039,121.045575,1
麻園橋,24.84459,120.97641000000002,1
榮華,24.748279999999998,121.082237,1
東海,24.805039999999998,121.04968999999998,1
庄尾,24.872989999999998,120.95478,1
喜來登飯店,24.819239000000003,121.028755,1
隘口,24.797620000000002,121.04836,1
金興,24.85985,120.97556000000002,1
下東興,24.80965,121.04543999999999,1
縣體育館,24.81939,121.01923000000001,1
上鹿場,24.81806,121.02367,1
工研院(東),24.774379999999997,121.04811000000001,1
自強北路勝利八街,24.824070000000003,121.03195,1
三玄宮,24.832179999999997,120.98884,1
四重埔,24.755779,121.070494,1
廣聖宮,24.822589999999998,121.02702,1
縣政府,24.82573,121.01276999999999,1
田中央,24.855897,120.9978,1
土地廟,24.84796,120.98238,1
貓兒錠口,24.85527,121.0014,1
溝貝街口,24.84574,120.99073999999999,1
中正橋,24.787881,121.064625,1
郵局前,24.86279,121.02605,1
泉州厝,24.821260000000002,121.014,1
員山里,24.784979999999997,121.03492,1
訓練中心,24.858079999999998,121.01993999999999,1
新仁大安醫院,24.83501,121.00771,1
成瀧,24.834847,121.026097,1
許厝,24.84684,120.95709,1
東光,24.79719,121.05502,1
鳳岡國小,24.86133,120.96467,1
大灣街口,24.842570000000002,120.97527,1
東海里,24.793088,121.05806299999999,1
新社尾,24.842979999999997,120.99183000000001,1
喜來登飯店,24.821011,121.02901999999999,1
清泉堂,24.86732,121.03281000000001,1
德惠宮,24.86209,120.95382,1
台鐵竹中站,24.78129,121.03128999999998,1
東海,24.80288,121.05098999999998,1
長園,24.84926,120.97918999999999,1
竹北市公所站,24.839000000000002,121.00399999999999,1
田屋,24.83146,121.02559,1
公園大郡,24.843420000000002,121.00246000000001,1
隘口三街,24.80111,121.04308,1
實驗中學,24.7765,121.01711,1
榮民講習所,24.857779999999998,121.01382,1
池府王爺廟,24.910007,120.976481,1
和興,24.84601,120.94793,1
田屋,24.831429999999997,121.02553999999999,1
公園城,24.83315,121.02361,1
台元紡織廠,24.838620000000002,121.0115,1
新工派出所,24.871334,121.016251,1
聯興口,24.84303,120.99476999999999,1
十興路站,24.833000000000002,121.022,1
東方荷蘭,24.785708,121.065898,1
拔仔窟,24.86453,120.94941999999999,1
竹東火車站,24.73789,121.09423999999999,1
花王公司,24.864314,121.004425,1
澎湖窟,24.83619,120.98386,1
文興嘉豐南路口,24.80888,121.03201000000001,1
新瓦屋站,24.811320000000002,121.02780200000001,1
十興,24.81484,121.03555,1
義民廟,24.842229999999997,121.036552,1
南茂科技,24.847979300000002,121.0108905,1
公道五路口,24.783591,121.047027,1
新埔宗祠客家文化導覽館,24.82791,121.07926,1
安興國小,24.826276,121.033442,1
台泥前,24.72815,121.09273999999999,1
新瓦屋,24.84454,121.03346,1
十興,24.81494,121.03536000000001,1
文化中心站,24.83,121.014,1
下排子,24.84684,121.02864,1
白地,24.84962,120.95808999999998,1
特殊教育學校,24.815179999999998,121.03275,1
蓮花寺,24.87614,120.96138,1
狀元新村,24.758931,121.065123,1
公園大郡,24.843420000000002,121.0023,1
華興街,24.838420000000003,121.00062,1
竹北,24.83746,121.00913999999999,1
義民廟,24.843432999999997,121.03537800000001,1
公三公園,24.80313,121.03668,1
澎湖窟,24.836270000000003,120.98392,1
頂庄口,24.84244,120.96173999999999,1
六家五路,24.80741,121.02933999999999,1
新社,24.84204,120.99835,1
衛生局,24.82538,121.01539,1
水利大樓,24.834571,121.004474,1
聯興社區,24.84649,120.98808000000001,1
白地口,24.843020000000003,120.94863000000001,1
文興嘉豐南路口,24.811144,121.02708999999999,1
客家園區,24.81156,121.02785,1
中正堂,24.86584,121.0307,1
博愛國小,24.829829999999998,121.00509,1
東興國小,24.80554,121.03323,1
園頂,24.86167,120.9713,1
縣政二路站,24.830782,121.018153,1
湖口老街,24.878519,121.058554,1
喜來登站,24.820874,121.02933300000001,1
喜來登飯店站,24.82,121.029,1
竹北口,24.837770000000003,121.00521,1
砂石廠,24.792342,121.05891899999999,1
光復工業二路口,24.86794,121.02299,1
林厝,24.83459,120.9938,1
新竹高鐵站,24.807,121.04,1
下山,24.79116,121.06263,1
交叉口,24.81934,121.03058,1
家樂福,24.82757,121.00917,1
紫藤園社區,24.783978,121.05324099999999,1
義民廟,24.84195,121.036689,1
六家五路,24.80734,121.02938,1
文興嘉興路口,24.812552,121.02418600000001,1
東海,24.80288,121.05098999999998,1
訓練中心,24.85805,121.02006999999999,1
東勢口,24.86337,120.96826999999999,1
水圳公園,24.809279999999998,121.03616000000001,1
郵局,24.736629999999998,121.0931,1
花王公司,24.864595,121.00453200000001,1
牛欄滄,24.73742,121.128923,1
國產實業,24.79231,121.05657,1
拔仔窟,24.86443,120.9494,1
文化中心,24.830227,121.01162,1
上鹿場,24.81816,121.02349,1
麻園國小,24.84639,120.97643000000001,1
長青路口,24.843429999999998,120.95573999999999,1
六家農會,24.81775,121.02855,1
崇義村,24.8616,120.958106,1
陳厝,24.83794,120.98432,1
逸境新村,24.85679,120.99158999999999,1
麻園涼亭,24.847839999999998,120.97681000000001,1
新溪街,24.83323,120.99113999999999,1
公九公園,24.83292,121.0011,1
下排子,24.846829999999997,121.02863,1
中泰路口站,24.840239999999998,121.0055015,1
新社,24.84226,120.99824,1
工研院(東),24.776305999999998,121.04645,1
公道五路口,24.78337,121.03983999999998,1
里活動中心,24.82982,120.99868000000001,1
崇義村,24.861545,120.95785500000001,1
嘉政一街,24.80883,121.02658000000001,1
榮民醫院,24.72338,121.09878,1
橫山,24.72056,121.11623,1
六家派出所站,24.822281,121.03009499999999,1
自強北路勝利八街,24.82426,121.03169,1
下枋寮,24.84571,121.03053,1
下山,24.7913,121.06257,1
天后宮,24.83543,121.01195,1
六家高鐵站,24.80719,121.04028000000001,1
竹北口,24.83801,121.0051,1
榮民醫院,24.72335,121.09875,1
嘉豐一街,24.81501,121.02773,1
高鐵新竹站,24.80785,121.04043999999999,1
隘口三街,24.80111,121.04286,1
員山加油站,24.78458,121.04853,1
竹北市公所站,24.839000000000002,121.00399999999999,1
下斗崙,24.82927,120.99923000000001,1
縣政府,24.825979999999998,121.0116,1
黃昏市場,24.84165,120.98658999999999,1
長園,24.8492,120.97908999999999,1
東元醫院,24.82369,121.01266000000001,1
新港里,24.84957,120.94508,1
上十興,24.81399,121.03791000000001,1
員山便利屋,24.783991,121.04558899999999,1
管理中心,24.87201,121.00967299999999,1
縣政府,24.825229999999998,121.01221000000001,1
義民廟,24.842124,121.036533,1
清境名園,24.84236,120.96614,1
大灣街口,24.84255,120.97533999999999,1
下庄口,24.842031,120.95786000000001,1
堤頂,24.793129999999998,121.05322,1
祖師廟,24.82566,121.00648000000001,1
台泥前,24.72815,121.09283,1
員山加油站,24.78452,121.04842,1
青山鳳凰宮,24.862465,120.969679,1
狀元新村,24.759119000000002,121.06498899999998,1
喜來登飯店,24.820089000000003,121.02718600000001,1
鳳岡國中,24.86373,120.96631000000001,1
白地口,24.84301,120.94853,1
土地廟,24.8425,120.95108,1
台新罐頭廠,24.82704,121.0028,1
尚海灘,24.869967000000003,120.95149599999999,1
文化街口,24.83609,121.0152,1
新社里,24.84358,120.99453999999999,1
馬麟厝,24.84074,120.9848,1
婦幼館,24.8339,121.01955,1
榮光三民路口,24.86589,120.99785,1
新仁大安醫院,24.83482,121.00765,1
上員火車站,24.778170000000003,121.055847,1
六家派出所站,24.822303,121.03041999999999,1
四重埔,24.755834,121.07059699999999,1
土地廟,24.847939999999998,120.98232,1
竹北國中,24.840989999999998,121.00066000000001,1
大眉,24.856360000000002,120.99521999999999,1
鳳岡國小,24.86135,120.9645,1
二重埔,24.76652,121.05698000000001,1
竹北,24.83793,121.00967,1
竹北火車站,24.839724,121.009382,1
北和宮,24.83802,121.01534,1
富貴街口,24.777159,121.03478700000001,1
十興國小,24.82465,121.0249,1
新豐後火車站,24.868658,120.997079,1
中正堂,24.86577,121.03058,1
客家園區,24.81152,121.02779,1
聯興社區,24.84647,120.98808000000001,1
嘉豐郵局站,24.814,121.02799999999999,1
高鐵新竹站,24.808739000000003,121.041418,1
土地公,24.858258,120.984711,1
仁愛國中,24.83304,121.01395,1
豆子埔橋,24.832060000000002,121.00321000000001,1
光復東路永順街口,24.870251,121.03405,1
南茂科技,24.8478529,121.0102384,1
莊敬北路站,24.829,121.02600000000001,1
天后宮,24.83555,121.01158999999998,1
安興國小,24.825585999999998,121.033156,1
邱厝,24.84058,120.9806,1
六家,24.816589999999998,121.02613000000001,1
台新罐頭廠,24.82704,121.0028,1
北和宮,24.83796,121.01547,1
新民街,24.84402,120.99647,1
鳳山崎,24.85732,120.98878,1
婦幼館,24.83401,121.01942,1
高鐵新竹站,24.80785,121.040443,1
新庄口,24.84196,120.95589,1
陳厝,24.83792,120.98438999999999,1
榮光三民路口,24.865423999999997,120.99766499999998,1
頂好超市,24.83519,121.01794,1
民德路口,24.7438,121.08331000000001,1
喜來登飯店,24.820870000000003,121.02928999999999,1
崁頂,24.86147,120.95655,1
廣和宮,24.828015,121.074624,1
高鐵新竹站,24.807025,121.04061200000001,1
員山路口,24.782655,121.03922,1
東海,24.802847,121.05086200000001,1
石爺石娘,24.745167000000002,121.13833000000001,1
新社里,24.84354,120.99448999999998,1
衛生所,24.83137,121.0062,1
清泉堂,24.86724,121.03294,1
台元紡織廠,24.83867,121.01176000000001,1
盛隆,24.84263,120.98951000000001,1
崁仔腳,24.8616,120.94912,1
台北榮總新竹分院,24.72338,121.09852,1
博愛國小,24.83005,121.0051,1
溪洲里,24.83299,120.98311000000001,1
東興,24.80786,121.04784,1
東興國小,24.80555,121.03323,1
泰和一街口,24.8459,121.00571000000001,1
彰化銀行,24.84208,121.01274,1
喜來登飯店,24.820874,121.029335,1
東光,24.797520000000002,121.05488999999999,1
下斗崙,24.82939,120.99902,1
山腳,24.87398,120.95608999999999,1
米崙,24.81254,121.04105,1
華興街,24.83833,121.00056000000001,1
竹北地政事務所站,24.833000000000002,121.01299999999999,1
自強南路站,24.818,121.027,1
管理中心,24.87203,121.00983000000001,1
大東山休閒農園,24.8528,121.02197,1
縣體育館,24.81927,121.01937,1
東海里,24.79324,121.0582,1
上員火車站,24.778051,121.055784,1
長青路口,24.843420000000002,120.95567,1
庄尾,24.87305,120.95476000000001,1
泉州厝,24.82116,121.01386000000001,1
下溪洲,24.841820000000002,120.97013000000001,1
池府王爺廟,24.910425,120.97670500000001,1
大東山休閒農園,24.852710000000002,121.022,1
中溪洲,24.841217999999998,120.97361399999998,1
伍福宮,24.82185,121.02906999999999,1
榮華,24.748357000000002,121.082374,1
蓮園社區,24.84711,120.98521000000001,1
高鐵八路,24.80322,121.04073999999999,1
家樂福,24.827469,121.00918300000001,1
嘉政一街,24.80881,121.02645,1
文山三民路口,24.788877,121.06741699999999,1
光復工業二路口,24.867959,121.02308500000001,1
聯興,24.84075,120.97888999999999,1
新農民市場,24.831329,121.087639,1
油羅溪橋,24.720143,121.122577,1
頂庄口,24.842579999999998,120.96167,1
新豐後火車站,24.868829,120.99688,1
文化街口,24.836270000000003,121.01518999999999,1
三崁店,24.79469,121.05667,1
竹東,24.739744,121.085747,1
金山街,24.77818,121.01908999999999,1
頂好超市,24.8352,121.01793,1
里活動中心,24.83144,120.99817,1
中醫大,24.823975,121.00109099999999,1
崁頂,24.8616,120.95626999999999,1
衛生局,24.825770000000002,121.01543000000001,1
大眉,24.85639,120.99542,1
下庄口,24.842,120.95761999999999,1
東海,24.802991,121.05089699999999,1
鳳山崎,24.85755,120.98807,1
上泉州厝,24.82016,121.01687,1
新工派出所,24.8713,121.01628999999998,1
台北榮總新竹分院,24.72329,121.09885,1
喜來登,24.820120000000003,121.02926000000001,1
光復東路安宅七街口,24.869510000000002,121.02758999999999,1
文興嘉興路口,24.81281,121.02413,1
豐田口,24.8421,120.96725,1
高鐵八路,24.803160000000002,121.04066999999999,1
馬麟厝,24.84074,120.9848,1
臺大醫院竹東分院,24.71876,121.09441000000001,1
新竹鄉城,24.86051,121.00759,1
土地廟,24.84253,120.95093,1
喜來登站,24.820987,121.02903700000002,1
天后宮,24.83549,121.01156,1
蓮花寺入口,24.87705,120.95531000000001,1
文化局,24.83028,121.01146999999999,1
三崁店,24.79477,121.05676000000001,1
中華公園,24.87228,121.01236000000002,1
義民廟,24.843523,121.03533200000001,1
東海國小,24.80508,121.04959,1
市場前,24.834210000000002,121.01432,1
溪洲里,24.83292,120.98311000000001,1
民德路口,24.74409,121.08323,1
市公所,24.83953,121.00375,1
新安,24.78119,121.00438999999999,1
台灣企銀,24.82791,121.01013999999999,1
金興,24.859920000000002,120.97551000000001,1
高鐵新竹站,24.80719,121.04028000000001,1
華興街口,24.842229999999997,121.00493,1
兒15公園,24.844079999999998,120.99993,1
新庄子,24.721832,121.109125,1
光復東路安宅七街口,24.869406,121.02744299999999,1
泰和里,24.848133999999998,121.010631,1
嘉豐一街,24.81503,121.02791,1
百木達景觀休閒花市,24.84179,121.03658,1
竹東火車站,24.73806,121.09421,1
金谷農場口,24.856011,121.1053,1
新社尾,24.84306,120.99184,1
溝貝街口,24.84574,120.99087,1
林厝,24.83472,120.99407,1
田心子,24.8687,120.95125,1
文興嘉豐南路口站,24.808586,121.03261100000002,1
聯興,24.84075,120.97888999999999,1
縣政二路站,24.830887,121.01791000000001,1
中和街口,24.84925,121.00482,1
台大竹東分院,24.718718,121.094392,1
橫山,24.72044,121.11601,1
豐田國小,24.8424,120.96473,1
勝利二路站,24.822,121.027,1
員山里,24.7854,121.03513999999998,1
竹北口,24.837752,121.004723,1
臺北榮總新竹分院,24.723359,121.099323,1
和興,24.845760000000002,120.94763,1
新仁醫院,24.835179999999998,121.00863999999999,1
六家,24.816229999999997,121.0264,1
文化中心,24.830268,121.011526,1
光復東路永順街口,24.87053,121.03393,1
東興,24.808020000000003,121.04785,1
紫藤園社區,24.784086,121.05325800000001,1
上十興,24.81394,121.03818999999999,1
青山鳳凰宮,24.862465,120.969679,1
祖師廟,24.82566,121.0066,1
蓮園社區,24.847070000000002,120.98528999999999,1
紅毛港,24.91098,120.97108100000001,1
砂石廠,24.792555,121.058982,1
蓮花寺入口,24.8771,120.95536000000001,1
